aileron,elevator,rudder,flaps,slats,speedbrake,throttle,throttle,engine-pump,engine-pump,electric-pump,electric-pump,external-power,APU-generator,latitude-deg,longitude-deg,altitude-ft,roll-deg,pitch-deg,heading-deg,side-slip-deg,airspeed-kt,glideslope,vertical-speed-fps,airspeed-indicator_indicated-speed-kt,altimeter_indicated-altitude-ft,altimeter_pressure-alt-ft,attitude-indicator_indicated-pitch-deg,attitude-indicator_indicated-roll-deg,attitude-indicator_internal-pitch-deg,attitude-indicator_internal-roll-deg,encoder_indicated-altitude-ft,encoder_pressure-alt-ft,gps_indicated-altitude-ft,gps_indicated-ground-speed-kt,gps_indicated-vertical-speed,indicated-heading-deg,magnetic-compass_indicated-heading-deg,slip-skid-ball_indicated-slip-skid,turn-indicator_indicated-turn-rate,vertical-speed-indicator_indicated-speed-fpm,engine_rpm
0.000000,0.000000,0.000000,0.000000,0.000000,0.000000,0.000000,0.000000,0,0,0,0,0,0,30.7798632985,34.6818519576,-9999.000000,0.000000,0.424000,246.889999,0.000000,0.000000,0.000000,0.000000,0.000000,0.000000,0.000000,0.000000,0.000000,0.000000,0.000000,0.000000,0.000000,0.000000,0.000000,0.000000,0.000000,0.000000,0.000000,0.000000,0.000000,0.000000
0.000000,0.000000,0.000000,0.000000,0.000000,0.000000,0.000000,0.000000,0,0,0,0,0,0,30.7798632985,34.6818519576,-9999.000000,0.000000,0.424000,246.889999,0.000000,0.000000,0.000000,0.000000,0.000000,0.000000,1.193444,12.000000,40.000000,0.000000,0.000000,0.000000,0.000000,0.000000,0.000000,0.000000,246.889999,0.000000,0.000000,0.000000,0.000000,0.000000
0.000000,0.000000,0.000000,0.000000,0.000000,0.000000,0.000000,0.000000,0,0,0,0,0,0,30.7693347160,34.6531480301,-9999.000000,0.000000,0.424000,66.870003,0.000000,0.000000,0.000000,0.000000,0.000000,0.000000,1.193444,12.000000,40.000000,0.000000,0.000000,0.000000,0.000000,0.000000,0.000000,0.000000,246.889999,0.000000,0.000000,0.000000,0.000000,0.000000
0.000000,0.000000,0.000000,0.000000,0.000000,0.000000,0.000000,0.000000,0,0,0,0,0,0,30.7693347160,34.6531480301,-9999.000000,0.000000,0.424000,66.870003,0.000000,0.000000,0.000000,0.000000,0.000000,0.000000,1.193444,12.000000,40.000000,0.000000,0.000000,0.000000,0.000000,0.000000,0.000000,0.000000,246.889999,0.000000,0.000000,0.000000,0.000000,0.000000
0.000000,0.000000,0.000000,0.000000,0.000000,0.000000,0.000000,0.000000,0,0,0,0,0,0,30.7693347160,34.6531480301,-9999.000000,0.000000,0.424000,66.870003,0.000000,0.000000,0.000000,0.000000,0.000000,0.000000,1.193444,12.000000,40.000000,0.000000,0.000000,0.000000,0.000000,0.000000,0.000000,0.000000,246.889999,0.000000,0.000000,0.000000,0.000000,0.000000
0.000000,0.000000,0.000000,0.000000,0.000000,0.000000,0.000000,0.000000,0,0,0,0,0,0,30.7693347160,34.6531480301,-9999.000000,0.000000,0.424000,66.870003,0.000000,0.000000,0.000000,0.000000,0.000000,0.000000,1.193444,12.000000,40.000000,0.000000,0.000000,0.000000,0.000000,0.000000,0.000000,0.000000,246.889999,0.000000,0.000000,0.000000,0.000000,0.000000
0.000000,0.000000,0.000000,0.000000,0.000000,0.000000,0.000000,0.000000,0,0,0,0,0,0,30.7693347160,34.6531480301,-9999.000000,0.000000,0.424000,66.870003,0.000000,0.000000,0.000000,0.000000,0.000000,0.000000,1.193444,12.000000,40.000000,0.000000,0.000000,0.000000,0.000000,0.000000,0.000000,0.000000,246.889999,0.000000,0.000000,0.000000,0.000000,0.000000
0.000000,0.000000,0.000000,0.000000,0.000000,0.000000,0.000000,0.000000,0,0,0,0,0,0,30.7693347160,34.6531480301,-9999.000000,0.000000,0.424000,66.870003,0.000000,0.000000,0.000000,0.000000,0.000000,0.000000,1.193444,12.000000,40.000000,0.000000,0.000000,0.000000,0.000000,0.000000,0.000000,0.000000,246.889999,0.000000,0.000000,0.000000,0.000000,0.000000
0.000000,0.000000,0.000000,0.000000,0.000000,0.000000,0.000000,0.000000,0,0,0,0,0,0,30.7693347160,34.6531480301,-9999.000000,0.000000,0.424000,66.870003,0.000000,0.000000,0.000000,0.000000,0.000000,0.000000,1.193444,12.000000,40.000000,0.000000,0.000000,0.000000,0.000000,0.000000,0.000000,0.000000,246.889999,0.000000,0.000000,0.000000,0.000000,0.000000
0.000000,0.000000,0.000000,0.000000,0.000000,0.000000,0.000000,0.000000,0,0,0,0,0,0,30.7693347160,34.6531480301,-9999.000000,0.000000,0.424000,66.870003,0.000000,0.000000,0.000000,0.000000,0.000000,0.000000,1.193444,12.000000,40.000000,0.000000,0.000000,0.000000,0.000000,0.000000,0.000000,0.000000,246.889999,0.000000,0.000000,0.000000,0.000000,0.000000
0.000000,0.000000,0.000000,0.000000,0.000000,0.000000,0.000000,0.000000,0,0,0,0,0,0,30.7693347160,34.6531480301,-9999.000000,0.000000,0.424000,66.870003,0.000000,0.000000,0.000000,0.000000,0.000000,0.000000,1.193444,12.000000,40.000000,0.000000,0.000000,0.000000,0.000000,0.000000,0.000000,0.000000,246.889999,0.000000,0.000000,0.000000,0.000000,0.000000
0.000000,0.000000,0.000000,0.000000,0.000000,0.000000,0.000000,0.000000,0,0,0,0,0,0,30.7693347160,34.6531480301,-9999.000000,0.000000,0.424000,66.870003,0.000000,0.000000,0.000000,0.000000,0.000000,0.000000,1.193444,12.000000,40.000000,0.000000,0.000000,0.000000,0.000000,0.000000,0.000000,0.000000,246.889999,0.000000,0.000000,0.000000,0.000000,0.000000
0.000000,0.000000,0.000000,0.000000,0.000000,0.000000,0.000000,0.000000,0,0,0,0,0,0,30.7693347160,34.6531480301,-9999.000000,0.000000,0.424000,66.870003,0.000000,0.000000,0.000000,0.000000,0.000000,0.000000,1.193444,12.000000,40.000000,0.000000,0.000000,0.000000,0.000000,0.000000,0.000000,0.000000,246.889999,0.000000,0.000000,0.000000,0.000000,0.000000
0.000000,0.000000,0.000000,0.000000,0.000000,0.000000,0.000000,0.000000,0,0,0,0,0,0,30.7693347160,34.6531480301,-9999.000000,0.000000,0.424000,66.870003,0.000000,0.000000,0.000000,0.000000,0.000000,0.000000,1.193444,12.000000,40.000000,0.000000,0.000000,0.000000,0.000000,0.000000,0.000000,0.000000,246.889999,0.000000,0.000000,0.000000,0.000000,0.000000
0.000000,0.000000,0.000000,0.000000,0.000000,0.000000,0.000000,0.000000,0,0,0,0,0,0,30.7693347160,34.6531480301,-9999.000000,0.000000,0.424000,66.870003,0.000000,0.000000,0.000000,0.000000,0.000000,0.000000,1.193444,12.000000,40.000000,0.000000,0.000000,0.000000,0.000000,0.000000,0.000000,0.000000,246.889999,0.000000,0.000000,0.000000,0.000000,0.000000
0.000000,0.000000,0.000000,0.000000,0.000000,0.000000,0.000000,0.000000,0,0,0,0,0,0,30.7693347160,34.6531480301,-9999.000000,0.000000,0.424000,66.870003,0.000000,0.000000,0.000000,0.000000,0.000000,0.000000,1.193444,12.000000,40.000000,0.000000,0.000000,0.000000,0.000000,0.000000,0.000000,0.000000,246.889999,0.000000,0.000000,0.000000,0.000000,0.000000
0.000000,0.000000,0.000000,0.000000,0.000000,0.000000,0.000000,0.000000,0,0,0,0,0,0,30.7693347160,34.6531480301,-9999.000000,0.000000,0.424000,66.870003,0.000000,0.000000,0.000000,0.000000,0.000000,0.000000,1.193444,12.000000,40.000000,0.000000,0.000000,0.000000,0.000000,0.000000,0.000000,0.000000,246.889999,0.000000,0.000000,0.000000,0.000000,0.000000
0.000000,0.000000,0.000000,0.000000,0.000000,0.000000,0.000000,0.000000,0,0,0,0,0,0,30.7693347160,34.6531480301,-9999.000000,0.000000,0.424000,66.870003,0.000000,0.000000,0.000000,0.000000,0.000000,0.000000,1.193444,12.000000,40.000000,0.000000,0.000000,0.000000,0.000000,0.000000,0.000000,0.000000,246.889999,0.000000,0.000000,0.000000,0.000000,0.000000
0.000000,0.000000,0.000000,0.000000,0.000000,0.000000,0.000000,0.000000,0,0,0,0,0,0,30.7693347160,34.6531480301,-9999.000000,0.000000,0.424000,66.870003,0.000000,0.000000,0.000000,0.000000,0.000000,0.000000,1.193444,12.000000,40.000000,0.000000,0.000000,0.000000,0.000000,0.000000,0.000000,0.000000,246.889999,0.000000,0.000000,0.000000,0.000000,0.000000
0.000000,0.000000,0.000000,0.000000,0.000000,0.000000,0.000000,0.000000,0,0,0,0,0,0,30.7693347160,34.6531480301,-9999.000000,0.000000,0.424000,66.870003,0.000000,0.000000,0.000000,0.000000,0.000000,0.000000,1.193444,12.000000,40.000000,0.000000,0.000000,0.000000,0.000000,0.000000,0.000000,0.000000,246.889999,0.000000,0.000000,0.000000,0.000000,0.000000
0.000000,0.000000,0.000000,0.000000,0.000000,0.000000,0.000000,0.000000,0,0,0,0,0,0,30.7693347160,34.6531480301,-9999.000000,0.000000,0.424000,66.870003,0.000000,0.000000,0.000000,0.000000,0.000000,0.000000,1.193444,12.000000,40.000000,0.000000,0.000000,0.000000,0.000000,0.000000,0.000000,0.000000,246.889999,0.000000,0.000000,0.000000,0.000000,0.000000
0.000000,0.000000,0.000000,0.000000,0.000000,0.000000,0.000000,0.000000,0,0,0,0,0,0,30.7693347160,34.6531480301,-9999.000000,0.000000,0.424000,66.870003,0.000000,0.000000,0.000000,0.000000,0.000000,0.000000,1.193444,12.000000,40.000000,0.000000,0.000000,0.000000,0.000000,0.000000,0.000000,0.000000,246.889999,0.000000,0.000000,0.000000,0.000000,0.000000
0.000000,0.000000,0.000000,0.000000,0.000000,0.000000,0.000000,0.000000,0,0,0,0,0,0,30.7693347160,34.6531480301,-9999.000000,0.000000,0.424000,66.870003,0.000000,0.000000,0.000000,0.000000,0.000000,0.000000,1.193444,12.000000,40.000000,0.000000,0.000000,0.000000,0.000000,0.000000,0.000000,0.000000,246.889999,0.000000,0.000000,0.000000,0.000000,0.000000
0.000000,0.000000,0.000000,0.000000,0.000000,0.000000,0.000000,0.000000,0,0,0,0,0,0,30.7693347160,34.6531480301,-9999.000000,0.000000,0.424000,66.870003,0.000000,0.000000,0.000000,0.000000,0.000000,0.000000,1.193444,12.000000,40.000000,0.000000,0.000000,0.000000,0.000000,0.000000,0.000000,0.000000,246.889999,0.000000,0.000000,0.000000,0.000000,0.000000
0.000000,0.000000,0.000000,0.000000,0.000000,0.000000,0.000000,0.000000,0,0,0,0,0,0,30.7693347160,34.6531480301,-9999.000000,0.000000,0.424000,66.870003,0.000000,0.000000,0.000000,0.000000,0.000000,0.000000,1.193444,12.000000,40.000000,0.000000,0.000000,0.000000,0.000000,0.000000,0.000000,0.000000,246.889999,0.000000,0.000000,0.000000,0.000000,0.000000
0.000000,0.000000,0.000000,0.000000,0.000000,0.000000,0.000000,0.000000,0,0,0,0,0,0,30.7693347160,34.6531480301,-9999.000000,0.000000,0.424000,66.870003,0.000000,0.000000,0.000000,0.000000,0.000000,0.000000,1.193444,12.000000,40.000000,0.000000,0.000000,0.000000,0.000000,0.000000,0.000000,0.000000,246.889999,0.000000,0.000000,0.000000,0.000000,0.000000
0.000000,0.000000,0.000000,0.000000,0.000000,0.000000,0.000000,0.000000,0,0,0,0,0,0,30.7693347160,34.6531480301,-9999.000000,0.000000,0.424000,66.870003,0.000000,0.000000,0.000000,0.000000,0.000000,0.000000,1.193444,12.000000,40.000000,0.000000,0.000000,0.000000,0.000000,0.000000,0.000000,0.000000,246.889999,0.000000,0.000000,0.000000,0.000000,0.000000
0.000000,0.000000,0.000000,0.000000,0.000000,0.000000,0.000000,0.000000,0,0,0,0,0,0,30.7693347160,34.6531480301,-9999.000000,0.000000,0.424000,66.870003,0.000000,0.000000,0.000000,0.000000,0.000000,0.000000,1.193444,12.000000,40.000000,0.000000,0.000000,0.000000,0.000000,0.000000,0.000000,0.000000,246.889999,0.000000,0.000000,0.000000,0.000000,0.000000
0.000000,0.000000,0.000000,0.000000,0.000000,0.000000,0.000000,0.000000,0,0,0,0,0,0,30.7693347160,34.6531480301,-9999.000000,0.000000,0.424000,66.870003,0.000000,0.000000,0.000000,0.000000,0.000000,0.000000,1.193444,12.000000,40.000000,0.000000,0.000000,0.000000,0.000000,0.000000,0.000000,0.000000,246.889999,0.000000,0.000000,0.000000,0.000000,0.000000
0.000000,0.000000,0.000000,0.000000,0.000000,0.000000,0.000000,0.000000,0,0,0,0,0,0,30.7693347160,34.6531480301,-9999.000000,0.000000,0.424000,66.870003,0.000000,0.000000,0.000000,0.000000,0.000000,0.000000,1.193444,12.000000,40.000000,0.000000,0.000000,0.000000,0.000000,0.000000,0.000000,0.000000,246.889999,0.000000,0.000000,0.000000,0.000000,0.000000
0.000000,0.000000,0.000000,0.000000,0.000000,0.000000,0.000000,0.000000,0,0,0,0,0,0,30.7693347160,34.6531480301,-9999.000000,0.000000,0.424000,66.870003,0.000000,0.000000,0.000000,0.000000,0.000000,0.000000,1.193444,12.000000,40.000000,0.000000,0.000000,0.000000,0.000000,0.000000,0.000000,0.000000,246.889999,0.000000,0.000000,0.000000,0.000000,0.000000
0.000000,0.000000,0.000000,0.000000,0.000000,0.000000,0.000000,0.000000,0,0,0,0,0,0,30.7693347160,34.6531480301,-9999.000000,0.000000,0.424000,66.870003,0.000000,0.000000,0.000000,0.000000,0.000000,0.000000,1.193444,12.000000,40.000000,0.000000,0.000000,0.000000,0.000000,0.000000,0.000000,0.000000,246.889999,0.000000,0.000000,0.000000,0.000000,0.000000
0.000000,0.000000,0.000000,0.000000,0.000000,0.000000,0.000000,0.000000,0,0,0,0,0,0,30.7693347160,34.6531480301,-9999.000000,0.000000,0.424000,66.870003,0.000000,0.000000,0.000000,0.000000,0.000000,0.000000,1.193444,12.000000,40.000000,0.000000,0.000000,0.000000,0.000000,0.000000,0.000000,0.000000,246.889999,0.000000,0.000000,0.000000,0.000000,0.000000
0.000000,0.000000,0.000000,0.000000,0.000000,0.000000,0.000000,0.000000,0,0,0,0,0,0,30.7693347160,34.6531480301,-9999.000000,0.000000,0.424000,66.870003,0.000000,0.000000,0.000000,0.000000,0.000000,0.000000,1.193444,12.000000,40.000000,0.000000,0.000000,0.000000,0.000000,0.000000,0.000000,0.000000,246.889999,0.000000,0.000000,0.000000,0.000000,0.000000
0.000000,0.000000,0.000000,0.000000,0.000000,0.000000,0.000000,0.000000,0,0,0,0,0,0,30.7693347160,34.6531480301,-9999.000000,0.000000,0.424000,66.870003,0.000000,0.000000,0.000000,0.000000,0.000000,0.000000,1.193444,12.000000,40.000000,0.000000,0.000000,0.000000,0.000000,0.000000,0.000000,0.000000,246.889999,0.000000,0.000000,0.000000,0.000000,0.000000
0.000000,0.000000,0.000000,0.000000,0.000000,0.000000,0.000000,0.000000,0,0,0,0,0,0,30.7693347160,34.6531480301,-9999.000000,0.000000,0.424000,66.870003,0.000000,0.000000,0.000000,0.000000,0.000000,0.000000,1.193444,12.000000,40.000000,0.000000,0.000000,0.000000,0.000000,0.000000,0.000000,0.000000,246.889999,0.000000,0.000000,0.000000,0.000000,0.000000
0.000000,0.000000,0.000000,0.000000,0.000000,0.000000,0.000000,0.000000,0,0,0,0,0,0,30.7693340647,34.6531472403,2131.875000,-0.515180,4.008967,66.848923,0.000000,0.000000,0.000000,0.000000,0.000000,0.000000,1.193444,12.000000,40.000000,0.000000,0.000000,0.000000,0.000000,0.000000,0.000000,0.000000,246.889999,0.000000,0.000000,0.000000,0.000000,0.000000
0.000000,0.000000,0.000000,0.000000,0.000000,0.000000,0.000000,0.000000,0,0,0,0,0,0,30.7693340675,34.6531472381,2131.875000,-0.530739,4.011962,66.847672,-23.196407,2.925263,0.032740,0.000005,0.000000,2140.187500,2141.380859,12.000000,40.000000,0.000000,0.000000,2140.000244,2140.000000,2131.875000,0.000000,0.000569,246.889969,5.579857,0.041810,-0.985256,15490.831055,0.000000
0.000000,0.000000,0.000000,0.000000,0.000000,0.000000,0.000000,0.000000,0,0,0,0,0,0,30.7693340681,34.6531472380,2131.875000,-0.533176,4.011300,66.847488,-17.006168,2.654301,-0.086546,-0.000002,0.000012,2111.409424,2112.602783,12.000000,40.000000,0.000000,0.000000,2110.000244,2110.000000,2131.875000,0.000000,-0.000067,246.889969,19.865744,0.057189,-1.582221,14352.375000,0.000000
0.000000,0.000000,0.000000,0.000000,0.000000,0.000000,0.000000,0.000000,0,0,0,0,0,0,30.7693340684,34.6531472380,2131.875000,-0.534904,4.010739,66.847359,-9.517774,2.420984,-0.111705,-0.000002,0.003835,2082.561768,2083.755371,12.000000,40.000000,0.000000,0.000000,2080.000244,2080.000000,2131.875000,0.000000,0.000000,246.889969,38.730343,0.062934,-1.943920,13203.597656,0.000000
0.000000,0.000000,0.000000,0.000000,0.000000,0.000000,0.000000,0.000000,0,0,0,0,0,0,30.7693340685,34.6531472379,2131.875000,-0.535072,4.010706,66.847343,-7.568654,2.373187,-0.130059,-0.000007,5.378541,2077.309326,2078.502686,12.000000,40.000000,0.000000,0.000000,2080.000244,2080.000000,2131.875000,0.000000,-0.000268,246.889969,43.331821,0.063619,-2.005275,12939.973633,0.000000
0.000000,0.000000,0.000000,0.000000,0.000000,0.000000,0.000000,0.000000,0,0,0,0,0,0,30.7693340685,34.6531472379,2131.875000,-0.535132,4.010694,66.847343,-6.925599,2.358421,-0.130437,-0.000008,6.599576,2075.527344,2076.720703,12.000000,40.000000,0.000000,0.000000,2080.000244,2080.000000,2131.875000,0.000000,-0.000268,246.889969,44.806381,0.063789,-2.023521,12854.662109,0.000000
0.000000,0.000000,0.000000,0.000000,0.000000,0.000000,0.000000,0.000000,0,0,0,0,0,0,30.7693340685,34.6531472379,2131.875000,-0.535270,4.010669,66.847328,-5.688869,2.331356,-0.128246,-0.000009,6.959474,2071.848633,2073.042236,12.000000,40.000000,0.000000,0.000000,2080.000244,2080.000000,2131.875000,0.000000,-0.000402,246.889969,47.576946,0.064100,-2.056170,12691.864258,0.000000
0.000000,0.000000,0.000000,0.000000,0.000000,0.000000,0.000000,0.000000,0,0,0,0,0,0,30.7693340688,34.6531472378,2131.875000,-0.536846,4.010382,66.847206,3.828466,2.174067,-0.111004,-0.000002,0.136329,2040.726196,2041.919556,12.000000,40.000000,0.000000,0.000000,2040.000122,2040.000000,2131.875000,0.000000,-0.000067,246.889969,65.790367,0.065636,-2.231084,11514.212891,0.000000
0.000000,0.000000,0.000000,0.000000,0.000000,0.000000,0.000000,0.000000,0,0,0,0,0,0,30.7693340689,34.6531472378,2131.875000,-0.537038,4.010333,66.847198,6.839551,2.140488,-0.093952,-0.000004,5.368023,2033.708130,2034.901611,12.000000,40.000000,0.000000,0.000000,2040.000122,2040.000000,2131.875000,0.000000,-0.000134,246.889969,70.389603,0.065863,-2.267647,11177.307617,0.000000
0.000000,0.000000,0.000000,0.000000,0.000000,0.000000,0.000000,0.000000,0,0,0,0,0,0,30.7693340689,34.6531472378,2131.875000,-0.537114,4.010312,66.847191,7.980968,2.129554,-0.094017,-0.000005,6.659348,2031.280273,2032.473755,12.000000,40.000000,0.000000,0.000000,2030.000122,2030.000000,2131.875000,0.000000,-0.000100,246.889969,71.990593,0.065931,-2.279922,11052.785156,0.000000
0.000000,0.000000,0.000000,0.000000,0.000000,0.000000,0.000000,0.000000,0,0,0,0,0,0,30.7693340689,34.6531472378,2131.875000,-0.537139,4.010306,66.847191,8.334504,2.126360,-0.093481,-0.000005,6.877137,2030.445679,2031.639038,12.000000,40.000000,0.000000,0.000000,2030.000122,2030.000000,2131.875000,0.000000,-0.000134,246.889969,72.470825,0.065952,-2.283568,11013.955078,0.000000
0.000000,0.000000,0.000000,0.000000,0.000000,0.000000,0.000000,0.000000,0,0,0,0,0,0,30.7693340689,34.6531472378,2131.875000,-0.537296,4.010270,66.847176,10.117569,2.111619,-0.087065,-0.000006,6.932253,2025.507446,2026.700928,12.000000,40.000000,0.000000,0.000000,2030.000122,2030.000000,2131.875000,0.000000,-0.000201,246.889969,74.781525,0.066047,-2.300907,10815.288086,0.000000
0.000000,0.000000,0.000000,0.000000,0.000000,0.000000,0.000000,0.000000,0,0,0,0,0,0,30.7693340690,34.6531472378,2131.875000,-0.537336,4.010262,66.847176,10.567178,2.108258,-0.106576,-0.000007,7.009820,2024.432739,2025.626099,12.000000,40.000000,0.000000,0.000000,2030.000122,2030.000000,2131.875000,0.000000,-0.000368,246.889969,75.335060,0.066067,-2.305021,10766.435547,0.000000
0.000000,0.000000,0.000000,0.000000,0.000000,0.000000,0.000000,0.000000,0,0,0,0,0,0,30.7693340690,34.6531472378,2131.875000,-0.537507,4.010232,66.847160,12.287964,2.096672,-0.078727,-0.000006,6.788043,2019.531128,2020.724609,12.000000,40.000000,0.000000,0.000000,2020.000122,2020.000000,2131.875000,0.000000,-0.000134,246.889969,77.347450,0.066154,-2.319891,10575.876953,0.000000
0.000000,0.000000,0.000000,0.000000,0.000000,0.000000,0.000000,0.000000,0,0,0,0,0,0,30.7693340690,34.6531472378,2131.875000,-0.537561,4.010224,66.847153,12.835253,2.093410,-0.106394,-0.000008,6.771142,2018.293945,2019.487427,12.000000,40.000000,0.000000,0.000000,2020.000122,2020.000000,2131.875000,0.000000,-0.000134,246.889969,77.952400,0.066189,-2.324347,10517.380859,0.000000
0.000000,0.000000,0.000000,0.000000,0.000000,0.000000,0.000000,0.000000,0,0,0,0,0,0,30.7693340690,34.6531472378,2131.875000,-0.537732,4.010207,66.847145,14.486622,2.084775,-0.068736,-0.000005,6.496518,2013.830200,2015.023682,12.000000,40.000000,0.000000,0.000000,2020.000122,2020.000000,2131.875000,0.000000,-0.000268,246.889969,79.677078,0.066252,-2.337065,10337.265625,0.000000
0.000000,0.000000,0.000000,0.000000,0.000000,0.000000,0.000000,0.000000,0,0,0,0,0,0,30.7693340691,34.6531472378,2131.875000,-0.537807,4.010201,66.847137,15.224678,2.081496,-0.069055,-0.000006,6.854623,2011.881592,2013.075073,12.000000,40.000000,0.000000,0.000000,2020.000122,2020.000000,2131.875000,0.000000,-0.000201,246.889969,80.399490,0.066278,-2.342417,10257.260742,0.000000
0.000000,0.000000,0.000000,0.000000,0.000000,0.000000,0.000000,0.000000,0,0,0,0,0,0,30.7693340691,34.6531472378,2131.875000,-0.537932,4.010197,66.847130,16.428732,2.076908,-0.067377,-0.000005,6.935381,2008.842407,2010.035767,12.000000,40.000000,0.000000,0.000000,2010.000122,2010.000000,2131.875000,0.000000,-0.000167,246.889969,81.514534,0.066319,-2.350743,10127.809570,0.000000
0.000000,0.000000,0.000000,0.000000,0.000000,0.000000,0.000000,0.000000,0,0,0,0,0,0,30.7693340691,34.6531472378,2131.875000,-0.538074,4.010198,66.847115,17.824011,2.072760,-0.064627,-0.000005,7.029144,2005.506592,2006.700073,12.000000,40.000000,0.000000,0.000000,2010.000122,2010.000000,2131.875000,0.000000,-0.000134,246.889969,82.709396,0.066377,-2.359804,9979.175781,0.000000
0.000000,0.000000,0.000000,0.000000,0.000000,0.000000,0.000000,0.000000,0,0,0,0,0,0,30.7693340691,34.6531472378,2131.875000,-0.538187,4.010203,66.847107,18.943748,2.070328,-0.061673,-0.000005,7.358807,2002.708008,2003.901367,12.000000,40.000000,0.000000,0.000000,2010.000122,2010.000000,2131.875000,0.000000,-0.000167,246.889969,83.593719,0.066412,-2.366656,9859.236328,0.000000
0.000000,0.000000,0.000000,0.000000,0.000000,0.000000,0.000000,0.000000,0,0,0,0,0,0,30.7693340691,34.6531472377,2131.875000,-0.538275,4.010211,66.847099,19.785051,2.069025,-0.058959,-0.000005,7.318621,2000.384644,2001.578003,12.000000,40.000000,0.000000,0.000000,2000.000122,2000.000000,2131.875000,0.000000,-0.000201,246.889969,84.214874,0.066435,-2.371573,9767.747070,0.000000
0.000000,0.000000,0.000000,0.000000,0.000000,0.000000,0.000000,0.000000,0,0,0,0,0,0,30.7693340692,34.6531472377,2131.875000,-0.538412,4.010226,66.847092,21.095602,2.067885,-0.056460,-0.000004,7.035703,1997.085083,1998.278442,12.000000,40.000000,0.000000,0.000000,2000.000122,2000.000000,2131.875000,0.000000,-0.000167,246.889969,85.109024,0.066487,-2.378865,9627.132813,0.000000
0.000000,0.000000,0.000000,0.000000,0.000000,0.000000,0.000000,0.000000,0,0,0,0,0,0,30.7693340692,34.6531472377,2131.875000,-0.538517,4.010239,66.847076,22.219654,2.067769,-0.053139,-0.000004,7.266317,1994.353394,1995.546875,12.000000,40.000000,0.000000,0.000000,2000.000122,2000.000000,2131.875000,0.000000,-0.000134,246.889969,85.805344,0.066524,-2.384785,9506.960938,0.000000
0.000000,0.000000,0.000000,0.000000,0.000000,0.000000,0.000000,0.000000,0,0,0,0,0,0,30.7693340692,34.6531472377,2131.875000,-0.538585,4.010246,66.847076,22.968899,2.068134,-0.075573,-0.000005,7.278974,1992.161621,1993.355103,12.000000,40.000000,0.000000,0.000000,2000.000122,2000.000000,2131.875000,0.000000,-0.000167,246.889969,86.233543,0.066546,-2.388570,9424.336914,0.000000
0.000000,0.000000,0.000000,0.000000,0.000000,0.000000,0.000000,0.000000,0,0,0,0,0,0,30.7693340692,34.6531472377,2131.875000,-0.538724,4.010259,66.847061,24.559492,2.070082,-0.041254,-0.000003,6.833346,1988.074585,1989.267944,12.000000,40.000000,0.000000,0.000000,1990.000122,1990.000000,2131.875000,0.000000,-0.000033,246.889969,87.047867,0.066589,-2.396205,9252.071289,0.000000
0.000000,0.000000,0.000000,0.000000,0.000000,0.000000,0.000000,0.000000,0,0,0,0,0,0,30.7693340692,34.6531472377,2131.875000,-0.538792,4.010264,66.847061,25.400045,2.071758,-0.037541,-0.000002,7.136473,1986.104736,1987.298218,12.000000,40.000000,0.000000,0.000000,1990.000122,1990.000000,2131.875000,0.000000,-0.000067,246.889969,87.426453,0.066610,-2.400033,9161.933594,0.000000
0.000000,0.000000,0.000000,0.000000,0.000000,0.000000,0.000000,0.000000,0,0,0,0,0,0,30.7693340692,34.6531472377,2131.875000,-0.538821,4.010267,66.847054,25.773159,2.072647,-0.065947,-0.000004,7.306741,1985.123657,1986.317139,12.000000,40.000000,0.000000,0.000000,1990.000122,1990.000000,2131.875000,0.000000,0.000033,246.889969,87.583076,0.066620,-2.401689,9121.126953,0.000000
0.000000,0.000000,0.000000,0.000000,0.000000,0.000000,0.000000,0.000000,0,0,0,0,0,0,30.7693340693,34.6531472377,2131.875000,-0.539004,4.010283,66.847038,27.911129,2.079453,-0.021515,-0.000001,6.555009,1979.264771,1980.458252,12.000000,40.000000,0.000000,0.000000,1980.000122,1980.000000,2131.875000,0.000000,-0.000033,246.889969,88.345535,0.066675,-2.410691,8884.485352,0.000000
0.000000,0.000000,0.000000,0.000000,0.000000,0.000000,0.000000,0.000000,0,0,0,0,0,0,30.7693340693,34.6531472377,2131.875000,-0.539034,4.010285,66.847038,28.281401,2.080931,-0.020655,-0.000001,6.876971,1978.385376,1979.578857,12.000000,40.000000,0.000000,0.000000,1980.000122,1980.000000,2131.875000,0.000000,-0.000033,246.889969,88.454277,0.066682,-2.412170,8844.166016,0.000000
0.000000,0.000000,0.000000,0.000000,0.000000,0.000000,0.000000,0.000000,0,0,0,0,0,0,30.7693340693,34.6531472376,2131.875000,-0.539189,4.010299,66.847023,30.124134,2.089620,-0.017518,-0.000001,6.821156,1973.669434,1974.862915,12.000000,40.000000,0.000000,0.000000,1980.000122,1980.000000,2131.875000,0.000000,0.000100,246.889969,88.893196,0.066723,-2.419207,8639.926758,0.000000
0.000000,0.000000,0.000000,0.000000,0.000000,0.000000,0.000000,0.000000,0,0,0,0,0,0,30.7693340693,34.6531472376,2131.875000,-0.539281,4.010309,66.847015,31.221785,2.095864,-0.011922,-0.000001,7.276438,1970.819702,1972.013184,12.000000,40.000000,0.000000,0.000000,1970.000122,1970.000000,2131.875000,0.000000,0.000067,246.889969,89.073730,0.066745,-2.423155,8516.833984,0.000000
0.000000,0.000000,0.000000,0.000000,0.000000,0.000000,0.000000,0.000000,0,0,0,0,0,0,30.7693340693,34.6531472376,2131.875000,-0.539347,4.010316,66.847015,31.949772,2.100452,-0.011026,-0.000001,7.106312,1968.729492,1969.922974,12.000000,40.000000,0.000000,0.000000,1970.000122,1970.000000,2131.875000,0.000000,0.000067,246.889969,89.160103,0.066757,-2.425680,8433.241211,0.000000
0.000000,0.000000,0.000000,0.000000,0.000000,0.000000,0.000000,0.000000,0,0,0,0,0,0,30.7693340694,34.6531472376,2131.875000,-0.539479,4.010334,66.847000,33.395813,2.110641,-0.004037,-0.000000,6.945920,1965.066772,1966.260254,12.000000,40.000000,0.000000,0.000000,1970.000122,1970.000000,2131.875000,0.000000,0.000033,246.889969,89.252571,0.066785,-2.430483,8269.376953,0.000000
0.000000,0.000000,0.000000,0.000000,0.000000,0.000000,0.000000,0.000000,0,0,0,0,0,0,30.7693340694,34.6531472376,2131.875000,-0.539545,4.010345,66.847000,34.113377,2.116235,-0.022524,-0.000002,7.240482,1963.103271,1964.296753,12.000000,40.000000,0.000000,0.000000,1970.000122,1970.000000,2131.875000,0.000000,-0.000067,246.889969,89.259293,0.066799,-2.432766,8186.252930,0.000000
0.000000,0.000000,0.000000,0.000000,0.000000,0.000000,0.000000,0.000000,0,0,0,0,0,0,30.7693340694,34.6531472376,2131.875000,-0.539674,4.010367,66.846985,35.448223,2.127613,0.001375,0.000000,7.050230,1959.480225,1960.673706,12.000000,40.000000,0.000000,0.000000,1960.000122,1960.000000,2131.875000,0.000000,0.000134,246.889969,89.202393,0.066825,-2.436848,8030.429199,0.000000
0.000000,0.000000,0.000000,0.000000,0.000000,0.000000,0.000000,0.000000,0,0,0,0,0,0,30.7693340694,34.6531472376,2131.875000,-0.539761,4.010382,66.846977,36.329967,2.135834,0.007490,0.000001,7.167020,1957.261353,1958.454834,12.000000,40.000000,0.000000,0.000000,1960.000122,1960.000000,2131.875000,0.000000,0.000000,246.889969,89.115082,0.066841,-2.439430,7927.737793,0.000000
0.000000,0.000000,0.000000,0.000000,0.000000,0.000000,0.000000,0.000000,0,0,0,0,0,0,30.7693340694,34.6531472376,2131.875000,-0.539824,4.010395,66.846977,36.943047,2.141889,-0.013320,-0.000001,7.288455,1955.400146,1956.593506,12.000000,40.000000,0.000000,0.000000,1960.000122,1960.000000,2131.875000,0.000000,0.000000,246.889969,89.030945,0.066856,-2.441175,7853.343262,0.000000
0.000000,0.000000,0.000000,0.000000,0.000000,0.000000,0.000000,0.000000,0,0,0,0,0,0,30.7693340695,34.6531472375,2131.875000,-0.540027,4.010436,66.846962,38.675060,2.160524,0.011438,0.000001,6.339101,1950.263794,1951.457275,12.000000,40.000000,0.000000,0.000000,1950.000122,1950.000000,2131.875000,0.000000,0.000201,246.889969,88.688828,0.066888,-2.445888,7641.511719,0.000000
0.000000,0.000000,0.000000,0.000000,0.000000,0.000000,0.000000,0.000000,0,0,0,0,0,0,30.7693340695,34.6531472375,2131.875000,-0.540113,4.010455,66.846954,39.444485,2.169546,0.011430,0.000001,6.800764,1948.285767,1949.479248,12.000000,40.000000,0.000000,0.000000,1950.000122,1950.000000,2131.875000,0.000000,0.000100,246.889969,88.487053,0.066900,-2.447884,7548.453125,0.000000
0.000000,0.000000,0.000000,0.000000,0.000000,0.000000,0.000000,0.000000,0,0,0,0,0,0,30.7693340695,34.6531472375,2131.875000,-0.540255,4.010487,66.846939,40.628353,2.184350,0.014436,0.000001,6.764270,1944.843384,1946.036865,12.000000,40.000000,0.000000,0.000000,1950.000122,1950.000000,2131.875000,0.000000,0.000100,246.889969,88.116264,0.066931,-2.450843,7400.325195,0.000000
0.000000,0.000000,0.000000,0.000000,0.000000,0.000000,0.000000,0.000000,0,0,0,0,0,0,30.7693340695,34.6531472375,2131.875000,-0.540374,4.010514,66.846931,41.630138,2.197774,0.018040,0.000002,7.080035,1942.279419,1943.472900,12.000000,40.000000,0.000000,0.000000,1950.000122,1950.000000,2131.875000,0.000000,0.000201,246.889969,87.745033,0.066954,-2.453245,7276.087402,0.000000
0.000000,0.000000,0.000000,0.000000,0.000000,0.000000,0.000000,0.000000,0,0,0,0,0,0,30.7693340695,34.6531472375,2131.875000,-0.540496,4.010544,66.846924,42.619476,2.211862,0.037776,0.000003,7.218082,1939.491211,1940.684692,12.000000,40.000000,0.000000,0.000000,1940.000122,1940.000000,2131.875000,0.000000,0.000268,246.889969,87.326309,0.066976,-2.455530,7149.581055,0.000000
0.000000,0.000000,0.000000,0.000000,0.000000,0.000000,0.000000,0.000000,0,0,0,0,0,0,30.7693340696,34.6531472374,2131.875000,-0.540613,4.010573,66.846909,43.515087,2.225348,0.002139,0.000000,7.337329,1936.669800,1937.863281,12.000000,40.000000,0.000000,0.000000,1940.000122,1940.000000,2131.875000,0.000000,0.000000,246.889969,86.902252,0.066996,-2.457526,7030.950684,0.000000
0.000000,0.000000,0.000000,0.000000,0.000000,0.000000,0.000000,0.000000,0,0,0,0,0,0,30.7693340696,34.6531472374,2131.875000,-0.540776,4.010617,66.846901,44.639133,2.243290,0.006785,0.000001,6.756747,1933.170776,1934.364258,12.000000,40.000000,0.000000,0.000000,1940.000122,1940.000000,2131.875000,0.000000,0.000033,246.889969,86.309196,0.067018,-2.459938,6880.194824,0.000000
0.000000,0.000000,0.000000,0.000000,0.000000,0.000000,0.000000,0.000000,0,0,0,0,0,0,30.7693340696,34.6531472374,2131.875000,-0.540909,4.010656,66.846886,45.588154,2.259346,0.015346,0.000002,7.133596,1930.549194,1931.742554,12.000000,40.000000,0.000000,0.000000,1930.000122,1930.000000,2131.875000,0.000000,0.000067,246.889969,85.755394,0.067038,-2.461896,6753.773438,0.000000
0.000000,0.000000,0.000000,0.000000,0.000000,0.000000,0.000000,0.000000,0,0,0,0,0,0,30.7693340696,34.6531472374,2131.875000,-0.541035,4.010693,66.846878,46.446091,2.274600,0.032685,0.000003,7.294736,1927.996338,1929.189697,12.000000,40.000000,0.000000,0.000000,1930.000122,1930.000000,2131.875000,0.000000,0.000234,246.889969,85.212608,0.067058,-2.463606,6636.125977,0.000000
0.000000,0.000000,0.000000,0.000000,0.000000,0.000000,0.000000,0.000000,0,0,0,0,0,0,30.7693340696,34.6531472374,2131.875000,-0.541094,4.010710,66.846870,46.832253,2.281701,0.021867,0.000002,7.316422,1926.819336,1928.012695,12.000000,40.000000,0.000000,0.000000,1930.000122,1930.000000,2131.875000,0.000000,0.000067,246.889969,84.955200,0.067066,-2.464358,6582.356934,0.000000
0.000000,0.000000,0.000000,0.000000,0.000000,0.000000,0.000000,0.000000,0,0,0,0,0,0,30.7693340697,34.6531472373,2131.875000,-0.541367,4.010788,66.846848,48.352669,2.311129,0.032305,0.000004,6.421768,1921.445435,1922.638916,12.000000,40.000000,0.000000,0.000000,1930.000122,1930.000000,2131.875000,0.000000,0.000067,246.889969,83.862259,0.067098,-2.467214,6360.201172,0.000000
0.000000,0.000000,0.000000,0.000000,0.000000,0.000000,0.000000,0.000000,0,0,0,0,0,0,30.7693340697,34.6531472373,2131.875000,-0.541516,4.010835,66.846840,49.246208,2.329553,0.038809,0.000004,7.001570,1918.931641,1920.125122,12.000000,40.000000,0.000000,0.000000,1920.000122,1920.000000,2131.875000,0.000000,0.000067,246.889969,83.160652,0.067120,-2.468816,6232.845215,0.000000
0.000000,0.000000,0.000000,0.000000,0.000000,0.000000,0.000000,0.000000,0,0,0,0,0,0,30.7693340697,34.6531472373,2131.875000,-0.541656,4.010879,66.846825,50.052780,2.346931,0.024771,0.000003,7.239972,1916.422363,1917.615845,12.000000,40.000000,0.000000,0.000000,1920.000122,1920.000000,2131.875000,0.000000,0.000100,246.889969,82.489464,0.067144,-2.470216,6113.625000,0.000000
0.000000,0.000000,0.000000,0.000000,0.000000,0.000000,0.000000,0.000000,0,0,0,0,0,0,30.7693340698,34.6531472372,2131.875000,-0.541821,4.010930,66.846817,50.918941,2.366411,0.022832,0.000003,7.250745,1913.308838,1914.502197,12.000000,40.000000,0.000000,0.000000,1920.000122,1920.000000,2131.875000,0.000000,0.000134,246.889969,81.728600,0.067170,-2.471671,5979.211914,0.000000
0.000000,0.000000,0.000000,0.000000,0.000000,0.000000,0.000000,0.000000,0,0,0,0,0,0,30.7693340698,34.6531472372,2131.875000,-0.542002,4.010986,66.846802,51.841259,2.388119,0.022749,0.000003,7.164685,1910.395630,1911.589111,12.000000,40.000000,0.000000,0.000000,1910.000122,1910.000000,2131.875000,0.000000,0.000201,246.889969,80.872971,0.067197,-2.473168,5837.519531,0.000000
0.000000,0.000000,0.000000,0.000000,0.000000,0.000000,0.000000,0.000000,0,0,0,0,0,0,30.7693340698,34.6531472372,2131.875000,-0.542114,4.011023,66.846786,52.400433,2.401780,0.027937,0.000004,7.294383,1908.515015,1909.708374,12.000000,40.000000,0.000000,0.000000,1910.000122,1910.000000,2131.875000,0.000000,0.000167,246.889969,80.331345,0.067212,-2.474050,5749.027344,0.000000
0.000000,0.000000,0.000000,0.000000,0.000000,0.000000,0.000000,0.000000,0,0,0,0,0,0,30.7693340699,34.6531472372,2131.875000,-0.542353,4.011099,66.846771,53.499695,2.429776,0.031025,0.000004,7.174603,1904.532227,1905.725586,12.000000,40.000000,0.000000,0.000000,1910.000122,1910.000000,2131.875000,0.000000,0.000033,246.889969,79.216522,0.067244,-2.475727,5568.721191,0.000000
0.000000,0.000000,0.000000,0.000000,0.000000,0.000000,0.000000,0.000000,0,0,0,0,0,0,30.7693340699,34.6531472371,2131.875000,-0.542536,4.011159,66.846756,54.307526,2.451352,0.027496,0.000004,7.243468,1901.745605,1902.939087,12.000000,40.000000,0.000000,0.000000,1910.000122,1910.000000,2131.875000,0.000000,0.000134,246.889969,78.355263,0.067268,-2.476913,5434.766113,0.000000
0.000000,0.000000,0.000000,0.000000,0.000000,0.000000,0.000000,0.000000,0,0,0,0,0,0,30.7693340699,34.6531472371,2131.875000,-0.542674,4.011205,66.846741,54.904037,2.467849,0.042238,0.000006,7.307423,1899.628296,1900.821777,12.000000,40.000000,0.000000,0.000000,1900.000122,1900.000000,2131.875000,0.000000,0.000167,246.889969,77.696617,0.067285,-2.477764,5333.477051,0.000000
0.000000,0.000000,0.000000,0.000000,0.000000,0.000000,0.000000,0.000000,0,0,0,0,0,0,30.7693340699,34.6531472371,2131.875000,-0.542854,4.011264,66.846725,55.622272,2.488369,0.002499,0.000000,7.291672,1896.772339,1897.965820,12.000000,40.000000,0.000000,0.000000,1900.000122,1900.000000,2131.875000,0.000000,0.000536,246.889969,76.878265,0.067313,-2.478762,5205.948730,0.000000
0.000000,0.000000,0.000000,0.000000,0.000000,0.000000,0.000000,0.000000,0,0,0,0,0,0,30.7693340700,34.6531472370,2131.875000,-0.543108,4.011344,66.846710,56.582737,2.516973,0.011548,0.000002,6.933676,1893.177002,1894.370483,12.000000,40.000000,0.000000,0.000000,1900.000122,1900.000000,2131.875000,0.000000,0.000402,246.889969,75.741455,0.067346,-2.480052,5034.301270,0.000000
0.000000,0.000000,0.000000,0.000000,0.000000,0.000000,0.000000,0.000000,0,0,0,0,0,0,30.7693340700,34.6531472370,2131.875000,-0.543333,4.011415,66.846687,57.397358,2.542321,0.016173,0.000003,7.074658,1889.815063,1891.008545,12.000000,40.000000,0.000000,0.000000,1890.000122,1890.000000,2131.875000,0.000000,0.000268,246.889969,74.739632,0.067373,-2.481106,4881.254883,0.000000
0.000000,0.000000,0.000000,0.000000,0.000000,0.000000,0.000000,0.000000,0,0,0,0,0,0,30.7693340701,34.6531472370,2131.875000,-0.543524,4.011476,66.846672,58.042366,2.555023,0.027882,0.000004,6.969577,1887.382813,1888.576294,12.000000,40.000000,0.000000,0.000000,1890.000122,1890.000000,2131.875000,0.000000,0.000167,246.889969,73.881981,0.067404,-2.481954,4755.947266,0.000000
0.000000,0.000000,0.000000,0.000000,0.000000,0.000000,0.000000,0.000000,0,0,0,0,0,0,30.7693340701,34.6531472369,2131.875000,-0.543722,4.011542,66.846657,58.732857,2.550500,0.012926,0.000002,7.225884,1884.423828,1885.617188,12.000000,40.000000,0.000000,0.000000,1890.000122,1890.000000,2131.875000,0.000000,0.000100,246.889969,72.858925,0.067446,-2.482907,4605.661621,0.000000
0.000000,0.000000,0.000000,0.000000,0.000000,0.000000,0.000000,0.000000,0,0,0,0,0,0,30.7693340701,34.6531472369,2131.875000,-0.543867,4.011594,66.846649,59.372314,2.546652,0.001299,0.000000,7.282740,1881.576782,1882.770264,12.000000,40.000000,0.000000,0.000000,1890.000122,1890.000000,2131.875000,0.000000,0.000000,246.889969,71.907593,0.067485,-2.483743,4464.232422,0.000000
0.000000,0.000000,0.000000,0.000000,0.000000,0.000000,0.000000,0.000000,0,0,0,0,0,0,30.7693340701,34.6531472369,2131.875000,-0.543959,4.011627,66.846642,59.853123,2.543972,0.010442,0.000001,7.379611,1879.405029,1880.598511,12.000000,40.000000,0.000000,0.000000,1880.000122,1880.000000,2131.875000,0.000000,0.000033,246.889969,71.190956,0.067508,-2.484342,4356.836914,0.000000
0.000000,0.000000,0.000000,0.000000,0.000000,0.000000,0.000000,0.000000,0,0,0,0,0,0,30.7693340701,34.6531472369,2131.875000,-0.544082,4.011669,66.846626,60.602947,2.540159,-0.000344,-0.000000,7.039607,1875.828613,1877.022095,12.000000,40.000000,0.000000,0.000000,1880.000122,1880.000000,2131.875000,0.000000,-0.000100,246.889969,70.072998,0.067553,-2.485231,4185.472168,0.000000
0.000000,0.000000,0.000000,0.000000,0.000000,0.000000,0.000000,0.000000,0,0,0,0,0,0,30.7693340702,34.6531472368,2131.875000,-0.544179,4.011699,66.846619,61.301113,2.537007,-0.016388,-0.000001,7.217962,1872.876831,1874.070313,12.000000,40.000000,0.000000,0.000000,1880.000122,1880.000000,2131.875000,0.000000,-0.000000,246.889969,69.033806,0.067583,-2.486012,4029.858643,0.000000
0.000000,0.000000,0.000000,0.000000,0.000000,0.000000,0.000000,0.000000,0,0,0,0,0,0,30.7693340702,34.6531472368,2131.875000,-0.544257,4.011722,66.846611,61.947014,2.534432,-0.027723,-0.000002,7.302600,1870.051392,1871.244873,12.000000,40.000000,0.000000,0.000000,1870.000122,1870.000000,2131.875000,0.000000,-0.000067,246.889969,68.075775,0.067610,-2.486695,3883.108154,0.000000
0.000000,0.000000,0.000000,0.000000,0.000000,0.000000,0.000000,0.000000,0,0,0,0,0,0,30.7693340702,34.6531472368,2131.875000,-0.544306,4.011735,66.846611,62.378300,2.532894,-0.035390,-0.000002,7.339318,1868.134155,1869.327515,12.000000,40.000000,0.000000,0.000000,1870.000122,1870.000000,2131.875000,0.000000,-0.000067,246.889969,67.438698,0.067626,-2.487132,3783.801025,0.000000
0.000000,0.000000,0.000000,0.000000,0.000000,0.000000,0.000000,0.000000,0,0,0,0,0,0,30.7693340702,34.6531472368,2131.875000,-0.544361,4.011750,66.846603,62.864082,2.531335,-0.041746,-0.000002,7.188791,1865.588013,1866.781372,12.000000,40.000000,0.000000,0.000000,1870.000122,1870.000000,2131.875000,0.000000,-0.000067,246.889969,66.724319,0.067639,-2.487607,3664.746826,0.000000
0.000000,0.000000,0.000000,0.000000,0.000000,0.000000,0.000000,0.000000,0,0,0,0,0,0,30.7693340702,34.6531472368,2131.875000,-0.544462,4.011780,66.846596,63.837326,2.528766,-0.036800,-0.000002,6.811068,1861.357178,1862.550537,12.000000,40.000000,0.000000,0.000000,1870.000122,1870.000000,2131.875000,0.000000,-0.000335,246.889969,65.305908,0.067680,-2.488504,3437.361084,0.000000
0.000000,0.000000,0.000000,0.000000,0.000000,0.000000,0.000000,0.000000,0,0,0,0,0,0,30.7693340702,34.6531472368,2131.875000,-0.544531,4.011800,66.846596,64.541321,2.527362,-0.045794,-0.000002,7.191607,1858.431641,1859.625000,12.000000,40.000000,0.000000,0.000000,1860.000122,1860.000000,2131.875000,0.000000,-0.000067,246.889969,64.292801,0.067700,-2.489111,3272.302002,0.000000
0.000000,0.000000,0.000000,0.000000,0.000000,0.000000,0.000000,0.000000,0,0,0,0,0,0,30.7693340702,34.6531472368,2131.875000,-0.544595,4.011817,66.846588,65.191780,2.526407,-0.048653,-0.000002,7.295678,1855.601807,1856.795288,12.000000,40.000000,0.000000,0.000000,1860.000122,1860.000000,2131.875000,0.000000,-0.000100,246.889969,63.368141,0.067718,-2.489644,3114.981445,0.000000
0.000000,0.000000,0.000000,0.000000,0.000000,0.000000,0.000000,0.000000,0,0,0,0,0,0,30.7693340702,34.6531472368,2131.875000,-0.544627,4.011827,66.846588,65.517174,2.526051,-0.049644,-0.000002,7.317243,1854.171021,1855.364502,12.000000,40.000000,0.000000,0.000000,1860.000122,1860.000000,2131.875000,0.000000,-0.000100,246.889969,62.910126,0.067730,-2.489900,3034.960693,0.000000
0.000000,0.000000,0.000000,0.000000,0.000000,0.000000,0.000000,0.000000,0,0,0,0,0,0,30.7693340703,34.6531472368,2131.875000,-0.544727,4.011855,66.846573,66.493782,2.525473,-0.049579,-0.000002,7.068292,1849.687500,1850.880981,12.000000,40.000000,0.000000,0.000000,1850.000122,1850.000000,2131.875000,0.000000,-0.000100,246.889969,61.555717,0.067754,-2.490631,2786.216309,0.000000
0.000000,0.000000,0.000000,0.000000,0.000000,0.000000,0.000000,0.000000,0,0,0,0,0,0,30.7693340703,34.6531472367,2131.875000,-0.544793,4.011874,66.846573,67.145004,2.525496,-0.090273,-0.000004,7.253367,1846.922363,1848.115845,12.000000,40.000000,0.000000,0.000000,1850.000122,1850.000000,2131.875000,0.000000,-0.000134,246.889969,60.671047,0.067771,-2.491089,2620.474121,0.000000
0.000000,0.000000,0.000000,0.000000,0.000000,0.000000,0.000000,0.000000,0,0,0,0,0,0,30.7693340703,34.6531472367,2131.875000,-0.544858,4.011894,66.846565,67.796135,2.525846,-0.052362,-0.000003,7.315701,1844.068481,1845.261841,12.000000,40.000000,0.000000,0.000000,1850.000122,1850.000000,2131.875000,0.000000,0.000033,246.889969,59.802708,0.067787,-2.491524,2448.416504,0.000000
0.000000,0.000000,0.000000,0.000000,0.000000,0.000000,0.000000,0.000000,0,0,0,0,0,0,30.7693340703,34.6531472367,2131.875000,-0.544915,4.011912,66.846558,68.338562,2.526385,-0.038654,-0.000002,7.319360,1841.665039,1842.858398,12.000000,40.000000,0.000000,0.000000,1850.000122,1850.000000,2131.875000,0.000000,-0.000100,246.889969,59.092567,0.067801,-2.491871,2300.520508,0.000000
0.000000,0.000000,0.000000,0.000000,0.000000,0.000000,0.000000,0.000000,0,0,0,0,0,0,30.7693340703,34.6531472367,2131.875000,-0.544976,4.011929,66.846558,68.880714,2.527150,-0.038924,-0.000002,7.279329,1839.081787,1840.275269,12.000000,40.000000,0.000000,0.000000,1840.000122,1840.000000,2131.875000,0.000000,-0.000100,246.889969,58.395515,0.067810,-2.492203,2143.492188,0.000000
0.000000,0.000000,0.000000,0.000000,0.000000,0.000000,0.000000,0.000000,0,0,0,0,0,0,30.7693340703,34.6531472367,2131.875000,-0.545076,4.011959,66.846550,69.747353,2.528850,-0.064408,-0.000003,6.899339,1835.150635,1836.344116,12.000000,40.000000,0.000000,0.000000,1840.000122,1840.000000,2131.875000,0.000000,-0.000234,246.889969,57.309288,0.067830,-2.492707,1886.877808,0.000000
0.000000,0.000000,0.000000,0.000000,0.000000,0.000000,0.000000,0.000000,0,0,0,0,0,0,30.7693340703,34.6531472367,2131.875000,-0.545143,4.011979,66.846542,70.342422,2.530351,-0.030256,-0.000002,7.163166,1832.652710,1833.846191,12.000000,40.000000,0.000000,0.000000,1840.000122,1840.000000,2131.875000,0.000000,-0.000067,246.889969,56.584545,0.067845,-2.493035,1707.130249,0.000000
0.000000,0.000000,0.000000,0.000000,0.000000,0.000000,0.000000,0.000000,0,0,0,0,0,0,30.7693340703,34.6531472367,2131.875000,-0.545206,4.011997,66.846535,70.882721,2.531954,-0.064272,-0.000004,7.233825,1830.307251,1831.500732,12.000000,40.000000,0.000000,0.000000,1830.000122,1830.000000,2131.875000,0.000000,-0.000033,246.889969,55.942127,0.067855,-2.493320,1532.423096,0.000000
0.000000,0.000000,0.000000,0.000000,0.000000,0.000000,0.000000,0.000000,0,0,0,0,0,0,30.7693340704,34.6531472367,2131.875000,-0.545285,4.012020,66.846527,71.530098,2.534173,-0.027133,-0.000002,7.225091,1827.163208,1828.356567,12.000000,40.000000,0.000000,0.000000,1830.000122,1830.000000,2131.875000,0.000000,0.000000,246.889969,55.192802,0.067870,-2.493646,1292.983887,0.000000
0.000000,0.000000,0.000000,0.000000,0.000000,0.000000,0.000000,0.000000,0,0,0,0,0,0,30.7693340704,34.6531472366,2131.875000,-0.545380,4.012046,66.846519,72.283867,2.537172,-0.025144,-0.000002,7.129316,1823.996948,1825.190308,12.000000,40.000000,0.000000,0.000000,1830.000122,1830.000000,2131.875000,0.000000,-0.000067,246.889969,54.349625,0.067893,-2.494007,1003.195435,0.000000
0.000000,0.000000,0.000000,0.000000,0.000000,0.000000,0.000000,0.000000,0,0,0,0,0,0,30.7693340704,34.6531472366,2131.875000,-0.545461,4.012068,66.846519,72.928429,2.540093,-0.049800,-0.000003,7.258556,1821.204224,1822.397583,12.000000,40.000000,0.000000,0.000000,1820.000122,1820.000000,2131.875000,0.000000,-0.000167,246.889969,53.654583,0.067909,-2.494300,697.643616,0.000000
0.000000,0.000000,0.000000,0.000000,0.000000,0.000000,0.000000,0.000000,0,0,0,0,0,0,30.7693340704,34.6531472366,2131.875000,-0.545552,4.012093,66.846512,73.624931,2.543617,-0.019942,-0.000001,7.329989,1818.101318,1819.294800,12.000000,40.000000,0.000000,0.000000,1820.000122,1820.000000,2131.875000,0.000000,0.000033,246.889969,52.931515,0.067922,-2.494601,41.386566,0.000000
0.000000,0.000000,0.000000,0.000000,0.000000,0.000000,0.000000,0.000000,0,0,0,0,0,0,30.7693340704,34.6531472366,2131.875000,-0.545625,4.012110,66.846504,74.159332,2.546584,-0.020402,-0.000001,7.336136,1815.698364,1816.891846,12.000000,40.000000,0.000000,0.000000,1820.000122,1820.000000,2131.875000,0.000000,0.000000,246.889969,52.397091,0.067935,-2.494822,-488.475555,0.000000
0.000000,0.000000,0.000000,0.000000,0.000000,0.000000,0.000000,0.000000,0,0,0,0,0,0,30.7693340704,34.6531472366,2131.875000,-0.545730,4.012135,66.846497,74.905289,2.551110,-0.020580,-0.000001,7.322655,1812.328735,1813.522217,12.000000,40.000000,0.000000,0.000000,1820.000122,1820.000000,2131.875000,0.000000,-0.000067,246.889969,51.681587,0.067951,-2.495116,-709.766541,0.000000
0.000000,0.000000,0.000000,0.000000,0.000000,0.000000,0.000000,0.000000,0,0,0,0,0,0,30.7693340704,34.6531472366,2131.875000,-0.545798,4.012150,66.846489,75.383362,2.554249,-0.043629,-0.000003,7.387324,1810.140015,1811.333496,12.000000,40.000000,0.000000,0.000000,1810.000122,1810.000000,2131.875000,0.000000,-0.000167,246.889969,51.242195,0.067961,-2.495296,-808.370972,0.000000
0.000000,0.000000,0.000000,0.000000,0.000000,0.000000,0.000000,0.000000,0,0,0,0,0,0,30.7693340705,34.6531472366,2131.875000,-0.545917,4.012177,66.846481,76.177444,2.559872,-0.013506,-0.000001,7.130076,1806.432373,1807.625854,12.000000,40.000000,0.000000,0.000000,1810.000122,1810.000000,2131.875000,0.000000,-0.000033,246.889969,50.546444,0.067980,-2.495581,-936.964600,0.000000
0.000000,0.000000,0.000000,0.000000,0.000000,0.000000,0.000000,0.000000,0,0,0,0,0,0,30.7693340705,34.6531472366,2131.875000,-0.546015,4.012195,66.846474,76.810081,2.564724,-0.014606,-0.000001,7.246489,1803.616699,1804.810059,12.000000,40.000000,0.000000,0.000000,1810.000122,1810.000000,2131.875000,0.000000,-0.000000,246.889969,50.023338,0.067995,-2.495797,-1010.123352,0.000000
0.000000,0.000000,0.000000,0.000000,0.000000,0.000000,0.000000,0.000000,0,0,0,0,0,0,30.7693340705,34.6531472365,2131.875000,-0.546114,4.012211,66.846466,77.440208,2.569890,-0.045258,-0.000003,7.268334,1800.779663,1801.973022,12.000000,40.000000,0.000000,0.000000,1800.000122,1800.000000,2131.875000,0.000000,0.000033,246.889969,49.530495,0.068010,-2.496003,-1072.995483,0.000000
0.000000,0.000000,0.000000,0.000000,0.000000,0.000000,0.000000,0.000000,0,0,0,0,0,0,30.7693340705,34.6531472365,2131.875000,-0.546214,4.012226,66.846458,78.067688,2.575365,-0.013068,-0.000001,7.331132,1797.896362,1799.089844,12.000000,40.000000,0.000000,0.000000,1800.000122,1800.000000,2131.875000,0.000000,0.000067,246.889969,49.068283,0.068025,-2.496198,-1129.408936,0.000000
0.000000,0.000000,0.000000,0.000000,0.000000,0.000000,0.000000,0.000000,0,0,0,0,0,0,30.7693340705,34.6531472365,2131.875000,-0.546318,4.012238,66.846451,78.692390,2.581149,-0.013049,-0.000001,7.332938,1795.010742,1796.204224,12.000000,40.000000,0.000000,0.000000,1800.000122,1800.000000,2131.875000,0.000000,0.000000,246.889969,48.637020,0.068039,-2.496384,-1178.624634,0.000000
0.000000,0.000000,0.000000,0.000000,0.000000,0.000000,0.000000,0.000000,0,0,0,0,0,0,30.7693340706,34.6531472365,2131.875000,-0.546426,4.012247,66.846436,79.314148,2.587240,-0.013896,-0.000001,7.332942,1792.124268,1793.317749,12.000000,40.000000,0.000000,0.000000,1800.000122,1800.000000,2131.875000,0.000000,0.000067,246.889969,48.236942,0.068054,-2.496561,-1221.990723,0.000000
0.000000,0.000000,0.000000,0.000000,0.000000,0.000000,0.000000,0.000000,0,0,0,0,0,0,30.7693340706,34.6531472365,2131.875000,-0.546536,4.012251,66.846428,79.932838,2.593640,-0.014371,-0.000001,7.283429,1789.205444,1790.398804,12.000000,40.000000,0.000000,0.000000,1790.000122,1790.000000,2131.875000,0.000000,0.000067,246.889969,47.868229,0.068068,-2.496729,-1261.893677,0.000000
0.000000,0.000000,0.000000,0.000000,0.000000,0.000000,0.000000,0.000000,0,0,0,0,0,0,30.7693340706,34.6531472365,2131.875000,-0.546647,4.012251,66.846420,80.548302,2.600344,-0.032848,-0.000003,7.319045,1786.349854,1787.543335,12.000000,40.000000,0.000000,0.000000,1790.000122,1790.000000,2131.875000,0.000000,-0.000067,246.889969,47.530987,0.068086,-2.496888,-1294.836548,0.000000
0.000000,0.000000,0.000000,0.000000,0.000000,0.000000,0.000000,0.000000,0,0,0,0,0,0,30.7693340706,34.6531472365,2131.875000,-0.546759,4.012247,66.846413,81.160416,2.607346,-0.009766,-0.000001,7.330406,1783.463501,1784.656982,12.000000,40.000000,0.000000,0.000000,1790.000122,1790.000000,2131.875000,0.000000,0.000100,246.889969,47.225258,0.068101,-2.497041,-1325.856689,0.000000
0.000000,0.000000,0.000000,0.000000,0.000000,0.000000,0.000000,0.000000,0,0,0,0,0,0,30.7693340713,34.6531472362,2131.875000,-0.550136,4.012074,66.846146,81.763275,2.611939,-0.076076,-0.000367,7.332140,1780.388428,1781.581909,12.000000,40.000000,0.000000,0.000000,1780.000122,1780.000000,2131.875000,0.000019,-0.010614,246.889969,46.951023,0.066478,-2.497185,-1362.001099,0.000000
0.000000,0.000000,0.000000,0.000000,0.000000,0.000000,0.000000,0.000000,0,0,0,0,0,0,30.7693340727,34.6531472356,2131.875000,-0.556942,4.011618,66.845619,82.369484,2.619773,-0.069951,-0.000308,6.887240,1777.301514,1778.494873,12.000000,40.000000,0.000000,0.000000,1780.000122,1780.000000,2131.875000,0.000080,-0.008505,246.889969,46.708206,0.066859,-2.497323,-1394.668579,0.000000
0.000000,0.000000,0.000000,0.000000,0.000000,0.000000,0.000000,0.000000,0,0,0,0,0,0,30.7693340737,34.6531472352,2131.875000,-0.562053,4.011220,66.845222,82.921379,2.627555,-0.069618,-0.000238,7.026210,1774.904053,1776.097534,12.000000,40.000000,0.000000,0.000000,1780.000122,1780.000000,2131.875000,0.000088,-0.005960,246.889969,46.513107,0.067622,-2.497443,-1404.441772,0.000000
0.000000,0.000000,0.000000,0.000000,0.000000,0.000000,0.000000,0.000000,0,0,0,0,0,0,30.7693340744,34.6531472349,2131.875000,-0.565675,4.010947,66.844940,83.419441,2.634746,-0.070235,-0.000189,7.313439,1772.514771,1773.708252,12.000000,40.000000,0.000000,0.000000,1780.000122,1780.000000,2131.875000,0.000086,-0.004822,246.889969,46.358433,0.068099,-2.497548,-1421.492676,0.000000
0.000000,0.000000,0.000000,0.000000,0.000000,0.000000,0.000000,0.000000,0,0,0,0,0,0,30.7693340752,34.6531472346,2131.875000,-0.569503,4.010723,66.844643,84.111420,2.645002,-0.069803,-0.000135,7.162470,1769.199219,1770.392700,12.000000,40.000000,0.000000,0.000000,1770.000122,1770.000000,2131.875000,0.000084,-0.003315,246.889969,46.177902,0.068922,-2.497687,-1442.025391,0.000000
0.000000,0.000000,0.000000,0.000000,0.000000,0.000000,0.000000,0.000000,0,0,0,0,0,0,30.7693340757,34.6531472344,2131.875000,-0.572119,4.010649,66.844437,84.748360,2.654744,-0.070333,-0.000103,7.274876,1766.069824,1767.263184,12.000000,40.000000,0.000000,0.000000,1770.000122,1770.000000,2131.875000,0.000083,-0.002746,246.889969,46.047508,0.069440,-2.497809,-1461.545166,0.000000
0.000000,0.000000,0.000000,0.000000,0.000000,0.000000,0.000000,0.000000,0,0,0,0,0,0,30.7693340760,34.6531472342,2131.875000,-0.573837,4.010660,66.844299,85.282936,2.663178,-0.066777,-0.000078,7.283206,1763.473633,1764.666992,12.000000,40.000000,0.000000,0.000000,1770.000122,1770.000000,2131.875000,0.000081,-0.001942,246.889969,45.964828,0.069897,-2.497907,-1474.659180,0.000000
0.000000,0.000000,0.000000,0.000000,0.000000,0.000000,0.000000,0.000000,0,0,0,0,0,0,30.7693340763,34.6531472341,2131.875000,-0.575354,4.010725,66.844185,85.861038,2.672595,-0.068269,-0.000065,7.243550,1760.446289,1761.639771,12.000000,40.000000,0.000000,0.000000,1760.000122,1760.000000,2131.875000,0.000080,-0.002042,246.889969,45.903152,0.070297,-2.498010,-1495.519775,0.000000
0.000000,0.000000,0.000000,0.000000,0.000000,0.000000,0.000000,0.000000,0,0,0,0,0,0,30.7693340766,34.6531472339,2131.875000,-0.576682,4.010834,66.844078,86.480629,2.683074,-0.060758,-0.000047,7.171262,1757.401611,1758.594971,12.000000,40.000000,0.000000,0.000000,1760.000122,1760.000000,2131.875000,0.000078,-0.002411,246.889969,45.869389,0.070671,-2.498115,-1507.155640,0.000000
0.000000,0.000000,0.000000,0.000000,0.000000,0.000000,0.000000,0.000000,0,0,0,0,0,0,30.7693340767,34.6531472338,2131.875000,-0.577622,4.010945,66.844002,86.998383,2.692163,-0.067290,-0.000045,7.270864,1754.810791,1756.004272,12.000000,40.000000,0.000000,0.000000,1760.000122,1760.000000,2131.875000,0.000076,-0.001775,246.889969,45.867188,0.070993,-2.498199,-1516.896118,0.000000
0.000000,0.000000,0.000000,0.000000,0.000000,0.000000,0.000000,0.000000,0,0,0,0,0,0,30.7693340769,34.6531472337,2131.875000,-0.578584,4.011080,66.843925,87.600281,2.703175,-0.077463,-0.000046,7.298369,1751.707275,1752.900757,12.000000,40.000000,0.000000,0.000000,1760.000122,1760.000000,2131.875000,0.000075,-0.001440,246.889969,45.895130,0.071298,-2.498295,-1529.165405,0.000000
0.000000,0.000000,0.000000,0.000000,0.000000,0.000000,0.000000,0.000000,0,0,0,0,0,0,30.7693340770,34.6531472336,2131.875000,-0.579326,4.011179,66.843864,88.097221,2.712723,-0.078919,-0.000043,7.088405,1748.878052,1750.071533,12.000000,40.000000,0.000000,0.000000,1750.000122,1750.000000,2131.875000,0.000073,-0.001775,246.889969,45.944073,0.071561,-2.498371,-1546.308472,0.000000
0.000000,0.000000,0.000000,0.000000,0.000000,0.000000,0.000000,0.000000,0,0,0,0,0,0,30.7693340772,34.6531472335,2131.875000,-0.580059,4.011245,66.843811,88.616081,2.723389,-0.095055,-0.000047,7.204792,1746.025513,1747.218872,12.000000,40.000000,0.000000,0.000000,1750.000122,1750.000000,2131.875000,0.000072,-0.002478,246.889969,46.023293,0.071821,-2.498451,-1555.076904,0.000000
0.000000,0.000000,0.000000,0.000000,0.000000,0.000000,0.000000,0.000000,0,0,0,0,0,0,30.7693340773,34.6531472334,2131.875000,-0.580791,4.011204,66.843750,89.110954,2.735232,-0.142670,-0.000068,7.243248,1743.002686,1744.196167,12.000000,40.000000,0.000000,0.000000,1750.000122,1750.000000,2131.875000,0.000070,-0.001440,246.889969,46.138737,0.072057,-2.498533,-1561.388916,0.000000
0.000000,0.000000,0.000000,0.000000,0.000000,0.000000,0.000000,0.000000,0,0,0,0,0,0,30.7693340775,34.6531472334,2131.875000,-0.581378,4.010922,66.843704,89.356682,2.745486,-0.135082,-0.000079,7.315075,1740.264893,1741.458252,12.000000,40.000000,0.000000,0.000000,1740.000122,1740.000000,2131.875000,0.000069,-0.001473,246.889969,46.259819,0.072270,-2.498598,-1573.085815,0.000000
0.000000,0.000000,0.000000,0.000000,0.000000,0.000000,0.000000,0.000000,0,0,0,0,0,0,30.7693340777,34.6531472337,2131.875000,-0.581895,4.009604,66.843681,89.247658,2.756051,0.238951,0.000682,7.211548,1737.685791,1738.879272,12.000000,40.000000,0.000000,0.000000,1740.000122,1740.000000,2131.875000,0.000068,0.015536,246.889969,46.401726,0.072570,-2.498661,-1578.104736,0.000000
0.000000,0.000000,0.000000,0.000000,0.000000,0.000000,0.000000,0.000000,0,0,0,0,0,0,30.7693340783,34.6531472355,2131.875000,-0.581569,4.002016,66.843781,88.752350,2.770222,0.223190,0.001187,7.272795,1734.359497,1735.552979,12.000000,40.000000,0.000000,0.000000,1740.000122,1740.000000,2131.875000,0.000130,0.093855,246.889969,46.611454,0.073060,-2.498737,-1585.665405,0.000000
0.000000,0.000000,0.000000,0.000000,0.000000,0.000000,0.000000,0.000000,0,0,0,0,0,0,30.7693340786,34.6531472370,2131.875244,-0.580521,3.995667,66.843925,88.280678,2.782249,0.217022,0.000779,7.312111,1731.497925,1732.691406,12.000000,40.000000,0.000000,0.000000,1740.000122,1740.000000,2131.875244,0.000185,0.067403,246.889969,46.816265,0.073249,-2.498799,-1592.092041,0.000000
0.000000,0.000000,0.000000,0.000000,0.000000,0.000000,0.000000,0.000000,0,0,0,0,0,0,30.7693340787,34.6531472379,2131.875244,-0.579456,3.991913,66.844048,87.790306,2.794369,0.220261,0.000444,7.300031,1728.600586,1729.794067,12.000000,40.000000,0.000000,0.000000,1730.000122,1730.000000,2131.875244,0.000181,0.039008,246.889969,47.043266,0.073310,-2.498858,-1599.373047,0.000000
0.000000,0.000000,0.000000,0.000000,0.000000,0.000000,0.000000,0.000000,0,0,0,0,0,0,30.7693340787,34.6531472384,2131.875244,-0.578562,3.990108,66.844131,87.290657,2.806654,0.225771,0.000191,6.613546,1725.879639,1727.072998,12.000000,40.000000,0.000000,0.000000,1730.000122,1730.000000,2131.875244,0.000177,0.013762,246.889969,47.291565,0.073316,-2.498914,-1599.500244,0.000000
0.000000,0.000000,0.000000,0.000000,0.000000,0.000000,0.000000,0.000000,0,0,0,0,0,0,30.7693340781,34.6531472388,2131.875244,-0.575622,3.989829,66.844368,86.789337,2.821325,0.058175,0.000252,4.064949,1724.603516,1725.796997,12.000000,40.000000,0.000000,0.000000,1730.000122,1730.000000,2131.875244,0.000174,0.006663,246.889969,47.560246,0.075077,-2.498967,-1545.224365,0.000000
0.000000,0.000000,0.000000,0.000000,0.000000,0.000000,0.000000,0.000000,0,0,0,0,0,0,30.7693340769,34.6531472392,2131.875244,-0.569817,3.990435,66.844810,86.325310,2.832922,0.051909,0.000221,2.583670,1724.095825,1725.289307,12.000000,40.000000,0.000000,0.000000,1730.000122,1730.000000,2131.875244,0.000223,0.002076,246.889969,47.823639,0.074859,-2.499013,-1470.706421,0.000000
0.000000,0.000000,0.000000,0.000000,0.000000,0.000000,0.000000,0.000000,0,0,0,0,0,0,30.7693340761,34.6531472394,2131.875244,-0.566128,3.991134,66.845093,85.986328,2.841137,0.049789,0.000179,1.922271,1723.896118,1725.089600,12.000000,40.000000,0.000000,0.000000,1730.000122,1730.000000,2131.875244,0.000229,0.000268,246.889969,48.025032,0.074391,-2.499045,-1410.059814,0.000000
0.000000,0.000000,0.000000,0.000000,0.000000,0.000000,0.000000,0.000000,0,0,0,0,0,0,30.7693340749,34.6531472395,2131.875244,-0.560377,3.992889,66.845528,85.267586,2.859061,0.048593,0.000116,1.101431,1723.619751,1724.813110,12.000000,40.000000,0.000000,0.000000,1730.000122,1730.000000,2131.875244,0.000223,-0.002110,246.889969,48.479057,0.073514,-2.499111,-1275.666138,0.000000
0.000000,0.000000,0.000000,0.000000,0.000000,0.000000,0.000000,0.000000,0,0,0,0,0,0,30.7693340743,34.6531472395,2131.875244,-0.558043,3.993901,66.845695,84.847000,2.869944,0.046810,0.000088,0.957966,1723.506836,1724.700195,12.000000,40.000000,0.000000,0.000000,1720.000122,1720.000000,2131.875244,0.000219,-0.002110,246.889969,48.761787,0.072967,-2.499147,-1194.804443,0.000000
0.000000,0.000000,0.000000,0.000000,0.000000,0.000000,0.000000,0.000000,0,0,0,0,0,0,30.7693340738,34.6531472395,2131.875244,-0.555971,3.995010,66.845848,84.345779,2.883304,0.039988,0.000057,0.881219,1723.376343,1724.569824,12.000000,40.000000,0.000000,0.000000,1720.000122,1720.000000,2131.875244,0.000215,-0.002411,246.889969,49.115383,0.072504,-2.499189,-1097.980103,0.000000
