aileron,elevator,rudder,flaps,slats,speedbrake,throttle,throttle,engine-pump,engine-pump,electric-pump,electric-pump,external-power,APU-generator,latitude-deg,longitude-deg,altitude-ft,roll-deg,pitch-deg,heading-deg,side-slip-deg,airspeed-kt,glideslope,vertical-speed-fps,airspeed-indicator_indicated-speed-kt,altimeter_indicated-altitude-ft,altimeter_pressure-alt-ft,attitude-indicator_indicated-pitch-deg,attitude-indicator_indicated-roll-deg,attitude-indicator_internal-pitch-deg,attitude-indicator_internal-roll-deg,encoder_indicated-altitude-ft,encoder_pressure-alt-ft,gps_indicated-altitude-ft,gps_indicated-ground-speed-kt,gps_indicated-vertical-speed,indicated-heading-deg,magnetic-compass_indicated-heading-deg,slip-skid-ball_indicated-slip-skid,turn-indicator_indicated-turn-rate,vertical-speed-indicator_indicated-speed-fpm,engine_rpm
0.000000,0.000000,0.000000,0.000000,0.000000,0.000000,0.000000,0.000000,0,0,0,0,0,0,30.7798632985,34.6818519576,-9999.000000,0.000000,0.424000,246.889999,0.000000,0.000000,0.000000,0.000000,0.000000,0.000000,0.000000,0.000000,0.000000,0.000000,0.000000,0.000000,0.000000,0.000000,0.000000,0.000000,0.000000,0.000000,0.000000,0.000000,0.000000,0.000000
0.000000,0.000000,0.000000,0.000000,0.000000,0.000000,0.000000,0.000000,0,0,0,0,0,0,30.7798632985,34.6818519576,-9999.000000,0.000000,0.424000,246.889999,0.000000,0.000000,0.000000,0.000000,0.000000,0.000000,1.193444,12.000000,40.000000,0.000000,0.000000,0.000000,0.000000,0.000000,0.000000,0.000000,246.889999,0.000000,0.000000,0.000000,0.000000,0.000000
0.000000,0.000000,0.000000,0.000000,0.000000,0.000000,0.000000,0.000000,0,0,0,0,0,0,30.7693347160,34.6531480301,-9999.000000,0.000000,0.424000,66.870003,0.000000,0.000000,0.000000,0.000000,0.000000,0.000000,1.193444,12.000000,40.000000,0.000000,0.000000,0.000000,0.000000,0.000000,0.000000,0.000000,246.889999,0.000000,0.000000,0.000000,0.000000,0.000000
0.000000,0.000000,0.000000,0.000000,0.000000,0.000000,0.000000,0.000000,0,0,0,0,0,0,30.7693347160,34.6531480301,-9999.000000,0.000000,0.424000,66.870003,0.000000,0.000000,0.000000,0.000000,0.000000,0.000000,1.193444,12.000000,40.000000,0.000000,0.000000,0.000000,0.000000,0.000000,0.000000,0.000000,246.889999,0.000000,0.000000,0.000000,0.000000,0.000000
0.000000,0.000000,0.000000,0.000000,0.000000,0.000000,0.000000,0.000000,0,0,0,0,0,0,30.7693347160,34.6531480301,-9999.000000,0.000000,0.424000,66.870003,0.000000,0.000000,0.000000,0.000000,0.000000,0.000000,1.193444,12.000000,40.000000,0.000000,0.000000,0.000000,0.000000,0.000000,0.000000,0.000000,246.889999,0.000000,0.000000,0.000000,0.000000,0.000000
0.000000,0.000000,0.000000,0.000000,0.000000,0.000000,0.000000,0.000000,0,0,0,0,0,0,30.7693347160,34.6531480301,-9999.000000,0.000000,0.424000,66.870003,0.000000,0.000000,0.000000,0.000000,0.000000,0.000000,1.193444,12.000000,40.000000,0.000000,0.000000,0.000000,0.000000,0.000000,0.000000,0.000000,246.889999,0.000000,0.000000,0.000000,0.000000,0.000000
0.000000,0.000000,0.000000,0.000000,0.000000,0.000000,0.000000,0.000000,0,0,0,0,0,0,30.7693347160,34.6531480301,-9999.000000,0.000000,0.424000,66.870003,0.000000,0.000000,0.000000,0.000000,0.000000,0.000000,1.193444,12.000000,40.000000,0.000000,0.000000,0.000000,0.000000,0.000000,0.000000,0.000000,246.889999,0.000000,0.000000,0.000000,0.000000,0.000000
0.000000,0.000000,0.000000,0.000000,0.000000,0.000000,0.000000,0.000000,0,0,0,0,0,0,30.7693347160,34.6531480301,-9999.000000,0.000000,0.424000,66.870003,0.000000,0.000000,0.000000,0.000000,0.000000,0.000000,1.193444,12.000000,40.000000,0.000000,0.000000,0.000000,0.000000,0.000000,0.000000,0.000000,246.889999,0.000000,0.000000,0.000000,0.000000,0.000000
0.000000,0.000000,0.000000,0.000000,0.000000,0.000000,0.000000,0.000000,0,0,0,0,0,0,30.7693347160,34.6531480301,-9999.000000,0.000000,0.424000,66.870003,0.000000,0.000000,0.000000,0.000000,0.000000,0.000000,1.193444,12.000000,40.000000,0.000000,0.000000,0.000000,0.000000,0.000000,0.000000,0.000000,246.889999,0.000000,0.000000,0.000000,0.000000,0.000000
0.000000,0.000000,0.000000,0.000000,0.000000,0.000000,0.000000,0.000000,0,0,0,0,0,0,30.7693347160,34.6531480301,-9999.000000,0.000000,0.424000,66.870003,0.000000,0.000000,0.000000,0.000000,0.000000,0.000000,1.193444,12.000000,40.000000,0.000000,0.000000,0.000000,0.000000,0.000000,0.000000,0.000000,246.889999,0.000000,0.000000,0.000000,0.000000,0.000000
0.000000,0.000000,0.000000,0.000000,0.000000,0.000000,0.000000,0.000000,0,0,0,0,0,0,30.7693347160,34.6531480301,-9999.000000,0.000000,0.424000,66.870003,0.000000,0.000000,0.000000,0.000000,0.000000,0.000000,1.193444,12.000000,40.000000,0.000000,0.000000,0.000000,0.000000,0.000000,0.000000,0.000000,246.889999,0.000000,0.000000,0.000000,0.000000,0.000000
0.000000,0.000000,0.000000,0.000000,0.000000,0.000000,0.000000,0.000000,0,0,0,0,0,0,30.7693347160,34.6531480301,-9999.000000,0.000000,0.424000,66.870003,0.000000,0.000000,0.000000,0.000000,0.000000,0.000000,1.193444,12.000000,40.000000,0.000000,0.000000,0.000000,0.000000,0.000000,0.000000,0.000000,246.889999,0.000000,0.000000,0.000000,0.000000,0.000000
0.000000,0.000000,0.000000,0.000000,0.000000,0.000000,0.000000,0.000000,0,0,0,0,0,0,30.7693347160,34.6531480301,-9999.000000,0.000000,0.424000,66.870003,0.000000,0.000000,0.000000,0.000000,0.000000,0.000000,1.193444,12.000000,40.000000,0.000000,0.000000,0.000000,0.000000,0.000000,0.000000,0.000000,246.889999,0.000000,0.000000,0.000000,0.000000,0.000000
0.000000,0.000000,0.000000,0.000000,0.000000,0.000000,0.000000,0.000000,0,0,0,0,0,0,30.7693347160,34.6531480301,-9999.000000,0.000000,0.424000,66.870003,0.000000,0.000000,0.000000,0.000000,0.000000,0.000000,1.193444,12.000000,40.000000,0.000000,0.000000,0.000000,0.000000,0.000000,0.000000,0.000000,246.889999,0.000000,0.000000,0.000000,0.000000,0.000000
0.000000,0.000000,0.000000,0.000000,0.000000,0.000000,0.000000,0.000000,0,0,0,0,0,0,30.7693347160,34.6531480301,-9999.000000,0.000000,0.424000,66.870003,0.000000,0.000000,0.000000,0.000000,0.000000,0.000000,1.193444,12.000000,40.000000,0.000000,0.000000,0.000000,0.000000,0.000000,0.000000,0.000000,246.889999,0.000000,0.000000,0.000000,0.000000,0.000000
0.000000,0.000000,0.000000,0.000000,0.000000,0.000000,0.000000,0.000000,0,0,0,0,0,0,30.7693347160,34.6531480301,-9999.000000,0.000000,0.424000,66.870003,0.000000,0.000000,0.000000,0.000000,0.000000,0.000000,1.193444,12.000000,40.000000,0.000000,0.000000,0.000000,0.000000,0.000000,0.000000,0.000000,246.889999,0.000000,0.000000,0.000000,0.000000,0.000000
0.000000,0.000000,0.000000,0.000000,0.000000,0.000000,0.000000,0.000000,0,0,0,0,0,0,30.7693347160,34.6531480301,-9999.000000,0.000000,0.424000,66.870003,0.000000,0.000000,0.000000,0.000000,0.000000,0.000000,1.193444,12.000000,40.000000,0.000000,0.000000,0.000000,0.000000,0.000000,0.000000,0.000000,246.889999,0.000000,0.000000,0.000000,0.000000,0.000000
0.000000,0.000000,0.000000,0.000000,0.000000,0.000000,0.000000,0.000000,0,0,0,0,0,0,30.7693347160,34.6531480301,-9999.000000,0.000000,0.424000,66.870003,0.000000,0.000000,0.000000,0.000000,0.000000,0.000000,1.193444,12.000000,40.000000,0.000000,0.000000,0.000000,0.000000,0.000000,0.000000,0.000000,246.889999,0.000000,0.000000,0.000000,0.000000,0.000000
0.000000,0.000000,0.000000,0.000000,0.000000,0.000000,0.000000,0.000000,0,0,0,0,0,0,30.7693347160,34.6531480301,-9999.000000,0.000000,0.424000,66.870003,0.000000,0.000000,0.000000,0.000000,0.000000,0.000000,1.193444,12.000000,40.000000,0.000000,0.000000,0.000000,0.000000,0.000000,0.000000,0.000000,246.889999,0.000000,0.000000,0.000000,0.000000,0.000000
0.000000,0.000000,0.000000,0.000000,0.000000,0.000000,0.000000,0.000000,0,0,0,0,0,0,30.7693347160,34.6531480301,-9999.000000,0.000000,0.424000,66.870003,0.000000,0.000000,0.000000,0.000000,0.000000,0.000000,1.193444,12.000000,40.000000,0.000000,0.000000,0.000000,0.000000,0.000000,0.000000,0.000000,246.889999,0.000000,0.000000,0.000000,0.000000,0.000000
0.000000,0.000000,0.000000,0.000000,0.000000,0.000000,0.000000,0.000000,0,0,0,0,0,0,30.7693347160,34.6531480301,-9999.000000,0.000000,0.424000,66.870003,0.000000,0.000000,0.000000,0.000000,0.000000,0.000000,1.193444,12.000000,40.000000,0.000000,0.000000,0.000000,0.000000,0.000000,0.000000,0.000000,246.889999,0.000000,0.000000,0.000000,0.000000,0.000000
0.000000,0.000000,0.000000,0.000000,0.000000,0.000000,0.000000,0.000000,0,0,0,0,0,0,30.7693347160,34.6531480301,-9999.000000,0.000000,0.424000,66.870003,0.000000,0.000000,0.000000,0.000000,0.000000,0.000000,1.193444,12.000000,40.000000,0.000000,0.000000,0.000000,0.000000,0.000000,0.000000,0.000000,246.889999,0.000000,0.000000,0.000000,0.000000,0.000000
0.000000,0.000000,0.000000,0.000000,0.000000,0.000000,0.000000,0.000000,0,0,0,0,0,0,30.7693347160,34.6531480301,-9999.000000,0.000000,0.424000,66.870003,0.000000,0.000000,0.000000,0.000000,0.000000,0.000000,1.193444,12.000000,40.000000,0.000000,0.000000,0.000000,0.000000,0.000000,0.000000,0.000000,246.889999,0.000000,0.000000,0.000000,0.000000,0.000000
0.000000,0.000000,0.000000,0.000000,0.000000,0.000000,0.000000,0.000000,0,0,0,0,0,0,30.7693347160,34.6531480301,-9999.000000,0.000000,0.424000,66.870003,0.000000,0.000000,0.000000,0.000000,0.000000,0.000000,1.193444,12.000000,40.000000,0.000000,0.000000,0.000000,0.000000,0.000000,0.000000,0.000000,246.889999,0.000000,0.000000,0.000000,0.000000,0.000000
0.000000,0.000000,0.000000,0.000000,0.000000,0.000000,0.000000,0.000000,0,0,0,0,0,0,30.7693347160,34.6531480301,-9999.000000,0.000000,0.424000,66.870003,0.000000,0.000000,0.000000,0.000000,0.000000,0.000000,1.193444,12.000000,40.000000,0.000000,0.000000,0.000000,0.000000,0.000000,0.000000,0.000000,246.889999,0.000000,0.000000,0.000000,0.000000,0.000000
0.000000,0.000000,0.000000,0.000000,0.000000,0.000000,0.000000,0.000000,0,0,0,0,0,0,30.7693347160,34.6531480301,-9999.000000,0.000000,0.424000,66.870003,0.000000,0.000000,0.000000,0.000000,0.000000,0.000000,1.193444,12.000000,40.000000,0.000000,0.000000,0.000000,0.000000,0.000000,0.000000,0.000000,246.889999,0.000000,0.000000,0.000000,0.000000,0.000000
0.000000,0.000000,0.000000,0.000000,0.000000,0.000000,0.000000,0.000000,0,0,0,0,0,0,30.7693347160,34.6531480301,-9999.000000,0.000000,0.424000,66.870003,0.000000,0.000000,0.000000,0.000000,0.000000,0.000000,1.193444,12.000000,40.000000,0.000000,0.000000,0.000000,0.000000,0.000000,0.000000,0.000000,246.889999,0.000000,0.000000,0.000000,0.000000,0.000000
0.000000,0.000000,0.000000,0.000000,0.000000,0.000000,0.000000,0.000000,0,0,0,0,0,0,30.7693347160,34.6531480301,-9999.000000,0.000000,0.424000,66.870003,0.000000,0.000000,0.000000,0.000000,0.000000,0.000000,1.193444,12.000000,40.000000,0.000000,0.000000,0.000000,0.000000,0.000000,0.000000,0.000000,246.889999,0.000000,0.000000,0.000000,0.000000,0.000000
0.000000,0.000000,0.000000,0.000000,0.000000,0.000000,0.000000,0.000000,0,0,0,0,0,0,30.7693347160,34.6531480301,-9999.000000,0.000000,0.424000,66.870003,0.000000,0.000000,0.000000,0.000000,0.000000,0.000000,1.193444,12.000000,40.000000,0.000000,0.000000,0.000000,0.000000,0.000000,0.000000,0.000000,246.889999,0.000000,0.000000,0.000000,0.000000,0.000000
0.000000,0.000000,0.000000,0.000000,0.000000,0.000000,0.000000,0.000000,0,0,0,0,0,0,30.7693340647,34.6531472403,2131.875000,-0.515180,4.008967,66.848923,0.000000,0.000000,0.000000,0.000000,0.000000,0.000000,1.193444,12.000000,40.000000,0.000000,0.000000,0.000000,0.000000,0.000000,0.000000,0.000000,246.889999,0.000000,0.000000,0.000000,0.000000,0.000000
0.000000,0.000000,0.000000,0.000000,0.000000,0.000000,0.000000,0.000000,0,0,0,0,0,0,30.7693340675,34.6531472381,2131.875000,-0.530739,4.011962,66.847672,-23.196407,2.925263,0.032740,0.000005,0.000000,2140.187500,2141.380859,12.000000,40.000000,0.000000,0.000000,2140.000244,2140.000000,2131.875000,0.000000,0.000569,246.889969,5.579837,0.041810,-0.985256,15490.831055,0.000000
0.000000,0.000000,0.000000,0.000000,0.000000,0.000000,0.000000,0.000000,0,0,0,0,0,0,30.7693340681,34.6531472380,2131.875000,-0.533176,4.011300,66.847488,-17.006168,2.654301,-0.086546,-0.000002,0.000012,2111.409424,2112.602783,12.000000,40.000000,0.000000,0.000000,2110.000244,2110.000000,2131.875000,0.000000,-0.000067,246.889969,19.865673,0.057189,-1.582221,14352.375000,0.000000
0.000000,0.000000,0.000000,0.000000,0.000000,0.000000,0.000000,0.000000,0,0,0,0,0,0,30.7693340684,34.6531472380,2131.875000,-0.534904,4.010739,66.847359,-9.517774,2.420984,-0.111705,-0.000002,0.003835,2082.561768,2083.755371,12.000000,40.000000,0.000000,0.000000,2080.000244,2080.000000,2131.875000,0.000000,0.000000,246.889969,38.730206,0.062934,-1.943920,13203.597656,0.000000
0.000000,0.000000,0.000000,0.000000,0.000000,0.000000,0.000000,0.000000,0,0,0,0,0,0,30.7693340685,34.6531472379,2131.875000,-0.535016,4.010718,66.847351,-8.133607,2.386559,-0.116821,-0.000006,4.601698,2078.596680,2079.790039,12.000000,40.000000,0.000000,0.000000,2080.000244,2080.000000,2131.875000,0.000000,-0.000234,246.889969,42.018105,0.063438,-1.988471,13014.345703,0.000000
0.000000,0.000000,0.000000,0.000000,0.000000,0.000000,0.000000,0.000000,0,0,0,0,0,0,30.7693340685,34.6531472379,2131.875000,-0.535088,4.010702,66.847343,-7.283839,2.366588,-0.135956,-0.000008,6.318696,2076.816895,2078.010254,12.000000,40.000000,0.000000,0.000000,2080.000244,2080.000000,2131.875000,0.000000,-0.000234,246.889969,43.987534,0.063704,-2.013469,12903.455078,0.000000
0.000000,0.000000,0.000000,0.000000,0.000000,0.000000,0.000000,0.000000,0,0,0,0,0,0,30.7693340685,34.6531472379,2131.875000,-0.535174,4.010685,66.847336,-6.419847,2.347145,-0.135472,-0.000009,7.057188,2074.307861,2075.501465,12.000000,40.000000,0.000000,0.000000,2080.000244,2080.000000,2131.875000,0.000000,-0.000335,246.889969,45.949776,0.063945,-2.037246,12789.027344,0.000000
0.000000,0.000000,0.000000,0.000000,0.000000,0.000000,0.000000,0.000000,0,0,0,0,0,0,30.7693340685,34.6531472379,2131.875000,-0.535285,4.010667,66.847328,-5.467673,2.326694,-0.134733,-0.000010,7.253503,2071.318604,2072.511963,12.000000,40.000000,0.000000,0.000000,2070.000244,2070.000000,2131.875000,0.000000,-0.000335,246.889969,48.063084,0.064165,-2.061695,12663.634766,0.000000
0.000000,0.000000,0.000000,0.000000,0.000000,0.000000,0.000000,0.000000,0,0,0,0,0,0,30.7693340685,34.6531472379,2131.875000,-0.535398,4.010649,66.847321,-4.573949,2.308396,-0.153118,-0.000013,7.362919,2068.469482,2069.662842,12.000000,40.000000,0.000000,0.000000,2070.000244,2070.000000,2131.875000,0.000000,-0.000268,246.889969,49.998428,0.064369,-2.083114,12547.319336,0.000000
0.000000,0.000000,0.000000,0.000000,0.000000,0.000000,0.000000,0.000000,0,0,0,0,0,0,30.7693340686,34.6531472379,2131.875000,-0.535517,4.010632,66.847313,-3.666105,2.290668,-0.125831,-0.000011,7.382078,2065.600098,2066.793701,12.000000,40.000000,0.000000,0.000000,2070.000244,2070.000000,2131.875000,0.000000,-0.000469,246.889969,51.915352,0.064556,-2.103488,12430.769531,0.000000
0.000000,0.000000,0.000000,0.000000,0.000000,0.000000,0.000000,0.000000,0,0,0,0,0,0,30.7693340686,34.6531472379,2131.875000,-0.535620,4.010620,66.847305,-2.898848,2.276340,-0.124473,-0.000011,7.360831,2063.195068,2064.388672,12.000000,40.000000,0.000000,0.000000,2070.000244,2070.000000,2131.875000,0.000000,-0.000301,246.889969,53.496235,0.064672,-2.119703,12333.467773,0.000000
0.000000,0.000000,0.000000,0.000000,0.000000,0.000000,0.000000,0.000000,0,0,0,0,0,0,30.7693340686,34.6531472379,2131.875000,-0.535768,4.010604,66.847290,-1.808563,2.256976,-0.133154,-0.000012,7.344298,2059.828857,2061.022461,12.000000,40.000000,0.000000,0.000000,2060.000244,2060.000000,2131.875000,0.000000,-0.000737,246.889969,55.680305,0.064884,-2.141296,12197.083008,0.000000
0.000000,0.000000,0.000000,0.000000,0.000000,0.000000,0.000000,0.000000,0,0,0,0,0,0,30.7693340686,34.6531472379,2131.875000,-0.535873,4.010596,66.847282,-1.018444,2.243652,-0.121030,-0.000011,7.376616,2057.428711,2058.622070,12.000000,40.000000,0.000000,0.000000,2060.000244,2060.000000,2131.875000,0.000000,-0.000469,246.889969,57.216995,0.064981,-2.155965,12099.562500,0.000000
0.000000,0.000000,0.000000,0.000000,0.000000,0.000000,0.000000,0.000000,0,0,0,0,0,0,30.7693340687,34.6531472379,2131.875000,-0.536023,4.010588,66.847275,0.103367,2.225724,-0.114637,-0.000010,7.229446,2053.937988,2055.131592,12.000000,40.000000,0.000000,0.000000,2060.000244,2060.000000,2131.875000,0.000000,-0.000670,246.889969,59.331844,0.065161,-2.175499,11962.203125,0.000000
0.000000,0.000000,0.000000,0.000000,0.000000,0.000000,0.000000,0.000000,0,0,0,0,0,0,30.7693340687,34.6531472379,2131.875000,-0.536139,4.010582,66.847260,0.997347,2.212242,-0.132917,-0.000012,7.334564,2051.382568,2052.575928,12.000000,40.000000,0.000000,0.000000,2060.000244,2060.000000,2131.875000,0.000000,-0.000636,246.889969,60.960865,0.065283,-2.190066,11855.082031,0.000000
0.000000,0.000000,0.000000,0.000000,0.000000,0.000000,0.000000,0.000000,0,0,0,0,0,0,30.7693340687,34.6531472379,2131.875000,-0.536262,4.010567,66.847252,1.984865,2.198153,-0.109326,-0.000010,7.389876,2048.528320,2049.721680,12.000000,40.000000,0.000000,0.000000,2050.000244,2050.000000,2131.875000,0.000000,-0.000469,246.889969,62.702408,0.065394,-2.205212,11737.734375,0.000000
0.000000,0.000000,0.000000,0.000000,0.000000,0.000000,0.000000,0.000000,0,0,0,0,0,0,30.7693340687,34.6531472379,2131.875000,-0.536386,4.010541,66.847244,2.984837,2.184726,-0.112086,-0.000010,7.408685,2045.653809,2046.847290,12.000000,40.000000,0.000000,0.000000,2050.000244,2050.000000,2131.875000,0.000000,-0.000234,246.889969,64.404198,0.065495,-2.219618,11620.125977,0.000000
0.000000,0.000000,0.000000,0.000000,0.000000,0.000000,0.000000,0.000000,0,0,0,0,0,0,30.7693340688,34.6531472378,2131.875000,-0.536509,4.010509,66.847237,3.996948,2.171974,-0.129984,-0.000012,7.415224,2042.772217,2043.965698,12.000000,40.000000,0.000000,0.000000,2050.000244,2050.000000,2131.875000,0.000000,-0.000234,246.889969,66.063652,0.065590,-2.233321,11502.317383,0.000000
0.000000,0.000000,0.000000,0.000000,0.000000,0.000000,0.000000,0.000000,0,0,0,0,0,0,30.7693340688,34.6531472378,2131.875000,-0.536631,4.010471,66.847229,5.020689,2.159907,-0.102878,-0.000009,7.417434,2039.888062,2041.081543,12.000000,40.000000,0.000000,0.000000,2040.000122,2040.000000,2131.875000,0.000000,-0.000234,246.889969,67.678314,0.065677,-2.246353,11384.330078,0.000000
0.000000,0.000000,0.000000,0.000000,0.000000,0.000000,0.000000,0.000000,0,0,0,0,0,0,30.7693340688,34.6531472378,2131.875000,-0.536753,4.010432,66.847214,6.055657,2.148539,-0.099936,-0.000009,7.418096,2037.003052,2038.196533,12.000000,40.000000,0.000000,0.000000,2040.000122,2040.000000,2131.875000,0.000000,-0.000201,246.889969,69.245880,0.065758,-2.258749,11266.168945,0.000000
0.000000,0.000000,0.000000,0.000000,0.000000,0.000000,0.000000,0.000000,0,0,0,0,0,0,30.7693340689,34.6531472378,2131.875000,-0.536874,4.010393,66.847206,7.101334,2.137879,-0.097619,-0.000009,7.418189,2034.117676,2035.311035,12.000000,40.000000,0.000000,0.000000,2040.000122,2040.000000,2131.875000,0.000000,-0.000201,246.889969,70.764175,0.065833,-2.270539,11147.833984,0.000000
0.000000,0.000000,0.000000,0.000000,0.000000,0.000000,0.000000,0.000000,0,0,0,0,0,0,30.7693340689,34.6531472378,2131.875000,-0.536994,4.010355,66.847198,8.157207,2.127938,-0.116802,-0.000010,7.418056,2031.232056,2032.425537,12.000000,40.000000,0.000000,0.000000,2040.000122,2040.000000,2131.875000,0.000000,-0.000234,246.889969,72.231163,0.065904,-2.281753,11029.321289,0.000000
0.000000,0.000000,0.000000,0.000000,0.000000,0.000000,0.000000,0.000000,0,0,0,0,0,0,30.7693340689,34.6531472378,2131.875000,-0.537112,4.010321,66.847191,9.222602,2.118727,-0.092962,-0.000008,7.417820,2028.346436,2029.539917,12.000000,40.000000,0.000000,0.000000,2030.000122,2030.000000,2131.875000,0.000000,-0.000134,246.889969,73.644958,0.065968,-2.292418,10910.627930,0.000000
0.000000,0.000000,0.000000,0.000000,0.000000,0.000000,0.000000,0.000000,0,0,0,0,0,0,30.7693340689,34.6531472378,2131.875000,-0.537244,4.010287,66.847176,10.386905,2.109581,-0.087780,-0.000008,7.344678,2025.061401,2026.254883,12.000000,40.000000,0.000000,0.000000,2030.000122,2030.000000,2131.875000,0.000000,-0.000234,246.889969,75.114525,0.066029,-2.303385,10780.942383,0.000000
0.000000,0.000000,0.000000,0.000000,0.000000,0.000000,0.000000,0.000000,0,0,0,0,0,0,30.7693340690,34.6531472378,2131.875000,-0.537354,4.010263,66.847168,11.379758,2.102530,-0.109013,-0.000009,7.326869,2022.530029,2023.723511,12.000000,40.000000,0.000000,0.000000,2030.000122,2030.000000,2131.875000,0.000000,-0.000234,246.889969,76.306129,0.066089,-2.312212,10672.435547,0.000000
0.000000,0.000000,0.000000,0.000000,0.000000,0.000000,0.000000,0.000000,0,0,0,0,0,0,30.7693340690,34.6531472378,2131.875000,-0.537472,4.010241,66.847160,12.470074,2.095561,-0.082720,-0.000007,7.476110,2019.608887,2020.802368,12.000000,40.000000,0.000000,0.000000,2020.000122,2020.000000,2131.875000,0.000000,-0.000134,246.889969,77.550438,0.066142,-2.321389,10552.969727,0.000000
0.000000,0.000000,0.000000,0.000000,0.000000,0.000000,0.000000,0.000000,0,0,0,0,0,0,30.7693340690,34.6531472378,2131.875000,-0.537590,4.010223,66.847153,13.567387,2.089356,-0.098185,-0.000008,7.381419,2016.784424,2017.977905,12.000000,40.000000,0.000000,0.000000,2020.000122,2020.000000,2131.875000,0.000000,-0.000368,246.889969,78.735428,0.066193,-2.330117,10433.866211,0.000000
0.000000,0.000000,0.000000,0.000000,0.000000,0.000000,0.000000,0.000000,0,0,0,0,0,0,30.7693340690,34.6531472378,2131.875000,-0.537707,4.010210,66.847145,14.670840,2.083922,-0.094548,-0.000008,7.404309,2013.911011,2015.104370,12.000000,40.000000,0.000000,0.000000,2020.000122,2020.000000,2131.875000,0.000000,-0.000268,246.889969,79.859924,0.066240,-2.338420,10314.278320,0.000000
0.000000,0.000000,0.000000,0.000000,0.000000,0.000000,0.000000,0.000000,0,0,0,0,0,0,30.7693340691,34.6531472378,2131.875000,-0.537826,4.010202,66.847137,15.779662,2.079263,-0.070417,-0.000006,7.411329,2011.029419,2012.222900,12.000000,40.000000,0.000000,0.000000,2010.000122,2010.000000,2131.875000,0.000000,-0.000134,246.889969,80.922897,0.066284,-2.346316,10194.436523,0.000000
0.000000,0.000000,0.000000,0.000000,0.000000,0.000000,0.000000,0.000000,0,0,0,0,0,0,30.7693340691,34.6531472378,2131.875000,-0.537945,4.010198,66.847122,16.893118,2.075387,-0.068045,-0.000006,7.413430,2008.145142,2009.338501,12.000000,40.000000,0.000000,0.000000,2010.000122,2010.000000,2131.875000,0.000000,-0.000167,246.889969,81.923462,0.066326,-2.353827,10074.365234,0.000000
0.000000,0.000000,0.000000,0.000000,0.000000,0.000000,0.000000,0.000000,0,0,0,0,0,0,30.7693340691,34.6531472378,2131.875000,-0.538065,4.010199,66.847115,18.010363,2.072298,-0.065172,-0.000006,7.413781,2005.259644,2006.453125,12.000000,40.000000,0.000000,0.000000,2010.000122,2010.000000,2131.875000,0.000000,-0.000201,246.889969,82.860878,0.066366,-2.360970,9954.071289,0.000000
0.000000,0.000000,0.000000,0.000000,0.000000,0.000000,0.000000,0.000000,0,0,0,0,0,0,30.7693340691,34.6531472378,2131.875000,-0.538185,4.010204,66.847107,19.130560,2.069999,-0.061947,-0.000005,7.413492,2002.373901,2003.567383,12.000000,40.000000,0.000000,0.000000,2010.000122,2010.000000,2131.875000,0.000000,-0.000100,246.889969,83.734528,0.066404,-2.367764,9833.550781,0.000000
0.000000,0.000000,0.000000,0.000000,0.000000,0.000000,0.000000,0.000000,0,0,0,0,0,0,30.7693340691,34.6531472377,2131.875000,-0.538306,4.010215,66.847099,20.252876,2.068493,-0.058854,-0.000005,7.412952,1999.487915,2000.681396,12.000000,40.000000,0.000000,0.000000,2000.000122,2000.000000,2131.875000,0.000000,-0.000167,246.889969,84.543953,0.066441,-2.374227,9712.801758,0.000000
0.000000,0.000000,0.000000,0.000000,0.000000,0.000000,0.000000,0.000000,0,0,0,0,0,0,30.7693340692,34.6531472377,2131.875000,-0.538387,4.010224,66.847092,21.001871,2.067930,-0.057011,-0.000005,7.352670,1997.254150,1998.447632,12.000000,40.000000,0.000000,0.000000,2000.000122,2000.000000,2131.875000,0.000000,-0.000167,246.889969,85.047722,0.066467,-2.378359,9630.223633,0.000000
0.000000,0.000000,0.000000,0.000000,0.000000,0.000000,0.000000,0.000000,0,0,0,0,0,0,30.7693340692,34.6531472377,2131.875000,-0.538544,4.010242,66.847076,22.594296,2.067907,-0.080613,-0.000006,7.105243,1993.296509,1994.489868,12.000000,40.000000,0.000000,0.000000,2000.000122,2000.000000,2131.875000,0.000000,-0.000134,246.889969,86.022682,0.066519,-2.386693,9459.371094,0.000000
0.000000,0.000000,0.000000,0.000000,0.000000,0.000000,0.000000,0.000000,0,0,0,0,0,0,30.7693340692,34.6531472377,2131.875000,-0.538632,4.010252,66.847069,23.624187,2.068743,-0.043139,-0.000003,7.297960,1990.765015,1991.958496,12.000000,40.000000,0.000000,0.000000,1990.000122,1990.000000,2131.875000,0.000000,-0.000100,246.889969,86.584229,0.066551,-2.391780,9348.749023,0.000000
0.000000,0.000000,0.000000,0.000000,0.000000,0.000000,0.000000,0.000000,0,0,0,0,0,0,30.7693340692,34.6531472377,2131.875000,-0.538727,4.010260,66.847061,24.746372,2.070415,-0.040113,-0.000003,7.370770,1987.920776,1989.114258,12.000000,40.000000,0.000000,0.000000,1990.000122,1990.000000,2131.875000,0.000000,-0.000067,246.889969,87.134766,0.066582,-2.397069,9227.295898,0.000000
0.000000,0.000000,0.000000,0.000000,0.000000,0.000000,0.000000,0.000000,0,0,0,0,0,0,30.7693340692,34.6531472377,2131.875000,-0.538820,4.010267,66.847054,25.866360,2.072882,-0.051529,-0.000003,7.395377,1985.049316,1986.242676,12.000000,40.000000,0.000000,0.000000,1990.000122,1990.000000,2131.875000,0.000000,-0.000268,246.889969,87.620750,0.066612,-2.402099,9105.404297,0.000000
0.000000,0.000000,0.000000,0.000000,0.000000,0.000000,0.000000,0.000000,0,0,0,0,0,0,30.7693340693,34.6531472377,2131.875000,-0.538908,4.010274,66.847046,26.983288,2.076139,-0.050942,-0.000003,7.403429,1982.168213,1983.361694,12.000000,40.000000,0.000000,0.000000,1990.000122,1990.000000,2131.875000,0.000000,-0.000134,246.889969,88.042480,0.066639,-2.406883,8983.182617,0.000000
0.000000,0.000000,0.000000,0.000000,0.000000,0.000000,0.000000,0.000000,0,0,0,0,0,0,30.7693340693,34.6531472377,2131.875000,-0.538999,4.010283,66.847038,28.096294,2.080180,-0.019531,-0.000001,7.405648,1979.283813,1980.477173,12.000000,40.000000,0.000000,0.000000,1980.000122,1980.000000,2131.875000,0.000000,-0.000067,246.889969,88.400414,0.066665,-2.411434,8860.661133,0.000000
0.000000,0.000000,0.000000,0.000000,0.000000,0.000000,0.000000,0.000000,0,0,0,0,0,0,30.7693340693,34.6531472376,2131.875000,-0.539092,4.010290,66.847031,29.204630,2.085005,-0.016319,-0.000001,7.405792,1976.398071,1977.591553,12.000000,40.000000,0.000000,0.000000,1980.000122,1980.000000,2131.875000,0.000000,0.000000,246.889969,88.695091,0.066689,-2.415762,8737.847656,0.000000
0.000000,0.000000,0.000000,0.000000,0.000000,0.000000,0.000000,0.000000,0,0,0,0,0,0,30.7693340693,34.6531472376,2131.875000,-0.539186,4.010299,66.847023,30.307478,2.090607,-0.013087,-0.000001,7.405180,1973.511963,1974.705444,12.000000,40.000000,0.000000,0.000000,1980.000122,1980.000000,2131.875000,0.000000,0.000000,246.889969,88.927185,0.066713,-2.419879,8614.738281,0.000000
0.000000,0.000000,0.000000,0.000000,0.000000,0.000000,0.000000,0.000000,0,0,0,0,0,0,30.7693340693,34.6531472376,2131.875000,-0.539282,4.010309,66.847015,31.404064,2.096979,-0.009559,-0.000001,7.404278,1970.625610,1971.819092,12.000000,40.000000,0.000000,0.000000,1970.000122,1970.000000,2131.875000,0.000000,0.000067,246.889969,89.097481,0.066736,-2.423794,8491.325195,0.000000
0.000000,0.000000,0.000000,0.000000,0.000000,0.000000,0.000000,0.000000,0,0,0,0,0,0,30.7693340693,34.6531472376,2131.875000,-0.539347,4.010317,66.847015,32.131279,2.101652,-0.007256,-0.000001,7.403601,1968.701416,1969.894775,12.000000,40.000000,0.000000,0.000000,1970.000122,1970.000000,2131.875000,0.000000,0.000033,246.889969,89.177109,0.066751,-2.426298,8408.877930,0.000000
0.000000,0.000000,0.000000,0.000000,0.000000,0.000000,0.000000,0.000000,0,0,0,0,0,0,30.7693340694,34.6531472376,2131.875000,-0.539482,4.010335,66.847000,33.575523,2.112008,-0.003520,-0.000000,7.223173,1964.750366,1965.943848,12.000000,40.000000,0.000000,0.000000,1970.000122,1970.000000,2131.875000,0.000000,0.000067,246.889969,89.256317,0.066783,-2.431061,8242.821289,0.000000
0.000000,0.000000,0.000000,0.000000,0.000000,0.000000,0.000000,0.000000,0,0,0,0,0,0,30.7693340694,34.6531472376,2131.875000,-0.539583,4.010351,66.846992,34.649017,2.120648,-0.005318,-0.000000,7.346086,1961.941406,1963.134766,12.000000,40.000000,0.000000,0.000000,1970.000122,1970.000000,2131.875000,0.000000,0.000167,246.889969,89.246941,0.066806,-2.434430,8119.019043,0.000000
0.000000,0.000000,0.000000,0.000000,0.000000,0.000000,0.000000,0.000000,0,0,0,0,0,0,30.7693340694,34.6531472376,2131.875000,-0.539687,4.010369,66.846985,35.713436,2.130026,0.005852,0.000000,7.384641,1959.070923,1960.264404,12.000000,40.000000,0.000000,0.000000,1960.000122,1960.000000,2131.875000,0.000000,0.000067,246.889969,89.179916,0.066826,-2.437634,7994.421875,0.000000
0.000000,0.000000,0.000000,0.000000,0.000000,0.000000,0.000000,0.000000,0,0,0,0,0,0,30.7693340694,34.6531472376,2131.875000,-0.539794,4.010388,66.846977,36.768230,2.140134,-0.015142,-0.000001,7.393269,1956.190063,1957.383423,12.000000,40.000000,0.000000,0.000000,1960.000122,1960.000000,2131.875000,0.000000,0.000134,246.889969,89.056519,0.066846,-2.440682,7869.392578,0.000000
0.000000,0.000000,0.000000,0.000000,0.000000,0.000000,0.000000,0.000000,0,0,0,0,0,0,30.7693340694,34.6531472375,2131.875000,-0.539904,4.010410,66.846970,37.812771,2.150960,0.012950,0.000001,7.395439,1953.305420,1954.498779,12.000000,40.000000,0.000000,0.000000,1960.000122,1960.000000,2131.875000,0.000000,0.000134,246.889969,88.878105,0.066865,-2.443581,7743.969727,0.000000
0.000000,0.000000,0.000000,0.000000,0.000000,0.000000,0.000000,0.000000,0,0,0,0,0,0,30.7693340695,34.6531472375,2131.875000,-0.540019,4.010434,66.846962,38.846561,2.162494,0.014276,0.000001,7.395339,1950.419434,1951.612915,12.000000,40.000000,0.000000,0.000000,1950.000122,1950.000000,2131.875000,0.000000,0.000100,246.889969,88.646133,0.066885,-2.446338,7618.158203,0.000000
0.000000,0.000000,0.000000,0.000000,0.000000,0.000000,0.000000,0.000000,0,0,0,0,0,0,30.7693340695,34.6531472375,2131.875000,-0.540137,4.010459,66.846947,39.869095,2.174726,0.015855,0.000001,7.394417,1947.532959,1948.726440,12.000000,40.000000,0.000000,0.000000,1950.000122,1950.000000,2131.875000,0.000000,0.000100,246.889969,88.362106,0.066905,-2.448961,7491.951172,0.000000
0.000000,0.000000,0.000000,0.000000,0.000000,0.000000,0.000000,0.000000,0,0,0,0,0,0,30.7693340695,34.6531472375,2131.875000,-0.540258,4.010486,66.846939,40.879910,2.187643,0.017495,0.000002,7.393180,1944.646362,1945.839722,12.000000,40.000000,0.000000,0.000000,1950.000122,1950.000000,2131.875000,0.000000,0.000067,246.889969,88.027634,0.066925,-2.451455,7365.336426,0.000000
0.000000,0.000000,0.000000,0.000000,0.000000,0.000000,0.000000,0.000000,0,0,0,0,0,0,30.7693340695,34.6531472375,2131.875000,-0.540383,4.010516,66.846931,41.878590,2.201233,0.019154,0.000002,7.391808,1941.759521,1942.953003,12.000000,40.000000,0.000000,0.000000,1950.000122,1950.000000,2131.875000,0.000000,0.000134,246.889969,87.644363,0.066945,-2.453827,7238.299805,0.000000
0.000000,0.000000,0.000000,0.000000,0.000000,0.000000,0.000000,0.000000,0,0,0,0,0,0,30.7693340695,34.6531472375,2131.875000,-0.540468,4.010537,66.846924,42.537445,2.210662,0.019440,0.000002,7.390850,1939.835083,1941.028442,12.000000,40.000000,0.000000,0.000000,1940.000122,1940.000000,2131.875000,0.000000,0.000134,246.889969,87.362602,0.066958,-2.455344,7153.366699,0.000000
0.000000,0.000000,0.000000,0.000000,0.000000,0.000000,0.000000,0.000000,0,0,0,0,0,0,30.7693340696,34.6531472374,2131.875000,-0.540656,4.010587,66.846909,43.918591,2.231657,0.030076,0.000003,7.228051,1935.657349,1936.850708,12.000000,40.000000,0.000000,0.000000,1940.000122,1940.000000,2131.875000,0.000000,0.000067,246.889969,86.696808,0.066989,-2.458404,6971.475098,0.000000
0.000000,0.000000,0.000000,0.000000,0.000000,0.000000,0.000000,0.000000,0,0,0,0,0,0,30.7693340696,34.6531472374,2131.875000,-0.540779,4.010621,66.846901,44.798229,2.245922,0.012879,0.000001,7.334806,1933.069214,1934.262695,12.000000,40.000000,0.000000,0.000000,1940.000122,1940.000000,2131.875000,0.000000,0.000067,246.889969,86.219391,0.067010,-2.460271,6854.265625,0.000000
0.000000,0.000000,0.000000,0.000000,0.000000,0.000000,0.000000,0.000000,0,0,0,0,0,0,30.7693340696,34.6531472374,2131.875000,-0.540916,4.010660,66.846886,45.744965,2.262080,0.017758,0.000002,7.367629,1930.201538,1931.395020,12.000000,40.000000,0.000000,0.000000,1930.000122,1930.000000,2131.875000,0.000000,0.000067,246.889969,85.658798,0.067030,-2.462213,6725.543945,0.000000
0.000000,0.000000,0.000000,0.000000,0.000000,0.000000,0.000000,0.000000,0,0,0,0,0,0,30.7693340696,34.6531472374,2131.875000,-0.541059,4.010701,66.846878,46.678040,2.278847,0.033709,0.000004,7.377755,1927.321411,1928.514893,12.000000,40.000000,0.000000,0.000000,1930.000122,1930.000000,2131.875000,0.000000,0.000201,246.889969,85.058594,0.067050,-2.464059,6596.199219,0.000000
0.000000,0.000000,0.000000,0.000000,0.000000,0.000000,0.000000,0.000000,0,0,0,0,0,0,30.7693340697,34.6531472373,2131.875000,-0.541208,4.010743,66.846863,47.597294,2.296211,0.034292,0.000004,7.380224,1924.436768,1925.630249,12.000000,40.000000,0.000000,0.000000,1930.000122,1930.000000,2131.875000,0.000000,0.000167,246.889969,84.420746,0.067071,-2.465816,6466.279297,0.000000
0.000000,0.000000,0.000000,0.000000,0.000000,0.000000,0.000000,0.000000,0,0,0,0,0,0,30.7693340697,34.6531472373,2131.875000,-0.541361,4.010788,66.846848,48.502552,2.314159,0.037314,0.000004,7.379979,1921.550537,1922.744019,12.000000,40.000000,0.000000,0.000000,1930.000122,1930.000000,2131.875000,0.000000,0.000067,246.889969,83.747276,0.067093,-2.467486,6335.786621,0.000000
0.000000,0.000000,0.000000,0.000000,0.000000,0.000000,0.000000,0.000000,0,0,0,0,0,0,30.7693340697,34.6531472373,2131.875000,-0.541517,4.010835,66.846840,49.393688,2.332676,0.038450,0.000005,7.378754,1918.663818,1919.857300,12.000000,40.000000,0.000000,0.000000,1920.000122,1920.000000,2131.875000,0.000000,0.000100,246.889969,83.040215,0.067115,-2.469075,6204.704590,0.000000
0.000000,0.000000,0.000000,0.000000,0.000000,0.000000,0.000000,0.000000,0,0,0,0,0,0,30.7693340697,34.6531472373,2131.875000,-0.541678,4.010885,66.846825,50.270622,2.351750,0.024995,0.000003,7.377158,1915.776733,1916.970215,12.000000,40.000000,0.000000,0.000000,1920.000122,1920.000000,2131.875000,0.000000,0.000167,246.889969,82.301628,0.067138,-2.470587,6073.009766,0.000000
0.000000,0.000000,0.000000,0.000000,0.000000,0.000000,0.000000,0.000000,0,0,0,0,0,0,30.7693340698,34.6531472372,2131.875000,-0.541844,4.010936,66.846809,51.133266,2.371366,0.025828,0.000003,7.375407,1912.889648,1914.083130,12.000000,40.000000,0.000000,0.000000,1920.000122,1920.000000,2131.875000,0.000000,0.000167,246.889969,81.533607,0.067160,-2.472024,5940.672852,0.000000
0.000000,0.000000,0.000000,0.000000,0.000000,0.000000,0.000000,0.000000,0,0,0,0,0,0,30.7693340698,34.6531472372,2131.875000,-0.541957,4.010972,66.846802,51.700413,2.384737,0.022949,0.000003,7.374192,1910.964844,1912.158325,12.000000,40.000000,0.000000,0.000000,1910.000122,1910.000000,2131.875000,0.000000,0.000335,246.889969,81.006287,0.067176,-2.472943,5852.076172,0.000000
0.000000,0.000000,0.000000,0.000000,0.000000,0.000000,0.000000,0.000000,0,0,0,0,0,0,30.7693340698,34.6531472372,2131.875000,-0.542209,4.011053,66.846779,52.884483,2.413919,0.023479,0.000003,7.166840,1906.790405,1907.983887,12.000000,40.000000,0.000000,0.000000,1910.000122,1910.000000,2131.875000,0.000000,0.000301,246.889969,79.848259,0.067213,-2.474797,5661.909668,0.000000
0.000000,0.000000,0.000000,0.000000,0.000000,0.000000,0.000000,0.000000,0,0,0,0,0,0,30.7693340699,34.6531472371,2131.875000,-0.542374,4.011106,66.846771,53.635326,2.433339,0.029700,0.000004,7.318285,1904.201294,1905.394775,12.000000,40.000000,0.000000,0.000000,1910.000122,1910.000000,2131.875000,0.000000,0.000100,246.889969,79.074074,0.067239,-2.475928,5539.247070,0.000000
0.000000,0.000000,0.000000,0.000000,0.000000,0.000000,0.000000,0.000000,0,0,0,0,0,0,30.7693340699,34.6531472371,2131.875000,-0.542558,4.011167,66.846756,54.440758,2.454995,0.029574,0.000004,7.335867,1901.321411,1902.514893,12.000000,40.000000,0.000000,0.000000,1910.000122,1910.000000,2131.875000,0.000000,0.000201,246.889969,78.209473,0.067265,-2.477105,5404.083496,0.000000
0.000000,0.000000,0.000000,0.000000,0.000000,0.000000,0.000000,0.000000,0,0,0,0,0,0,30.7693340699,34.6531472371,2131.875000,-0.542747,4.011229,66.846741,55.231976,2.477128,0.031969,0.000005,7.354086,1898.446533,1899.640015,12.000000,40.000000,0.000000,0.000000,1900.000122,1900.000000,2131.875000,0.000000,0.000067,246.889969,77.326050,0.067290,-2.478224,5268.148926,0.000000
0.000000,0.000000,0.000000,0.000000,0.000000,0.000000,0.000000,0.000000,0,0,0,0,0,0,30.7693340700,34.6531472371,2131.875000,-0.542941,4.011292,66.846725,56.009102,2.499725,0.022759,0.000003,7.359612,1895.563599,1896.756958,12.000000,40.000000,0.000000,0.000000,1900.000122,1900.000000,2131.875000,0.000000,0.000201,246.889969,76.425926,0.067315,-2.479288,5131.246582,0.000000
0.000000,0.000000,0.000000,0.000000,0.000000,0.000000,0.000000,0.000000,0,0,0,0,0,0,30.7693340700,34.6531472370,2131.875000,-0.543140,4.011354,66.846703,56.772167,2.522775,0.027168,0.000004,7.360190,1892.677612,1893.871094,12.000000,40.000000,0.000000,0.000000,1900.000122,1900.000000,2131.875000,0.000000,0.000402,246.889969,75.511215,0.067342,-2.480300,4993.380859,0.000000
0.000000,0.000000,0.000000,0.000000,0.000000,0.000000,0.000000,0.000000,0,0,0,0,0,0,30.7693340700,34.6531472370,2131.875000,-0.543345,4.011418,66.846687,57.521290,2.546268,0.023045,0.000004,7.359001,1889.790771,1890.984131,12.000000,40.000000,0.000000,0.000000,1890.000122,1890.000000,2131.875000,0.000000,0.000167,246.889969,74.584015,0.067370,-2.481263,4854.514160,0.000000
0.000000,0.000000,0.000000,0.000000,0.000000,0.000000,0.000000,0.000000,0,0,0,0,0,0,30.7693340701,34.6531472369,2131.875000,-0.543551,4.011485,66.846672,58.201447,2.553944,0.024382,0.000004,7.357354,1886.903687,1888.097046,12.000000,40.000000,0.000000,0.000000,1890.000122,1890.000000,2131.875000,0.000000,0.000201,246.889969,73.646416,0.067404,-2.482178,4714.591797,0.000000
0.000000,0.000000,0.000000,0.000000,0.000000,0.000000,0.000000,0.000000,0,0,0,0,0,0,30.7693340701,34.6531472369,2131.875000,-0.543732,4.011544,66.846657,58.839264,2.549835,0.006639,0.000001,7.356243,1884.016968,1885.210327,12.000000,40.000000,0.000000,0.000000,1890.000122,1890.000000,2131.875000,0.000000,0.000201,246.889969,72.700485,0.067447,-2.483049,4573.549316,0.000000
0.000000,0.000000,0.000000,0.000000,0.000000,0.000000,0.000000,0.000000,0,0,0,0,0,0,30.7693340701,34.6531472369,2131.875000,-0.543832,4.011580,66.846649,59.265572,2.547270,0.003465,0.000000,7.355680,1882.092529,1883.286011,12.000000,40.000000,0.000000,0.000000,1890.000122,1890.000000,2131.875000,0.000000,0.000100,246.889969,72.066231,0.067473,-2.483606,4478.858398,0.000000
0.000000,0.000000,0.000000,0.000000,0.000000,0.000000,0.000000,0.000000,0,0,0,0,0,0,30.7693340701,34.6531472369,2131.875000,-0.543998,4.011640,66.846634,60.120644,2.542559,0.007119,0.000001,7.135021,1878.157471,1879.350830,12.000000,40.000000,0.000000,0.000000,1880.000122,1880.000000,2131.875000,0.000000,0.000067,246.889969,70.791733,0.067521,-2.484666,4286.613770,0.000000
0.000000,0.000000,0.000000,0.000000,0.000000,0.000000,0.000000,0.000000,0,0,0,0,0,0,30.7693340702,34.6531472369,2131.875000,-0.544098,4.011674,66.846626,60.763897,2.539397,-0.003154,-0.000000,7.300652,1875.326904,1876.520386,12.000000,40.000000,0.000000,0.000000,1880.000122,1880.000000,2131.875000,0.000000,-0.000000,246.889969,69.832909,0.067552,-2.485415,4142.481934,0.000000
0.000000,0.000000,0.000000,0.000000,0.000000,0.000000,0.000000,0.000000,0,0,0,0,0,0,30.7693340702,34.6531472368,2131.875000,-0.544186,4.011701,66.846619,61.408657,2.536555,-0.017672,-0.000001,7.334767,1872.460083,1873.653564,12.000000,40.000000,0.000000,0.000000,1880.000122,1880.000000,2131.875000,0.000000,0.000067,246.889969,68.873718,0.067581,-2.486128,3996.333008,0.000000
0.000000,0.000000,0.000000,0.000000,0.000000,0.000000,0.000000,0.000000,0,0,0,0,0,0,30.7693340702,34.6531472368,2131.875000,-0.544266,4.011724,66.846611,62.054775,2.534034,-0.027734,-0.000002,7.263468,1869.563232,1870.756592,12.000000,40.000000,0.000000,0.000000,1870.000122,1870.000000,2131.875000,0.000000,-0.000067,246.889969,67.916084,0.067609,-2.486806,3848.102783,0.000000
0.000000,0.000000,0.000000,0.000000,0.000000,0.000000,0.000000,0.000000,0,0,0,0,0,0,30.7693340702,34.6531472368,2131.875000,-0.544339,4.011744,66.846611,62.702091,2.531834,-0.038960,-0.000002,7.338733,1866.690308,1867.883789,12.000000,40.000000,0.000000,0.000000,1870.000122,1870.000000,2131.875000,0.000000,-0.000067,246.889969,66.961868,0.067633,-2.487451,3698.455811,0.000000
0.000000,0.000000,0.000000,0.000000,0.000000,0.000000,0.000000,0.000000,0,0,0,0,0,0,30.7693340702,34.6531472368,2131.875000,-0.544407,4.011763,66.846603,63.350460,2.529960,-0.075853,-0.000004,7.346779,1863.808594,1865.002075,12.000000,40.000000,0.000000,0.000000,1870.000122,1870.000000,2131.875000,0.000000,-0.000268,246.889969,66.012886,0.067656,-2.488064,3546.712158,0.000000
0.000000,0.000000,0.000000,0.000000,0.000000,0.000000,0.000000,0.000000,0,0,0,0,0,0,30.7693340702,34.6531472368,2131.875000,-0.544471,4.011783,66.846596,63.999706,2.528407,-0.040714,-0.000002,7.349045,1860.923828,1862.117188,12.000000,40.000000,0.000000,0.000000,1860.000122,1860.000000,2131.875000,0.000000,-0.000167,246.889969,65.070923,0.067676,-2.488647,3392.759521,0.000000
0.000000,0.000000,0.000000,0.000000,0.000000,0.000000,0.000000,0.000000,0,0,0,0,0,0,30.7693340702,34.6531472368,2131.875000,-0.544536,4.011801,66.846588,64.649689,2.527180,-0.046316,-0.000002,7.349397,1858.037842,1859.231201,12.000000,40.000000,0.000000,0.000000,1860.000122,1860.000000,2131.875000,0.000000,-0.000134,246.889969,64.137695,0.067696,-2.489202,3236.395264,0.000000
0.000000,0.000000,0.000000,0.000000,0.000000,0.000000,0.000000,0.000000,0,0,0,0,0,0,30.7693340702,34.6531472368,2131.875000,-0.544602,4.011819,66.846588,65.300224,2.526278,-0.048785,-0.000002,7.349074,1855.151489,1856.344849,12.000000,40.000000,0.000000,0.000000,1860.000122,1860.000000,2131.875000,0.000000,-0.000067,246.889969,63.214890,0.067715,-2.489730,3077.350830,0.000000
0.000000,0.000000,0.000000,0.000000,0.000000,0.000000,0.000000,0.000000,0,0,0,0,0,0,30.7693340702,34.6531472368,2131.875000,-0.544645,4.011831,66.846581,65.734146,2.525859,-0.049516,-0.000002,7.348713,1853.227051,1854.420532,12.000000,40.000000,0.000000,0.000000,1860.000122,1860.000000,2131.875000,0.000000,-0.000067,246.889969,62.606277,0.067727,-2.490067,2969.671143,0.000000
0.000000,0.000000,0.000000,0.000000,0.000000,0.000000,0.000000,0.000000,0,0,0,0,0,0,30.7693340703,34.6531472368,2131.875000,-0.544741,4.011858,66.846573,66.656586,2.525448,-0.049350,-0.000002,7.142468,1849.053589,1850.247070,12.000000,40.000000,0.000000,0.000000,1850.000122,1850.000000,2131.875000,0.000000,-0.000134,246.889969,61.332867,0.067752,-2.490748,2734.172119,0.000000
0.000000,0.000000,0.000000,0.000000,0.000000,0.000000,0.000000,0.000000,0,0,0,0,0,0,30.7693340703,34.6531472367,2131.875000,-0.544802,4.011876,66.846573,67.253532,2.525532,-0.086347,-0.000004,7.296601,1846.464111,1847.657593,12.000000,40.000000,0.000000,0.000000,1850.000122,1850.000000,2131.875000,0.000000,-0.000033,246.889969,60.524925,0.067770,-2.491163,2579.990723,0.000000
0.000000,0.000000,0.000000,0.000000,0.000000,0.000000,0.000000,0.000000,0,0,0,0,0,0,30.7693340703,34.6531472367,2131.875000,-0.544867,4.011898,66.846565,67.904633,2.525935,-0.043089,-0.000002,7.329621,1843.595459,1844.788818,12.000000,40.000000,0.000000,0.000000,1850.000122,1850.000000,2131.875000,0.000000,-0.000067,246.889969,59.659447,0.067785,-2.491595,2406.427734,0.000000
0.000000,0.000000,0.000000,0.000000,0.000000,0.000000,0.000000,0.000000,0,0,0,0,0,0,30.7693340703,34.6531472367,2131.875000,-0.544937,4.011918,66.846558,68.555466,2.526664,-0.038755,-0.000002,7.339854,1840.715088,1841.908447,12.000000,40.000000,0.000000,0.000000,1840.000122,1840.000000,2131.875000,0.000000,-0.000067,246.889969,58.811916,0.067801,-2.492006,2227.178955,0.000000
0.000000,0.000000,0.000000,0.000000,0.000000,0.000000,0.000000,0.000000,0,0,0,0,0,0,30.7693340703,34.6531472367,2131.875000,-0.545009,4.011939,66.846550,69.205841,2.527719,-0.038167,-0.000002,7.342985,1837.830566,1839.024048,12.000000,40.000000,0.000000,0.000000,1840.000122,1840.000000,2131.875000,0.000000,-0.000134,246.889969,57.983662,0.067816,-2.492396,2041.279297,0.000000
0.000000,0.000000,0.000000,0.000000,0.000000,0.000000,0.000000,0.000000,0,0,0,0,0,0,30.7693340703,34.6531472367,2131.875000,-0.545081,4.011961,66.846550,69.855598,2.529102,-0.025796,-0.000001,7.343623,1834.944702,1836.138184,12.000000,40.000000,0.000000,0.000000,1840.000122,1840.000000,2131.875000,0.000000,-0.000134,246.889969,57.175938,0.067830,-2.492768,1847.217773,0.000000
0.000000,0.000000,0.000000,0.000000,0.000000,0.000000,0.000000,0.000000,0,0,0,0,0,0,30.7693340703,34.6531472367,2131.875000,-0.545157,4.011983,66.846542,70.504578,2.530807,-0.030318,-0.000002,7.343382,1832.058228,1833.251709,12.000000,40.000000,0.000000,0.000000,1840.000122,1840.000000,2131.875000,0.000000,-0.000100,246.889969,56.389942,0.067844,-2.493121,1642.713501,0.000000
0.000000,0.000000,0.000000,0.000000,0.000000,0.000000,0.000000,0.000000,0,0,0,0,0,0,30.7693340703,34.6531472367,2131.875000,-0.545234,4.012005,66.846535,71.152596,2.532840,-0.057789,-0.000003,7.342830,1829.171631,1830.365112,12.000000,40.000000,0.000000,0.000000,1830.000122,1830.000000,2131.875000,0.000000,-0.000201,246.889969,55.626797,0.067860,-2.493458,1424.154663,0.000000
0.000000,0.000000,0.000000,0.000000,0.000000,0.000000,0.000000,0.000000,0,0,0,0,0,0,30.7693340704,34.6531472367,2131.875000,-0.545312,4.012028,66.846527,71.799507,2.535193,-0.024905,-0.000001,7.342165,1826.285034,1827.478394,12.000000,40.000000,0.000000,0.000000,1830.000122,1830.000000,2131.875000,0.000000,-0.000067,246.889969,54.887566,0.067873,-2.493777,1185.240356,0.000000
0.000000,0.000000,0.000000,0.000000,0.000000,0.000000,0.000000,0.000000,0,0,0,0,0,0,30.7693340704,34.6531472366,2131.875000,-0.545367,4.012043,66.846527,72.230080,2.536943,-0.024916,-0.000002,7.341696,1824.360474,1825.553955,12.000000,40.000000,0.000000,0.000000,1830.000122,1830.000000,2131.875000,0.000000,-0.000067,246.889969,54.408524,0.067882,-2.493982,1008.807373,0.000000
0.000000,0.000000,0.000000,0.000000,0.000000,0.000000,0.000000,0.000000,0,0,0,0,0,0,30.7693340704,34.6531472366,2131.875000,-0.545487,4.012075,66.846512,73.142937,2.541137,-0.018596,-0.000001,7.127893,1820.187988,1821.381348,12.000000,40.000000,0.000000,0.000000,1820.000122,1820.000000,2131.875000,0.000000,-0.000201,246.889969,53.428558,0.067904,-2.494394,527.632629,0.000000
0.000000,0.000000,0.000000,0.000000,0.000000,0.000000,0.000000,0.000000,0,0,0,0,0,0,30.7693340704,34.6531472366,2131.875000,-0.545566,4.012095,66.846504,73.731911,2.544192,-0.020250,-0.000001,7.284853,1817.599731,1818.793091,12.000000,40.000000,0.000000,0.000000,1820.000122,1820.000000,2131.875000,0.000000,0.000000,246.889969,52.822914,0.067919,-2.494646,-283.275940,0.000000
0.000000,0.000000,0.000000,0.000000,0.000000,0.000000,0.000000,0.000000,0,0,0,0,0,0,30.7693340704,34.6531472366,2131.875000,-0.545654,4.012117,66.846504,74.372726,2.547833,-0.020489,-0.000001,7.323824,1814.729248,1815.922607,12.000000,40.000000,0.000000,0.000000,1820.000122,1820.000000,2131.875000,0.000000,-0.000067,246.889969,52.188553,0.067933,-2.494907,-581.737549,0.000000
0.000000,0.000000,0.000000,0.000000,0.000000,0.000000,0.000000,0.000000,0,0,0,0,0,0,30.7693340704,34.6531472366,2131.875000,-0.545745,4.012137,66.846497,75.011627,2.551792,-0.050665,-0.000003,7.333119,1811.848145,1813.041626,12.000000,40.000000,0.000000,0.000000,1820.000122,1820.000000,2131.875000,0.000000,-0.000067,246.889969,51.582367,0.067948,-2.495156,-743.520325,0.000000
0.000000,0.000000,0.000000,0.000000,0.000000,0.000000,0.000000,0.000000,0,0,0,0,0,0,30.7693340704,34.6531472366,2131.875000,-0.545835,4.012159,66.846489,75.648445,2.556069,-0.039592,-0.000003,7.335877,1808.963379,1810.156860,12.000000,40.000000,0.000000,0.000000,1810.000122,1810.000000,2131.875000,0.000000,-0.000134,246.889969,51.004993,0.067963,-2.495393,-859.750549,0.000000
0.000000,0.000000,0.000000,0.000000,0.000000,0.000000,0.000000,0.000000,0,0,0,0,0,0,30.7693340705,34.6531472366,2131.875000,-0.545930,4.012179,66.846481,76.283051,2.560659,-0.013357,-0.000001,7.336360,1806.077271,1807.270752,12.000000,40.000000,0.000000,0.000000,1810.000122,1810.000000,2131.875000,0.000000,-0.000033,246.889969,50.457012,0.067976,-2.495618,-950.935120,0.000000
0.000000,0.000000,0.000000,0.000000,0.000000,0.000000,0.000000,0.000000,0,0,0,0,0,0,30.7693340705,34.6531472366,2131.875000,-0.546028,4.012197,66.846474,76.915276,2.565563,-0.014537,-0.000001,7.336042,1803.190674,1804.384155,12.000000,40.000000,0.000000,0.000000,1810.000122,1810.000000,2131.875000,0.000000,0.000000,246.889969,49.938923,0.067991,-2.495832,-1025.804321,0.000000
0.000000,0.000000,0.000000,0.000000,0.000000,0.000000,0.000000,0.000000,0,0,0,0,0,0,30.7693340705,34.6531472365,2131.875000,-0.546129,4.012213,66.846466,77.544975,2.570781,-0.029550,-0.000002,7.335439,1800.303955,1801.497437,12.000000,40.000000,0.000000,0.000000,1800.000122,1800.000000,2131.875000,0.000000,-0.000201,246.889969,49.451160,0.068006,-2.496036,-1089.038208,0.000000
0.000000,0.000000,0.000000,0.000000,0.000000,0.000000,0.000000,0.000000,0,0,0,0,0,0,30.7693340705,34.6531472365,2131.875000,-0.546230,4.012228,66.846451,78.172005,2.576308,-0.013825,-0.000001,7.317926,1797.403198,1798.596680,12.000000,40.000000,0.000000,0.000000,1800.000122,1800.000000,2131.875000,0.000000,0.000033,246.889969,48.994091,0.068022,-2.496230,-1144.198120,0.000000
0.000000,0.000000,0.000000,0.000000,0.000000,0.000000,0.000000,0.000000,0,0,0,0,0,0,30.7693340705,34.6531472365,2131.875000,-0.546300,4.012236,66.846451,78.588470,2.580163,-0.013109,-0.000001,7.322447,1795.485596,1796.679077,12.000000,40.000000,0.000000,0.000000,1800.000122,1800.000000,2131.875000,0.000000,0.000033,246.889969,48.706581,0.068032,-2.496354,-1176.162720,0.000000
0.000000,0.000000,0.000000,0.000000,0.000000,0.000000,0.000000,0.000000,0,0,0,0,0,0,30.7693340706,34.6531472365,2131.875000,-0.546446,4.012247,66.846436,79.417480,2.588285,-0.014813,-0.000001,7.137534,1791.540649,1792.734131,12.000000,40.000000,0.000000,0.000000,1800.000122,1800.000000,2131.875000,0.000000,0.000067,246.889969,48.173157,0.068056,-2.496589,-1237.047241,0.000000
0.000000,0.000000,0.000000,0.000000,0.000000,0.000000,0.000000,0.000000,0,0,0,0,0,0,30.7693340706,34.6531472365,2131.875000,-0.546556,4.012251,66.846428,80.035645,2.594737,-0.014607,-0.000001,7.276653,1788.731445,1789.924927,12.000000,40.000000,0.000000,0.000000,1790.000122,1790.000000,2131.875000,0.000000,0.000033,246.889969,47.809685,0.068073,-2.496756,-1270.425171,0.000000
0.000000,0.000000,0.000000,0.000000,0.000000,0.000000,0.000000,0.000000,0,0,0,0,0,0,30.7693340706,34.6531472365,2131.875000,-0.546667,4.012250,66.846420,80.650558,2.601491,-0.033823,-0.000003,7.316279,1785.860840,1787.054321,12.000000,40.000000,0.000000,0.000000,1790.000122,1790.000000,2131.875000,0.000000,-0.000100,246.889969,47.477695,0.068089,-2.496914,-1303.172729,0.000000
0.000000,0.000000,0.000000,0.000000,0.000000,0.000000,0.000000,0.000000,0,0,0,0,0,0,30.7693340706,34.6531472365,2131.875000,-0.546779,4.012245,66.846413,81.262100,2.608542,-0.010618,-0.000001,7.325516,1782.979614,1784.173096,12.000000,40.000000,0.000000,0.000000,1790.000122,1790.000000,2131.875000,0.000000,0.000067,246.889969,47.177223,0.068104,-2.497065,-1333.159302,0.000000
0.000000,0.000000,0.000000,0.000000,0.000000,0.000000,0.000000,0.000000,0,0,0,0,0,0,30.7693340713,34.6531472362,2131.875000,-0.550155,4.012072,66.846146,81.864418,2.613183,-0.076052,-0.000367,7.297391,1780.074829,1781.268311,12.000000,40.000000,0.000000,0.000000,1780.000122,1780.000000,2131.875000,0.000019,-0.010581,246.889969,46.908234,0.065358,-2.497209,-1361.293579,0.000000
0.000000,0.000000,0.000000,0.000000,0.000000,0.000000,0.000000,0.000000,0,0,0,0,0,0,30.7693340727,34.6531472356,2131.875000,-0.556950,4.011614,66.845619,82.469994,2.621065,-0.069957,-0.000308,7.298713,1777.194336,1778.387817,12.000000,40.000000,0.000000,0.000000,1780.000122,1780.000000,2131.875000,0.000080,-0.008371,246.889969,46.670639,0.066005,-2.497345,-1385.826904,0.000000
0.000000,0.000000,0.000000,0.000000,0.000000,0.000000,0.000000,0.000000,0,0,0,0,0,0,30.7693340738,34.6531472352,2131.875000,-0.562477,4.011190,66.845192,83.071083,2.629605,-0.068819,-0.000231,7.289734,1774.299072,1775.492554,12.000000,40.000000,0.000000,0.000000,1780.000122,1780.000000,2131.875000,0.000088,-0.006228,246.889969,46.464302,0.066856,-2.497475,-1408.810303,0.000000
0.000000,0.000000,0.000000,0.000000,0.000000,0.000000,0.000000,0.000000,0,0,0,0,0,0,30.7693340747,34.6531472348,2131.875000,-0.566938,4.010875,66.844841,83.716774,2.639045,-0.069753,-0.000171,7.338346,1771.143066,1772.336548,12.000000,40.000000,0.000000,0.000000,1770.000122,1770.000000,2131.875000,0.000086,-0.004420,246.889969,46.275795,0.067604,-2.497608,-1432.335693,0.000000
0.000000,0.000000,0.000000,0.000000,0.000000,0.000000,0.000000,0.000000,0,0,0,0,0,0,30.7693340753,34.6531472346,2131.875000,-0.570003,4.010719,66.844604,84.308014,2.647923,-0.068895,-0.000128,7.296224,1768.289307,1769.482788,12.000000,40.000000,0.000000,0.000000,1770.000122,1770.000000,2131.875000,0.000084,-0.003516,246.889969,46.133839,0.068272,-2.497725,-1449.766113,0.000000
0.000000,0.000000,0.000000,0.000000,0.000000,0.000000,0.000000,0.000000,0,0,0,0,0,0,30.7693340756,34.6531472344,2131.875000,-0.571631,4.010675,66.844475,84.699608,2.653945,-0.070147,-0.000110,7.310815,1766.373657,1767.567139,12.000000,40.000000,0.000000,0.000000,1770.000122,1770.000000,2131.875000,0.000083,-0.002813,246.889969,46.056129,0.068671,-2.497800,-1461.134766,0.000000
0.000000,0.000000,0.000000,0.000000,0.000000,0.000000,0.000000,0.000000,0,0,0,0,0,0,30.7693340761,34.6531472342,2131.875000,-0.574048,4.010688,66.844284,85.428001,2.665485,-0.068626,-0.000079,7.180256,1762.700439,1763.893921,12.000000,40.000000,0.000000,0.000000,1770.000122,1770.000000,2131.875000,0.000081,-0.002578,246.889969,45.946487,0.069369,-2.497933,-1483.734619,0.000000
0.000000,0.000000,0.000000,0.000000,0.000000,0.000000,0.000000,0.000000,0,0,0,0,0,0,30.7693340764,34.6531472340,2131.875000,-0.575644,4.010765,66.844162,86.052513,2.675773,-0.071022,-0.000065,7.273257,1759.623047,1760.816406,12.000000,40.000000,0.000000,0.000000,1760.000122,1760.000000,2131.875000,0.000079,-0.002076,246.889969,45.888977,0.069825,-2.498043,-1497.635498,0.000000
0.000000,0.000000,0.000000,0.000000,0.000000,0.000000,0.000000,0.000000,0,0,0,0,0,0,30.7693340766,34.6531472339,2131.875000,-0.576841,4.010869,66.844063,86.622505,2.685516,-0.063056,-0.000049,7.309364,1756.751099,1757.944458,12.000000,40.000000,0.000000,0.000000,1760.000122,1760.000000,2131.875000,0.000078,-0.002712,246.889969,45.866257,0.070241,-2.498138,-1510.706299,0.000000
0.000000,0.000000,0.000000,0.000000,0.000000,0.000000,0.000000,0.000000,0,0,0,0,0,0,30.7693340768,34.6531472338,2131.875000,-0.577851,4.010990,66.843987,87.184914,2.695508,-0.068246,-0.000045,7.317869,1753.869385,1755.062744,12.000000,40.000000,0.000000,0.000000,1760.000122,1760.000000,2131.875000,0.000076,-0.001875,246.889969,45.872135,0.070619,-2.498229,-1523.182373,0.000000
0.000000,0.000000,0.000000,0.000000,0.000000,0.000000,0.000000,0.000000,0,0,0,0,0,0,30.7693340769,34.6531472336,2131.875000,-0.578731,4.011111,66.843910,87.737190,2.705750,-0.078569,-0.000046,7.320302,1750.984131,1752.177612,12.000000,40.000000,0.000000,0.000000,1750.000122,1750.000000,2131.875000,0.000075,-0.001440,246.889969,45.906044,0.070962,-2.498316,-1534.874023,0.000000
0.000000,0.000000,0.000000,0.000000,0.000000,0.000000,0.000000,0.000000,0,0,0,0,0,0,30.7693340771,34.6531472335,2131.875000,-0.579518,4.011210,66.843849,88.273720,2.716246,-0.086875,-0.000046,7.320621,1748.097656,1749.291138,12.000000,40.000000,0.000000,0.000000,1750.000122,1750.000000,2131.875000,0.000073,-0.001641,246.889969,45.967354,0.071275,-2.498398,-1545.764160,0.000000
0.000000,0.000000,0.000000,0.000000,0.000000,0.000000,0.000000,0.000000,0,0,0,0,0,0,30.7693340772,34.6531472335,2131.875000,-0.580241,4.011254,66.843796,88.779388,2.726996,-0.113825,-0.000056,7.320197,1745.210815,1746.404297,12.000000,40.000000,0.000000,0.000000,1750.000122,1750.000000,2131.875000,0.000072,-0.001339,246.889969,46.055405,0.071565,-2.498476,-1555.891113,0.000000
0.000000,0.000000,0.000000,0.000000,0.000000,0.000000,0.000000,0.000000,0,0,0,0,0,0,30.7693340774,34.6531472334,2131.875000,-0.580916,4.011166,66.843742,89.202637,2.738003,-0.152953,-0.000075,7.319508,1742.323853,1743.517334,12.000000,40.000000,0.000000,0.000000,1750.000122,1750.000000,2131.875000,0.000070,-0.001674,246.889969,46.169491,0.071838,-2.498551,-1565.307495,0.000000
0.000000,0.000000,0.000000,0.000000,0.000000,0.000000,0.000000,0.000000,0,0,0,0,0,0,30.7693340775,34.6531472335,2131.875000,-0.581548,4.010752,66.843697,89.362762,2.749272,-0.077698,-0.000055,7.318723,1739.436768,1740.630127,12.000000,40.000000,0.000000,0.000000,1740.000122,1740.000000,2131.875000,0.000069,-0.000871,246.889969,46.308872,0.072096,-2.498622,-1574.067017,0.000000
0.000000,0.000000,0.000000,0.000000,0.000000,0.000000,0.000000,0.000000,0,0,0,0,0,0,30.7693340777,34.6531472338,2131.875000,-0.581900,4.009420,66.843681,89.219986,2.757045,0.250113,0.000801,7.318169,1737.511963,1738.705444,12.000000,40.000000,0.000000,0.000000,1740.000122,1740.000000,2131.875000,0.000068,0.020927,246.889969,46.415462,0.072318,-2.498667,-1579.567139,0.000000
0.000000,0.000000,0.000000,0.000000,0.000000,0.000000,0.000000,0.000000,0,0,0,0,0,0,30.7693340783,34.6531472357,2131.875000,-0.581299,4.001119,66.843811,88.675003,2.772223,0.217061,0.001110,7.085437,1733.799927,1734.993286,12.000000,40.000000,0.000000,0.000000,1740.000122,1740.000000,2131.875000,0.000135,0.090305,246.889969,46.643837,0.072921,-2.498748,-1592.608276,0.000000
0.000000,0.000000,0.000000,0.000000,0.000000,0.000000,0.000000,0.000000,0,0,0,0,0,0,30.7693340786,34.6531472372,2131.875244,-0.580151,3.994804,66.843964,88.159363,2.785253,0.212014,0.000668,7.263695,1730.746216,1731.939697,12.000000,40.000000,0.000000,0.000000,1730.000122,1730.000000,2131.875244,0.000182,0.059266,246.889969,46.870789,0.073052,-2.498814,-1597.344604,0.000000
0.000000,0.000000,0.000000,0.000000,0.000000,0.000000,0.000000,0.000000,0,0,0,0,0,0,30.7693340787,34.6531472381,2131.875244,-0.579146,3.991525,66.844070,87.665085,2.797424,0.183341,0.000317,7.297211,1727.878174,1729.071655,12.000000,40.000000,0.000000,0.000000,1730.000122,1730.000000,2131.875244,0.000179,0.035694,246.889969,47.103199,0.073097,-2.498872,-1603.213501,0.000000
0.000000,0.000000,0.000000,0.000000,0.000000,0.000000,0.000000,0.000000,0,0,0,0,0,0,30.7693340786,34.6531472384,2131.875244,-0.578445,3.990206,66.844139,87.248322,2.807675,0.207119,0.000164,6.395831,1725.732422,1726.925781,12.000000,40.000000,0.000000,0.000000,1730.000122,1730.000000,2131.875244,0.000176,0.015436,246.889969,47.313007,0.073109,-2.498918,-1598.587280,0.000000
0.000000,0.000000,0.000000,0.000000,0.000000,0.000000,0.000000,0.000000,0,0,0,0,0,0,30.7693340777,34.6531472389,2131.875244,-0.573857,3.990043,66.844498,86.662796,2.824605,0.054424,0.000247,3.604121,1724.431763,1725.625244,12.000000,40.000000,0.000000,0.000000,1730.000122,1730.000000,2131.875244,0.000186,0.005491,246.889969,47.630306,0.074676,-2.498980,-1528.194458,0.000000
