aileron,elevator,rudder,flaps,slats,speedbrake,throttle,throttle,engine-pump,engine-pump,electric-pump,electric-pump,external-power,APU-generator,latitude-deg,longitude-deg,altitude-ft,roll-deg,pitch-deg,heading-deg,side-slip-deg,airspeed-kt,glideslope,vertical-speed-fps,airspeed-indicator_indicated-speed-kt,altimeter_indicated-altitude-ft,altimeter_pressure-alt-ft,attitude-indicator_indicated-pitch-deg,attitude-indicator_indicated-roll-deg,attitude-indicator_internal-pitch-deg,attitude-indicator_internal-roll-deg,encoder_indicated-altitude-ft,encoder_pressure-alt-ft,gps_indicated-altitude-ft,gps_indicated-ground-speed-kt,gps_indicated-vertical-speed,indicated-heading-deg,magnetic-compass_indicated-heading-deg,slip-skid-ball_indicated-slip-skid,turn-indicator_indicated-turn-rate,vertical-speed-indicator_indicated-speed-fpm,engine_rpm
0.000000,0.000000,0.000000,0.000000,0.000000,0.000000,0.000000,0.000000,0,0,0,0,0,0,30.7798633718,34.6818519214,-9999.000000,0.000000,0.424000,246.991180,0.000000,0.000000,0.000000,0.000000,0.000000,0.000000,0.000000,0.000000,0.000000,0.000000,0.000000,0.000000,0.000000,0.000000,0.000000,0.000000,0.000000,0.000000,0.000000,0.000000,0.000000,0.000000
0.000000,0.000000,0.000000,0.000000,0.000000,0.000000,0.000000,0.000000,0,0,0,0,0,0,30.7798633718,34.6818519214,-9999.000000,0.000000,0.424000,246.991180,0.000000,0.000000,0.000000,0.000000,0.000000,0.000000,1.193444,12.000000,40.000000,0.000000,0.000000,0.000000,0.000000,0.000000,0.000000,0.000000,246.991180,0.000000,0.000000,0.000000,0.000000,0.000000
0.000000,0.000000,0.000000,0.000000,0.000000,0.000000,0.000000,0.000000,0,0,0,0,0,0,30.7693346389,34.6531480681,-9999.000000,0.000000,0.424000,66.976440,0.000000,0.000000,0.000000,0.000000,0.000000,0.000000,1.193444,12.000000,40.000000,0.000000,0.000000,0.000000,0.000000,0.000000,0.000000,0.000000,246.991180,0.000000,0.000000,0.000000,0.000000,0.000000
0.000000,0.000000,0.000000,0.000000,0.000000,0.000000,0.000000,0.000000,0,0,0,0,0,0,30.7693346389,34.6531480681,-9999.000000,0.000000,0.424000,66.976440,0.000000,0.000000,0.000000,0.000000,0.000000,0.000000,1.193444,12.000000,40.000000,0.000000,0.000000,0.000000,0.000000,0.000000,0.000000,0.000000,246.991180,0.000000,0.000000,0.000000,0.000000,0.000000
0.000000,0.000000,0.000000,0.000000,0.000000,0.000000,0.000000,0.000000,0,0,0,0,0,0,30.7693346389,34.6531480681,-9999.000000,0.000000,0.424000,66.976440,0.000000,0.000000,0.000000,0.000000,0.000000,0.000000,1.193444,12.000000,40.000000,0.000000,0.000000,0.000000,0.000000,0.000000,0.000000,0.000000,246.991180,0.000000,0.000000,0.000000,0.000000,0.000000
0.000000,0.000000,0.000000,0.000000,0.000000,0.000000,0.000000,0.000000,0,0,0,0,0,0,30.7693346389,34.6531480681,-9999.000000,0.000000,0.424000,66.976440,0.000000,0.000000,0.000000,0.000000,0.000000,0.000000,1.193444,12.000000,40.000000,0.000000,0.000000,0.000000,0.000000,0.000000,0.000000,0.000000,246.991180,0.000000,0.000000,0.000000,0.000000,0.000000
0.000000,0.000000,0.000000,0.000000,0.000000,0.000000,0.000000,0.000000,0,0,0,0,0,0,30.7693346389,34.6531480681,-9999.000000,0.000000,0.424000,66.976440,0.000000,0.000000,0.000000,0.000000,0.000000,0.000000,1.193444,12.000000,40.000000,0.000000,0.000000,0.000000,0.000000,0.000000,0.000000,0.000000,246.991180,0.000000,0.000000,0.000000,0.000000,0.000000
0.000000,0.000000,0.000000,0.000000,0.000000,0.000000,0.000000,0.000000,0,0,0,0,0,0,30.7693346389,34.6531480681,-9999.000000,0.000000,0.424000,66.976440,0.000000,0.000000,0.000000,0.000000,0.000000,0.000000,1.193444,12.000000,40.000000,0.000000,0.000000,0.000000,0.000000,0.000000,0.000000,0.000000,246.991180,0.000000,0.000000,0.000000,0.000000,0.000000
0.000000,0.000000,0.000000,0.000000,0.000000,0.000000,0.000000,0.000000,0,0,0,0,0,0,30.7693346389,34.6531480681,-9999.000000,0.000000,0.424000,66.976440,0.000000,0.000000,0.000000,0.000000,0.000000,0.000000,1.193444,12.000000,40.000000,0.000000,0.000000,0.000000,0.000000,0.000000,0.000000,0.000000,246.991180,0.000000,0.000000,0.000000,0.000000,0.000000
0.000000,0.000000,0.000000,0.000000,0.000000,0.000000,0.000000,0.000000,0,0,0,0,0,0,30.7693346389,34.6531480681,-9999.000000,0.000000,0.424000,66.976440,0.000000,0.000000,0.000000,0.000000,0.000000,0.000000,1.193444,12.000000,40.000000,0.000000,0.000000,0.000000,0.000000,0.000000,0.000000,0.000000,246.991180,0.000000,0.000000,0.000000,0.000000,0.000000
0.000000,0.000000,0.000000,0.000000,0.000000,0.000000,0.000000,0.000000,0,0,0,0,0,0,30.7693346389,34.6531480681,-9999.000000,0.000000,0.424000,66.976440,0.000000,0.000000,0.000000,0.000000,0.000000,0.000000,1.193444,12.000000,40.000000,0.000000,0.000000,0.000000,0.000000,0.000000,0.000000,0.000000,246.991180,0.000000,0.000000,0.000000,0.000000,0.000000
0.000000,0.000000,0.000000,0.000000,0.000000,0.000000,0.000000,0.000000,0,0,0,0,0,0,30.7693346389,34.6531480681,-9999.000000,0.000000,0.424000,66.976440,0.000000,0.000000,0.000000,0.000000,0.000000,0.000000,1.193444,12.000000,40.000000,0.000000,0.000000,0.000000,0.000000,0.000000,0.000000,0.000000,246.991180,0.000000,0.000000,0.000000,0.000000,0.000000
0.000000,0.000000,0.000000,0.000000,0.000000,0.000000,0.000000,0.000000,0,0,0,0,0,0,30.7693346389,34.6531480681,-9999.000000,0.000000,0.424000,66.976440,0.000000,0.000000,0.000000,0.000000,0.000000,0.000000,1.193444,12.000000,40.000000,0.000000,0.000000,0.000000,0.000000,0.000000,0.000000,0.000000,246.991180,0.000000,0.000000,0.000000,0.000000,0.000000
0.000000,0.000000,0.000000,0.000000,0.000000,0.000000,0.000000,0.000000,0,0,0,0,0,0,30.7693346389,34.6531480681,-9999.000000,0.000000,0.424000,66.976440,0.000000,0.000000,0.000000,0.000000,0.000000,0.000000,1.193444,12.000000,40.000000,0.000000,0.000000,0.000000,0.000000,0.000000,0.000000,0.000000,246.991180,0.000000,0.000000,0.000000,0.000000,0.000000
0.000000,0.000000,0.000000,0.000000,0.000000,0.000000,0.000000,0.000000,0,0,0,0,0,0,30.7693346389,34.6531480681,-9999.000000,0.000000,0.424000,66.976440,0.000000,0.000000,0.000000,0.000000,0.000000,0.000000,1.193444,12.000000,40.000000,0.000000,0.000000,0.000000,0.000000,0.000000,0.000000,0.000000,246.991180,0.000000,0.000000,0.000000,0.000000,0.000000
0.000000,0.000000,0.000000,0.000000,0.000000,0.000000,0.000000,0.000000,0,0,0,0,0,0,30.7693346389,34.6531480681,-9999.000000,0.000000,0.424000,66.976440,0.000000,0.000000,0.000000,0.000000,0.000000,0.000000,1.193444,12.000000,40.000000,0.000000,0.000000,0.000000,0.000000,0.000000,0.000000,0.000000,246.991180,0.000000,0.000000,0.000000,0.000000,0.000000
0.000000,0.000000,0.000000,0.000000,0.000000,0.000000,0.000000,0.000000,0,0,0,0,0,0,30.7693346389,34.6531480681,-9999.000000,0.000000,0.424000,66.976440,0.000000,0.000000,0.000000,0.000000,0.000000,0.000000,1.193444,12.000000,40.000000,0.000000,0.000000,0.000000,0.000000,0.000000,0.000000,0.000000,246.991180,0.000000,0.000000,0.000000,0.000000,0.000000
0.000000,0.000000,0.000000,0.000000,0.000000,0.000000,0.000000,0.000000,0,0,0,0,0,0,30.7693346389,34.6531480681,-9999.000000,0.000000,0.424000,66.976440,0.000000,0.000000,0.000000,0.000000,0.000000,0.000000,1.193444,12.000000,40.000000,0.000000,0.000000,0.000000,0.000000,0.000000,0.000000,0.000000,246.991180,0.000000,0.000000,0.000000,0.000000,0.000000
0.000000,0.000000,0.000000,0.000000,0.000000,0.000000,0.000000,0.000000,0,0,0,0,0,0,30.7693346389,34.6531480681,-9999.000000,0.000000,0.424000,66.976440,0.000000,0.000000,0.000000,0.000000,0.000000,0.000000,1.193444,12.000000,40.000000,0.000000,0.000000,0.000000,0.000000,0.000000,0.000000,0.000000,246.991180,0.000000,0.000000,0.000000,0.000000,0.000000
0.000000,0.000000,0.000000,0.000000,0.000000,0.000000,0.000000,0.000000,0,0,0,0,0,0,30.7693346389,34.6531480681,-9999.000000,0.000000,0.424000,66.976440,0.000000,0.000000,0.000000,0.000000,0.000000,0.000000,1.193444,12.000000,40.000000,0.000000,0.000000,0.000000,0.000000,0.000000,0.000000,0.000000,246.991180,0.000000,0.000000,0.000000,0.000000,0.000000
0.000000,0.000000,0.000000,0.000000,0.000000,0.000000,0.000000,0.000000,0,0,0,0,0,0,30.7693346389,34.6531480681,-9999.000000,0.000000,0.424000,66.976440,0.000000,0.000000,0.000000,0.000000,0.000000,0.000000,1.193444,12.000000,40.000000,0.000000,0.000000,0.000000,0.000000,0.000000,0.000000,0.000000,246.991180,0.000000,0.000000,0.000000,0.000000,0.000000
0.000000,0.000000,0.000000,0.000000,0.000000,0.000000,0.000000,0.000000,0,0,0,0,0,0,30.7693346389,34.6531480681,-9999.000000,0.000000,0.424000,66.976440,0.000000,0.000000,0.000000,0.000000,0.000000,0.000000,1.193444,12.000000,40.000000,0.000000,0.000000,0.000000,0.000000,0.000000,0.000000,0.000000,246.991180,0.000000,0.000000,0.000000,0.000000,0.000000
0.000000,0.000000,0.000000,0.000000,0.000000,0.000000,0.000000,0.000000,0,0,0,0,0,0,30.7693346389,34.6531480681,-9999.000000,0.000000,0.424000,66.976440,0.000000,0.000000,0.000000,0.000000,0.000000,0.000000,1.193444,12.000000,40.000000,0.000000,0.000000,0.000000,0.000000,0.000000,0.000000,0.000000,246.991180,0.000000,0.000000,0.000000,0.000000,0.000000
0.000000,0.000000,0.000000,0.000000,0.000000,0.000000,0.000000,0.000000,0,0,0,0,0,0,30.7693346389,34.6531480681,-9999.000000,0.000000,0.424000,66.976440,0.000000,0.000000,0.000000,0.000000,0.000000,0.000000,1.193444,12.000000,40.000000,0.000000,0.000000,0.000000,0.000000,0.000000,0.000000,0.000000,246.991180,0.000000,0.000000,0.000000,0.000000,0.000000
0.000000,0.000000,0.000000,0.000000,0.000000,0.000000,0.000000,0.000000,0,0,0,0,0,0,30.7693346389,34.6531480681,-9999.000000,0.000000,0.424000,66.976440,0.000000,0.000000,0.000000,0.000000,0.000000,0.000000,1.193444,12.000000,40.000000,0.000000,0.000000,0.000000,0.000000,0.000000,0.000000,0.000000,246.991180,0.000000,0.000000,0.000000,0.000000,0.000000
0.000000,0.000000,0.000000,0.000000,0.000000,0.000000,0.000000,0.000000,0,0,0,0,0,0,30.7693346389,34.6531480681,-9999.000000,0.000000,0.424000,66.976440,0.000000,0.000000,0.000000,0.000000,0.000000,0.000000,1.193444,12.000000,40.000000,0.000000,0.000000,0.000000,0.000000,0.000000,0.000000,0.000000,246.991180,0.000000,0.000000,0.000000,0.000000,0.000000
0.000000,0.000000,0.000000,0.000000,0.000000,0.000000,0.000000,0.000000,0,0,0,0,0,0,30.7693346389,34.6531480681,-9999.000000,0.000000,0.424000,66.976440,0.000000,0.000000,0.000000,0.000000,0.000000,0.000000,1.193444,12.000000,40.000000,0.000000,0.000000,0.000000,0.000000,0.000000,0.000000,0.000000,246.991180,0.000000,0.000000,0.000000,0.000000,0.000000
0.000000,0.000000,0.000000,0.000000,0.000000,0.000000,0.000000,0.000000,0,0,0,0,0,0,30.7693346389,34.6531480681,-9999.000000,0.000000,0.424000,66.976440,0.000000,0.000000,0.000000,0.000000,0.000000,0.000000,1.193444,12.000000,40.000000,0.000000,0.000000,0.000000,0.000000,0.000000,0.000000,0.000000,246.991180,0.000000,0.000000,0.000000,0.000000,0.000000
0.000000,0.000000,0.000000,0.000000,0.000000,0.000000,0.000000,0.000000,0,0,0,0,0,0,30.7693346389,34.6531480681,-9999.000000,0.000000,0.424000,66.976440,0.000000,0.000000,0.000000,0.000000,0.000000,0.000000,1.193444,12.000000,40.000000,0.000000,0.000000,0.000000,0.000000,0.000000,0.000000,0.000000,246.991180,0.000000,0.000000,0.000000,0.000000,0.000000
0.000000,0.000000,0.000000,0.000000,0.000000,0.000000,0.000000,0.000000,0,0,0,0,0,0,30.7693346389,34.6531480681,-9999.000000,0.000000,0.424000,66.976440,0.000000,0.000000,0.000000,0.000000,0.000000,0.000000,1.193444,12.000000,40.000000,0.000000,0.000000,0.000000,0.000000,0.000000,0.000000,0.000000,246.991180,0.000000,0.000000,0.000000,0.000000,0.000000
0.000000,0.000000,0.000000,0.000000,0.000000,0.000000,0.000000,0.000000,0,0,0,0,0,0,30.7693346389,34.6531480681,-9999.000000,0.000000,0.424000,66.976440,0.000000,0.000000,0.000000,0.000000,0.000000,0.000000,1.193444,12.000000,40.000000,0.000000,0.000000,0.000000,0.000000,0.000000,0.000000,0.000000,246.991180,0.000000,0.000000,0.000000,0.000000,0.000000
0.000000,0.000000,0.000000,0.000000,0.000000,0.000000,0.000000,0.000000,0,0,0,0,0,0,30.7693346389,34.6531480681,-9999.000000,0.000000,0.424000,66.976440,0.000000,0.000000,0.000000,0.000000,0.000000,0.000000,1.193444,12.000000,40.000000,0.000000,0.000000,0.000000,0.000000,0.000000,0.000000,0.000000,246.991180,0.000000,0.000000,0.000000,0.000000,0.000000
0.000000,0.000000,0.000000,0.000000,0.000000,0.000000,0.000000,0.000000,0,0,0,0,0,0,30.7693346389,34.6531480681,-9999.000000,0.000000,0.424000,66.976440,0.000000,0.000000,0.000000,0.000000,0.000000,0.000000,1.193444,12.000000,40.000000,0.000000,0.000000,0.000000,0.000000,0.000000,0.000000,0.000000,246.991180,0.000000,0.000000,0.000000,0.000000,0.000000
0.000000,0.000000,0.000000,0.000000,0.000000,0.000000,0.000000,0.000000,0,0,0,0,0,0,30.7693346389,34.6531480681,-9999.000000,0.000000,0.424000,66.976440,0.000000,0.000000,0.000000,0.000000,0.000000,0.000000,1.193444,12.000000,40.000000,0.000000,0.000000,0.000000,0.000000,0.000000,0.000000,0.000000,246.991180,0.000000,0.000000,0.000000,0.000000,0.000000
0.000000,0.000000,0.000000,0.000000,0.000000,0.000000,0.000000,0.000000,0,0,0,0,0,0,30.7693346389,34.6531480681,-9999.000000,0.000000,0.424000,66.976440,0.000000,0.000000,0.000000,0.000000,0.000000,0.000000,1.193444,12.000000,40.000000,0.000000,0.000000,0.000000,0.000000,0.000000,0.000000,0.000000,246.991180,0.000000,0.000000,0.000000,0.000000,0.000000
0.000000,0.000000,0.000000,0.000000,0.000000,0.000000,0.000000,0.000000,0,0,0,0,0,0,30.7693346389,34.6531480681,-9999.000000,0.000000,0.424000,66.976440,0.000000,0.000000,0.000000,0.000000,0.000000,0.000000,1.193444,12.000000,40.000000,0.000000,0.000000,0.000000,0.000000,0.000000,0.000000,0.000000,246.991180,0.000000,0.000000,0.000000,0.000000,0.000000
0.000000,0.000000,0.000000,0.000000,0.000000,0.000000,0.000000,0.000000,0,0,0,0,0,0,30.7693346389,34.6531480681,-9999.000000,0.000000,0.424000,66.976440,0.000000,0.000000,0.000000,0.000000,0.000000,0.000000,1.193444,12.000000,40.000000,0.000000,0.000000,0.000000,0.000000,0.000000,0.000000,0.000000,246.991180,0.000000,0.000000,0.000000,0.000000,0.000000
0.000000,0.000000,0.000000,0.000000,0.000000,0.000000,0.000000,0.000000,0,0,0,0,0,0,30.7693346389,34.6531480681,-9999.000000,0.000000,0.424000,66.976440,0.000000,0.000000,0.000000,0.000000,0.000000,0.000000,1.193444,12.000000,40.000000,0.000000,0.000000,0.000000,0.000000,0.000000,0.000000,0.000000,246.991180,0.000000,0.000000,0.000000,0.000000,0.000000
0.000000,0.000000,0.000000,0.000000,0.000000,0.000000,0.000000,0.000000,0,0,0,0,0,0,30.7693346389,34.6531480681,-9999.000000,0.000000,0.424000,66.976440,0.000000,0.000000,0.000000,0.000000,0.000000,0.000000,1.193444,12.000000,40.000000,0.000000,0.000000,0.000000,0.000000,0.000000,0.000000,0.000000,246.991180,0.000000,0.000000,0.000000,0.000000,0.000000
0.000000,0.000000,0.000000,0.000000,0.000000,0.000000,0.000000,0.000000,0,0,0,0,0,0,30.7693346389,34.6531480681,-9999.000000,0.000000,0.424000,66.976440,0.000000,0.000000,0.000000,0.000000,0.000000,0.000000,1.193444,12.000000,40.000000,0.000000,0.000000,0.000000,0.000000,0.000000,0.000000,0.000000,246.991180,0.000000,0.000000,0.000000,0.000000,0.000000
0.000000,0.000000,0.000000,0.000000,0.000000,0.000000,0.000000,0.000000,0,0,0,0,0,0,30.7693339889,34.6531472769,2131.875244,-0.516079,4.010076,66.955338,0.000000,0.000000,0.000000,0.000000,0.000000,0.000000,1.193444,12.000000,40.000000,0.000000,0.000000,0.000000,0.000000,0.000000,0.000000,0.000000,246.991180,0.000000,0.000000,0.000000,0.000000,0.000000
0.000000,0.000000,0.000000,0.000000,0.000000,0.000000,0.000000,0.000000,0,0,0,0,0,0,30.7693339917,34.6531472747,2131.875244,-0.531713,4.013072,66.954079,-23.089945,2.925263,0.027738,0.000005,0.000000,2140.187744,2141.381104,12.000000,40.000000,0.000000,0.000000,2140.000244,2140.000000,2131.875244,0.000000,0.000469,246.991150,5.589540,0.041904,-0.985256,15490.832031,0.000000
0.000000,0.000000,0.000000,0.000000,0.000000,0.000000,0.000000,0.000000,0,0,0,0,0,0,30.7693339923,34.6531472746,2131.875244,-0.534160,4.012414,66.953896,-16.899731,2.654301,-0.060370,-0.000002,0.000013,2111.409668,2112.603271,12.000000,40.000000,0.000000,0.000000,2110.000244,2110.000000,2131.875244,0.000000,-0.000033,246.991150,19.900215,0.057317,-1.582221,14352.375977,0.000000
0.000000,0.000000,0.000000,0.000000,0.000000,0.000000,0.000000,0.000000,0,0,0,0,0,0,30.7693339927,34.6531472746,2131.875244,-0.535884,4.011856,66.953766,-9.411375,2.420985,-0.059914,-0.000001,0.004213,2082.562012,2083.755615,12.000000,40.000000,0.000000,0.000000,2080.000244,2080.000000,2131.875244,0.000000,-0.000033,246.991150,38.797546,0.063074,-1.943920,13203.598633,0.000000
0.000000,0.000000,0.000000,0.000000,0.000000,0.000000,0.000000,0.000000,0,0,0,0,0,0,30.7693339928,34.6531472745,2131.875244,-0.536367,4.011771,66.953728,-5.875684,2.337626,-0.133515,-0.000006,1.971888,2070.695313,2071.888672,12.000000,40.000000,0.000000,0.000000,2070.000244,2070.000000,2131.875244,0.000000,-0.000268,246.991150,47.008617,0.064189,-2.048695,12721.119141,0.000000
0.000000,0.000000,0.000000,0.000000,0.000000,0.000000,0.000000,0.000000,0,0,0,0,0,0,30.7693339928,34.6531472745,2131.875244,-0.536469,4.011753,66.953720,-4.691963,2.312918,-0.117496,-0.000007,5.899610,2068.405518,2069.599121,12.000000,40.000000,0.000000,0.000000,2070.000244,2070.000000,2131.875244,0.000000,-0.000201,246.991150,49.602276,0.064470,-2.077860,12573.363281,0.000000
0.000000,0.000000,0.000000,0.000000,0.000000,0.000000,0.000000,0.000000,0,0,0,0,0,0,30.7693339928,34.6531472745,2131.875244,-0.536562,4.011740,66.953712,-3.711692,2.293584,-0.125399,-0.000009,6.956034,2065.837891,2067.031250,12.000000,40.000000,0.000000,0.000000,2070.000244,2070.000000,2131.875244,0.000000,-0.000167,246.991150,51.687004,0.064660,-2.100163,12449.758789,0.000000
0.000000,0.000000,0.000000,0.000000,0.000000,0.000000,0.000000,0.000000,0,0,0,0,0,0,30.7693339928,34.6531472745,2131.875244,-0.536663,4.011729,66.953705,-2.792233,2.276341,-0.137635,-0.000010,7.259733,2063.120850,2064.314453,12.000000,40.000000,0.000000,0.000000,2070.000244,2070.000000,2131.875244,0.000000,-0.000469,246.991150,53.589249,0.064835,-2.119703,12333.839844,0.000000
0.000000,0.000000,0.000000,0.000000,0.000000,0.000000,0.000000,0.000000,0,0,0,0,0,0,30.7693339928,34.6531472745,2131.875244,-0.536770,4.011720,66.953697,-1.858892,2.259693,-0.104588,-0.000008,7.363242,2060.294922,2061.488281,12.000000,40.000000,0.000000,0.000000,2060.000244,2060.000000,2131.875244,0.000000,-0.000201,246.991150,55.466816,0.064997,-2.138288,12217.244141,0.000000
0.000000,0.000000,0.000000,0.000000,0.000000,0.000000,0.000000,0.000000,0,0,0,0,0,0,30.7693339929,34.6531472745,2131.875244,-0.536856,4.011713,66.953690,-1.149965,2.247605,-0.114732,-0.000010,7.439762,2057.992432,2059.185791,12.000000,40.000000,0.000000,0.000000,2060.000244,2060.000000,2131.875244,0.000000,-0.000536,246.991150,56.856853,0.065145,-2.151628,12128.788086,0.000000
0.000000,0.000000,0.000000,0.000000,0.000000,0.000000,0.000000,0.000000,0,0,0,0,0,0,30.7693339929,34.6531472745,2131.875244,-0.536957,4.011708,66.953682,-0.353314,2.234582,-0.117893,-0.000010,7.154533,2055.477783,2056.671143,12.000000,40.000000,0.000000,0.000000,2060.000244,2060.000000,2131.875244,0.000000,-0.000368,246.991150,58.381321,0.065237,-2.165874,12030.622070,0.000000
0.000000,0.000000,0.000000,0.000000,0.000000,0.000000,0.000000,0.000000,0,0,0,0,0,0,30.7693339929,34.6531472745,2131.875244,-0.537120,4.011701,66.953667,0.940477,2.214653,-0.135924,-0.000011,7.187226,2051.653076,2052.846436,12.000000,40.000000,0.000000,0.000000,2060.000244,2060.000000,2131.875244,0.000000,-0.000469,246.991150,60.772415,0.065402,-2.187467,11874.338867,0.000000
0.000000,0.000000,0.000000,0.000000,0.000000,0.000000,0.000000,0.000000,0,0,0,0,0,0,30.7693339929,34.6531472745,2131.875244,-0.537222,4.011690,66.953659,1.760699,2.202776,-0.107554,-0.000010,7.232459,2049.146240,2050.339600,12.000000,40.000000,0.000000,0.000000,2050.000244,2050.000000,2131.875244,0.000000,-0.000402,246.991150,62.234200,0.065514,-2.200248,11775.921875,0.000000
0.000000,0.000000,0.000000,0.000000,0.000000,0.000000,0.000000,0.000000,0,0,0,0,0,0,30.7693339930,34.6531472745,2131.875244,-0.537352,4.011664,66.953651,2.840157,2.188020,-0.106572,-0.000009,7.171640,2046.242188,2047.435547,12.000000,40.000000,0.000000,0.000000,2050.000244,2050.000000,2131.875244,0.000000,-0.000268,246.991150,64.093872,0.065621,-2.216084,11649.653320,0.000000
0.000000,0.000000,0.000000,0.000000,0.000000,0.000000,0.000000,0.000000,0,0,0,0,0,0,30.7693339930,34.6531472745,2131.875244,-0.537481,4.011630,66.953644,3.933892,2.174052,-0.120970,-0.000011,7.393818,2043.128052,2044.321533,12.000000,40.000000,0.000000,0.000000,2050.000244,2050.000000,2131.875244,0.000000,-0.000335,246.991150,65.904510,0.065718,-2.231084,11522.104492,0.000000
0.000000,0.000000,0.000000,0.000000,0.000000,0.000000,0.000000,0.000000,0,0,0,0,0,0,30.7693339930,34.6531472745,2131.875244,-0.537609,4.011590,66.953636,5.041394,2.160887,-0.107408,-0.000009,7.354907,2040.093140,2041.286621,12.000000,40.000000,0.000000,0.000000,2040.000122,2040.000000,2131.875244,0.000000,-0.000435,246.991150,67.662971,0.065808,-2.245292,11394.784180,0.000000
0.000000,0.000000,0.000000,0.000000,0.000000,0.000000,0.000000,0.000000,0,0,0,0,0,0,30.7693339930,34.6531472745,2131.875244,-0.537726,4.011553,66.953621,6.075450,2.149460,-0.111003,-0.000010,7.396543,2037.231201,2038.424683,12.000000,40.000000,0.000000,0.000000,2040.000122,2040.000000,2131.875244,0.000000,-0.000234,246.991150,69.237282,0.065894,-2.257740,11276.761719,0.000000
0.000000,0.000000,0.000000,0.000000,0.000000,0.000000,0.000000,0.000000,0,0,0,0,0,0,30.7693339931,34.6531472745,2131.875244,-0.537844,4.011513,66.953613,7.120248,2.138739,-0.079272,-0.000007,7.410608,2034.353882,2035.547363,12.000000,40.000000,0.000000,0.000000,2040.000122,2040.000000,2131.875244,0.000000,-0.000134,246.991150,70.762405,0.065973,-2.269579,11158.486328,0.000000
0.000000,0.000000,0.000000,0.000000,0.000000,0.000000,0.000000,0.000000,0,0,0,0,0,0,30.7693339931,34.6531472744,2131.875244,-0.537962,4.011474,66.953606,8.175250,2.128739,-0.104042,-0.000009,7.415384,2031.471191,2032.664673,12.000000,40.000000,0.000000,0.000000,2040.000122,2040.000000,2131.875244,0.000000,-0.000234,246.991150,72.236305,0.066045,-2.280839,11040.004883,0.000000
0.000000,0.000000,0.000000,0.000000,0.000000,0.000000,0.000000,0.000000,0,0,0,0,0,0,30.7693339931,34.6531472744,2131.875244,-0.538082,4.011439,66.953598,9.239878,2.119467,-0.094532,-0.000008,7.416875,2028.586548,2029.780029,12.000000,40.000000,0.000000,0.000000,2030.000122,2030.000000,2131.875244,0.000000,-0.000402,246.991150,73.657066,0.066113,-2.291550,10921.333008,0.000000
0.000000,0.000000,0.000000,0.000000,0.000000,0.000000,0.000000,0.000000,0,0,0,0,0,0,30.7693339931,34.6531472744,2131.875244,-0.538141,4.011424,66.953590,9.775624,2.115106,-0.092317,-0.000008,7.417114,2027.144043,2028.337402,12.000000,40.000000,0.000000,0.000000,2030.000122,2030.000000,2131.875244,0.000000,-0.000268,246.991150,74.346970,0.066156,-2.296707,10861.926758,0.000000
0.000000,0.000000,0.000000,0.000000,0.000000,0.000000,0.000000,0.000000,0,0,0,0,0,0,30.7693339932,34.6531472744,2131.875244,-0.538534,4.011346,66.953560,12.667796,2.095015,-0.080237,-0.000006,3.980057,2017.550293,2018.743774,12.000000,40.000000,0.000000,0.000000,2020.000122,2020.000000,2131.875244,0.000000,0.000033,246.991150,77.786491,0.066313,-2.322133,10533.719727,0.000000
0.000000,0.000000,0.000000,0.000000,0.000000,0.000000,0.000000,0.000000,0,0,0,0,0,0,30.7693339932,34.6531472744,2131.875244,-0.538708,4.011320,66.953552,14.408891,2.085649,-0.052849,-0.000004,6.152947,2013.938354,2015.131836,12.000000,40.000000,0.000000,0.000000,2020.000122,2020.000000,2131.875244,0.000000,-0.000134,246.991150,79.630096,0.066396,-2.335698,10350.033203,0.000000
0.000000,0.000000,0.000000,0.000000,0.000000,0.000000,0.000000,0.000000,0,0,0,0,0,0,30.7693339933,34.6531472744,2131.875244,-0.538846,4.011312,66.953537,15.793576,2.079624,-0.059525,-0.000005,6.660316,2010.615845,2011.809326,12.000000,40.000000,0.000000,0.000000,2010.000122,2010.000000,2131.875244,0.000000,0.000033,246.991150,80.977249,0.066440,-2.345673,10201.940430,0.000000
0.000000,0.000000,0.000000,0.000000,0.000000,0.000000,0.000000,0.000000,0,0,0,0,0,0,30.7693339933,34.6531472744,2131.875244,-0.538986,4.011313,66.953529,17.092545,2.075103,-0.064090,-0.000005,6.223325,2006.925293,2008.118652,12.000000,40.000000,0.000000,0.000000,2010.000122,2010.000000,2131.875244,0.000000,0.000067,246.991150,82.146591,0.066499,-2.354436,10059.914063,0.000000
0.000000,0.000000,0.000000,0.000000,0.000000,0.000000,0.000000,0.000000,0,0,0,0,0,0,30.7693339933,34.6531472744,2131.875244,-0.539204,4.011326,66.953506,19.143606,2.070164,-0.073721,-0.000006,6.408550,2001.762939,2002.956421,12.000000,40.000000,0.000000,0.000000,2010.000122,2010.000000,2131.875244,0.000000,-0.000268,246.991150,83.809647,0.066563,-2.367211,9839.965820,0.000000
0.000000,0.000000,0.000000,0.000000,0.000000,0.000000,0.000000,0.000000,0,0,0,0,0,0,30.7693339934,34.6531472743,2131.875244,-0.539311,4.011338,66.953499,20.172186,2.068691,-0.072613,-0.000006,6.413066,1999.099121,2000.292603,12.000000,40.000000,0.000000,0.000000,2000.000122,2000.000000,2131.875244,0.000000,-0.000100,246.991150,84.560303,0.066603,-2.373172,9729.194336,0.000000
0.000000,0.000000,0.000000,0.000000,0.000000,0.000000,0.000000,0.000000,0,0,0,0,0,0,30.7693339934,34.6531472743,2131.875244,-0.539474,4.011357,66.953491,21.764065,2.067728,-0.085483,-0.000006,5.724138,1994.659790,1995.853271,12.000000,40.000000,0.000000,0.000000,2000.000122,2000.000000,2131.875244,0.000000,-0.000134,246.991150,85.613525,0.066649,-2.381862,9555.599609,0.000000
0.000000,0.000000,0.000000,0.000000,0.000000,0.000000,0.000000,0.000000,0,0,0,0,0,0,30.7693339934,34.6531472743,2131.875244,-0.539609,4.011367,66.953476,23.262632,2.068280,-0.040035,-0.000003,5.658762,1990.783691,1991.977173,12.000000,40.000000,0.000000,0.000000,1990.000122,1990.000000,2131.875244,0.000000,-0.000167,246.991150,86.485847,0.066700,-2.389497,9393.667969,0.000000
0.000000,0.000000,0.000000,0.000000,0.000000,0.000000,0.000000,0.000000,0,0,0,0,0,0,30.7693339934,34.6531472743,2131.875244,-0.539686,4.011371,66.953468,24.198463,2.069343,-0.063398,-0.000004,6.159218,1988.641235,1989.834595,12.000000,40.000000,0.000000,0.000000,1990.000122,1990.000000,2131.875244,0.000000,-0.000201,246.991150,86.972443,0.066734,-2.394016,9294.044922,0.000000
0.000000,0.000000,0.000000,0.000000,0.000000,0.000000,0.000000,0.000000,0,0,0,0,0,0,30.7693339935,34.6531472743,2131.875244,-0.539868,4.011381,66.953461,26.252371,2.073623,-0.020629,-0.000001,5.017129,1982.813232,1984.006592,12.000000,40.000000,0.000000,0.000000,1990.000122,1990.000000,2131.875244,0.000000,-0.000067,246.991150,87.884735,0.066783,-2.403318,9067.001953,0.000000
0.000000,0.000000,0.000000,0.000000,0.000000,0.000000,0.000000,0.000000,0,0,0,0,0,0,30.7693339935,34.6531472743,2131.875244,-0.539948,4.011385,66.953453,27.275534,2.076758,-0.022495,-0.000001,5.877952,1980.562500,1981.755859,12.000000,40.000000,0.000000,0.000000,1980.000122,1980.000000,2131.875244,0.000000,0.000000,246.991150,88.259750,0.066813,-2.407658,8957.546875,0.000000
0.000000,0.000000,0.000000,0.000000,0.000000,0.000000,0.000000,0.000000,0,0,0,0,0,0,30.7693339935,34.6531472743,2131.875244,-0.540138,4.011401,66.953438,29.403240,2.085445,-0.044806,-0.000003,4.832906,1974.564697,1975.758179,12.000000,40.000000,0.000000,0.000000,1980.000122,1980.000000,2131.875244,0.000000,0.000033,246.991150,88.871071,0.066860,-2.416113,8719.242188,0.000000
0.000000,0.000000,0.000000,0.000000,0.000000,0.000000,0.000000,0.000000,0,0,0,0,0,0,30.7693339935,34.6531472742,2131.875244,-0.540299,4.011419,66.953423,31.237019,2.095316,-0.005549,-0.000000,5.011032,1969.825317,1971.018677,12.000000,40.000000,0.000000,0.000000,1970.000122,1970.000000,2131.875244,0.000000,0.000067,246.991150,89.215508,0.066900,-2.422834,8514.401367,0.000000
0.000000,0.000000,0.000000,0.000000,0.000000,0.000000,0.000000,0.000000,0,0,0,0,0,0,30.7693339936,34.6531472742,2131.875244,-0.540379,4.011428,66.953415,32.237804,2.101655,-0.036196,-0.000002,6.061102,1967.852783,1969.046143,12.000000,40.000000,0.000000,0.000000,1970.000122,1970.000000,2131.875244,0.000000,0.000067,246.991150,89.332169,0.066925,-2.426298,8405.914063,0.000000
0.000000,0.000000,0.000000,0.000000,0.000000,0.000000,0.000000,0.000000,0,0,0,0,0,0,30.7693339936,34.6531472742,2131.875244,-0.540450,4.011438,66.953407,33.142109,2.107971,-0.021100,-0.000001,6.708994,1965.753784,1966.947266,12.000000,40.000000,0.000000,0.000000,1970.000122,1970.000000,2131.875244,0.000000,-0.000033,246.991150,89.394180,0.066938,-2.429312,8304.888672,0.000000
0.000000,0.000000,0.000000,0.000000,0.000000,0.000000,0.000000,0.000000,0,0,0,0,0,0,30.7693339936,34.6531472742,2131.875244,-0.540575,4.011459,66.953400,34.487885,2.118420,-0.015496,-0.000001,6.143880,1961.674561,1962.867920,12.000000,40.000000,0.000000,0.000000,1970.000122,1970.000000,2131.875244,0.000000,0.000000,246.991150,89.409935,0.066961,-2.433603,8146.120117,0.000000
0.000000,0.000000,0.000000,0.000000,0.000000,0.000000,0.000000,0.000000,0,0,0,0,0,0,30.7693339936,34.6531472742,2131.875244,-0.540701,4.011480,66.953392,35.731487,2.129218,0.021569,0.000002,5.987538,1958.234253,1959.427734,12.000000,40.000000,0.000000,0.000000,1960.000122,1960.000000,2131.875244,0.000000,0.000134,246.991150,89.342751,0.066981,-2.437373,8000.153320,0.000000
0.000000,0.000000,0.000000,0.000000,0.000000,0.000000,0.000000,0.000000,0,0,0,0,0,0,30.7693339937,34.6531472742,2131.875244,-0.540913,4.011528,66.953377,37.832607,2.150034,0.004053,0.000000,6.594867,1953.043579,1954.237061,12.000000,40.000000,0.000000,0.000000,1960.000122,1960.000000,2131.875244,0.000000,0.000033,246.991150,89.049614,0.067030,-2.443345,7754.262695,0.000000
0.000000,0.000000,0.000000,0.000000,0.000000,0.000000,0.000000,0.000000,0,0,0,0,0,0,30.7693339937,34.6531472741,2131.875244,-0.541016,4.011552,66.953362,38.867302,2.161508,0.011377,0.000001,7.034391,1950.437256,1951.630737,12.000000,40.000000,0.000000,0.000000,1950.000122,1950.000000,2131.875244,0.000000,0.000100,246.991150,88.821648,0.067051,-2.446114,7630.699707,0.000000
0.000000,0.000000,0.000000,0.000000,0.000000,0.000000,0.000000,0.000000,0,0,0,0,0,0,30.7693339937,34.6531472741,2131.875244,-0.541125,4.011575,66.953354,39.890781,2.173681,0.016192,0.000001,7.207367,1947.656982,1948.850342,12.000000,40.000000,0.000000,0.000000,1950.000122,1950.000000,2131.875244,0.000000,0.000167,246.991150,88.541412,0.067071,-2.448747,7505.388672,0.000000
0.000000,0.000000,0.000000,0.000000,0.000000,0.000000,0.000000,0.000000,0,0,0,0,0,0,30.7693339937,34.6531472741,2131.875244,-0.541211,4.011593,66.953346,40.650719,2.183263,0.030385,0.000003,7.288197,1945.537231,1946.730713,12.000000,40.000000,0.000000,0.000000,1950.000122,1950.000000,2131.875244,0.000000,0.000201,246.991150,88.297890,0.067090,-2.450637,7410.870117,0.000000
0.000000,0.000000,0.000000,0.000000,0.000000,0.000000,0.000000,0.000000,0,0,0,0,0,0,30.7693339937,34.6531472741,2131.875244,-0.541361,4.011631,66.953339,41.902252,2.200078,0.045872,0.000004,7.218199,1941.909790,1943.103271,12.000000,40.000000,0.000000,0.000000,1950.000122,1950.000000,2131.875244,0.000000,0.000368,246.991150,87.830582,0.067110,-2.453634,7252.053223,0.000000
0.000000,0.000000,0.000000,0.000000,0.000000,0.000000,0.000000,0.000000,0,0,0,0,0,0,30.7693339938,34.6531472741,2131.875244,-0.541483,4.011662,66.953331,42.889450,2.214274,0.023795,0.000002,7.393456,1939.061157,1940.254639,12.000000,40.000000,0.000000,0.000000,1940.000122,1940.000000,2131.875244,0.000000,0.000335,246.991150,87.403366,0.067129,-2.455900,7124.948730,0.000000
0.000000,0.000000,0.000000,0.000000,0.000000,0.000000,0.000000,0.000000,0,0,0,0,0,0,30.7693339938,34.6531472740,2131.875244,-0.541601,4.011694,66.953316,43.783146,2.227858,0.002141,0.000000,7.344327,1936.439453,1937.632935,12.000000,40.000000,0.000000,0.000000,1940.000122,1940.000000,2131.875244,0.000000,0.000067,246.991150,86.971725,0.067149,-2.457880,7007.956543,0.000000
0.000000,0.000000,0.000000,0.000000,0.000000,0.000000,0.000000,0.000000,0,0,0,0,0,0,30.7693339938,34.6531472740,2131.875244,-0.541733,4.011729,66.953308,44.745518,2.243288,0.010865,0.000001,7.370628,1933.570557,1934.763916,12.000000,40.000000,0.000000,0.000000,1940.000122,1940.000000,2131.875244,0.000000,0.000033,246.991150,86.458900,0.067168,-2.459938,6879.806152,0.000000
0.000000,0.000000,0.000000,0.000000,0.000000,0.000000,0.000000,0.000000,0,0,0,0,0,0,30.7693339938,34.6531472740,2131.875244,-0.541870,4.011765,66.953293,45.694485,2.259344,0.025059,0.000003,7.368237,1930.682983,1931.876465,12.000000,40.000000,0.000000,0.000000,1930.000122,1930.000000,2131.875244,0.000000,0.000167,246.991150,85.904144,0.067185,-2.461896,6751.005859,0.000000
0.000000,0.000000,0.000000,0.000000,0.000000,0.000000,0.000000,0.000000,0,0,0,0,0,0,30.7693339938,34.6531472740,2131.875244,-0.541893,4.011771,66.953293,45.851326,2.262080,0.026188,0.000003,7.370685,1930.203491,1931.396973,12.000000,40.000000,0.000000,0.000000,1930.000122,1930.000000,2131.875244,0.000000,0.000167,246.991150,85.807739,0.067192,-2.462213,6729.505859,0.000000
0.000000,0.000000,0.000000,0.000000,0.000000,0.000000,0.000000,0.000000,0,0,0,0,0,0,30.7693339940,34.6531472739,2131.875244,-0.542664,4.012006,66.953232,49.352829,2.329562,0.025147,0.000002,2.368857,1916.862061,1918.055542,12.000000,40.000000,0.000000,0.000000,1920.000122,1920.000000,2131.875244,0.000000,0.000067,246.991150,83.304893,0.067299,-2.468816,6210.930664,0.000000
0.000000,0.000000,0.000000,0.000000,0.000000,0.000000,0.000000,0.000000,0,0,0,0,0,0,30.7693339940,34.6531472739,2131.875244,-0.542767,4.012040,66.953224,50.086567,2.345341,0.026148,0.000002,5.136302,1915.319702,1916.513184,12.000000,40.000000,0.000000,0.000000,1920.000122,1920.000000,2131.875244,0.000000,0.000268,246.991150,82.694733,0.067319,-2.470091,6109.825195,0.000000
0.000000,0.000000,0.000000,0.000000,0.000000,0.000000,0.000000,0.000000,0,0,0,0,0,0,30.7693339940,34.6531472738,2131.875244,-0.542903,4.012081,66.953209,51.025623,2.366419,0.026065,0.000003,6.562418,1913.044189,1914.237671,12.000000,40.000000,0.000000,0.000000,1920.000122,1920.000000,2131.875244,0.000000,0.000033,246.991150,81.870369,0.067343,-2.471671,5975.233887,0.000000
0.000000,0.000000,0.000000,0.000000,0.000000,0.000000,0.000000,0.000000,0,0,0,0,0,0,30.7693339940,34.6531472738,2131.875244,-0.543030,4.012117,66.953201,51.807026,2.384744,0.026594,0.000003,6.883103,1910.625000,1911.818481,12.000000,40.000000,0.000000,0.000000,1910.000122,1910.000000,2131.875244,0.000000,0.000167,246.991150,81.147141,0.067362,-2.472943,5855.851074,0.000000
0.000000,0.000000,0.000000,0.000000,0.000000,0.000000,0.000000,0.000000,0,0,0,0,0,0,30.7693339941,34.6531472738,2131.875244,-0.543208,4.012170,66.953186,52.784100,2.408698,0.050054,0.000006,7.113842,1907.298340,1908.491821,12.000000,40.000000,0.000000,0.000000,1910.000122,1910.000000,2131.875244,0.000000,0.000201,246.991150,80.195335,0.067380,-2.474479,5700.531250,0.000000
0.000000,0.000000,0.000000,0.000000,0.000000,0.000000,0.000000,0.000000,0,0,0,0,0,0,30.7693339941,34.6531472738,2131.875244,-0.543388,4.012227,66.953171,53.674007,2.431559,0.025632,0.000003,7.129896,1904.174927,1905.368408,12.000000,40.000000,0.000000,0.000000,1910.000122,1910.000000,2131.875244,0.000000,0.000134,246.991150,79.282822,0.067405,-2.475828,5555.047363,0.000000
0.000000,0.000000,0.000000,0.000000,0.000000,0.000000,0.000000,0.000000,0,0,0,0,0,0,30.7693339941,34.6531472737,2131.875244,-0.543518,4.012268,66.953163,54.280289,2.447724,0.026978,0.000004,7.142509,1902.023560,1903.217041,12.000000,40.000000,0.000000,0.000000,1910.000122,1910.000000,2131.875244,0.000000,0.000167,246.991150,78.636368,0.067433,-2.476719,5453.919922,0.000000
0.000000,0.000000,0.000000,0.000000,0.000000,0.000000,0.000000,0.000000,0,0,0,0,0,0,30.7693339941,34.6531472737,2131.875244,-0.543577,4.012287,66.953156,54.547176,2.454997,0.027989,0.000004,7.160541,1901.078735,1902.272217,12.000000,40.000000,0.000000,0.000000,1900.000122,1900.000000,2131.875244,0.000000,0.000234,246.991150,78.345467,0.067442,-2.477105,5408.956055,0.000000
0.000000,0.000000,0.000000,0.000000,0.000000,0.000000,0.000000,0.000000,0,0,0,0,0,0,30.7693339942,34.6531472737,2131.875244,-0.543929,4.012402,66.953125,55.922462,2.494036,0.040362,0.000006,6.467753,1895.558350,1896.751831,12.000000,40.000000,0.000000,0.000000,1900.000122,1900.000000,2131.875244,0.000000,0.000469,246.991150,76.785698,0.067489,-2.479027,5165.075195,0.000000
0.000000,0.000000,0.000000,0.000000,0.000000,0.000000,0.000000,0.000000,0,0,0,0,0,0,30.7693339942,34.6531472736,2131.875244,-0.544132,4.012474,66.953110,56.752335,2.518909,0.026365,0.000004,6.963693,1892.871460,1894.064941,12.000000,40.000000,0.000000,0.000000,1900.000122,1900.000000,2131.875244,0.000000,0.000402,246.991150,75.796165,0.067518,-2.480135,5021.201660,0.000000
0.000000,0.000000,0.000000,0.000000,0.000000,0.000000,0.000000,0.000000,0,0,0,0,0,0,30.7693339942,34.6531472736,2131.875244,-0.544293,4.012529,66.953102,57.379459,2.538393,0.034222,0.000005,7.228903,1890.501831,1891.695190,12.000000,40.000000,0.000000,0.000000,1890.000122,1890.000000,2131.875244,0.000000,0.000502,246.991150,75.024574,0.067546,-2.480947,4906.161133,0.000000
0.000000,0.000000,0.000000,0.000000,0.000000,0.000000,0.000000,0.000000,0,0,0,0,0,0,30.7693339943,34.6531472736,2131.875244,-0.544545,4.012616,66.953079,58.254734,2.554305,0.028690,0.000004,7.093229,1886.929199,1888.122681,12.000000,40.000000,0.000000,0.000000,1890.000122,1890.000000,2131.875244,0.000000,0.000201,246.991150,73.853096,0.067577,-2.482104,4732.062500,0.000000
0.000000,0.000000,0.000000,0.000000,0.000000,0.000000,0.200000,0.000000,0,0,0,0,0,0,30.7693339943,34.6531472735,2131.875244,-0.544721,4.012681,66.953064,58.892334,2.550169,-0.078815,-0.000009,7.282124,2125.895020,1885.280884,12.000000,40.000000,0.000000,0.000000,1890.000122,1890.000000,2131.875244,0.000000,0.000368,242.077820,72.906136,0.067617,-2.482979,4591.751953,0.000000
0.000000,0.000000,0.000000,0.000000,0.000000,0.000000,0.200000,0.000000,0,0,0,0,0,0,30.7693339943,34.6531472735,2131.875244,-0.544852,4.012734,66.953049,59.478661,2.546651,-0.081855,-0.000008,7.272041,2123.230713,1882.616699,12.000000,40.000000,0.000000,0.000000,1890.000122,1890.000000,2131.875244,0.000000,-0.000402,242.077820,72.032341,0.067653,-2.479115,4461.311035,24.896582
0.000000,0.000000,0.000000,0.000000,0.000000,0.000000,0.200000,0.000000,0,0,0,0,0,0,30.7693339943,34.6531472735,2131.875244,-0.544957,4.012741,66.953041,60.013588,2.543664,-0.049249,-0.000005,7.277476,2120.838135,1880.224121,12.000000,40.000000,0.000000,0.000000,1880.000122,1880.000000,2131.875244,0.000000,0.000067,242.077820,71.234573,0.067683,-2.463348,4342.199219,54.306152
0.000000,0.000000,0.000000,0.000000,0.000000,0.000000,0.200000,0.000000,0,0,0,0,0,0,30.7693339944,34.6531472735,2131.875244,-0.545104,4.012557,66.953033,60.765404,2.539822,0.006856,0.000002,7.267120,2117.456787,1876.842896,12.000000,40.000000,0.000000,0.000000,1880.000122,1880.000000,2131.875244,0.000000,0.001339,242.077820,70.114494,0.067706,-2.424073,4173.409180,93.895020
0.000000,0.000000,0.000000,0.000000,0.000000,0.000000,0.200000,0.000000,0,0,0,0,0,0,30.7693339945,34.6531472736,2131.875244,-0.545235,4.012167,66.953026,61.358166,2.537093,0.021237,0.000009,7.254208,2114.809570,1874.195679,12.000000,40.000000,0.000000,0.000000,1880.000122,1880.000000,2131.875244,0.000000,0.002779,242.077820,69.233627,0.067725,-2.381386,4039.516113,123.616943
0.000000,0.000000,0.000000,0.000000,0.000000,0.000000,0.200000,0.000000,0,0,0,0,0,0,30.7693339945,34.6531472736,2131.875244,-0.545289,4.011962,66.953026,61.574089,2.536166,0.020660,0.000010,7.251187,2113.838867,1873.224854,12.000000,40.000000,0.000000,0.000000,1880.000122,1880.000000,2131.875244,0.000000,0.002947,242.077820,68.913460,0.067733,-2.363660,3990.376953,134.112091
0.000000,0.000000,0.000000,0.000000,0.000000,0.000000,0.200000,0.000000,0,0,0,0,0,0,30.7693339947,34.6531472739,2131.875244,-0.545591,4.010505,66.953018,62.601681,2.532257,0.021980,0.000019,6.527261,2108.806152,1868.192139,12.000000,40.000000,0.000000,0.000000,1870.000122,1870.000000,2131.875244,0.000000,0.005994,242.077820,67.396431,0.067768,-2.266335,3747.925293,181.632019
0.000000,0.000000,0.000000,0.000000,0.000000,0.000000,0.200000,0.000000,0,0,0,0,0,0,30.7693339949,34.6531472743,2131.875244,-0.545877,4.008819,66.953011,63.414665,2.529755,0.025545,0.000028,7.020979,2105.532227,1864.918335,11.877728,39.592426,0.000000,-0.000000,1870.000122,1870.000000,2131.875244,0.000000,0.006797,242.077820,66.206627,0.067790,-2.177615,3564.267334,216.401749
0.000000,0.000000,0.000000,0.000000,0.000000,0.000000,0.200000,0.000000,0,0,0,0,0,0,30.7693339950,34.6531472746,2131.875244,-0.546093,4.007464,66.953011,63.957233,2.528377,0.025175,0.000031,7.192888,2103.186035,1862.571899,11.738265,39.127552,0.000000,-0.000000,1870.000122,1870.000000,2131.875244,0.000000,0.008103,242.077820,65.419182,0.067816,-2.114395,3437.351074,238.240005
0.000000,0.000000,0.000000,0.000000,0.000000,0.000000,0.200000,0.000000,0,0,0,0,0,0,30.7693339953,34.6531472750,2131.875244,-0.546428,4.005307,66.953003,64.717361,2.526838,0.025231,0.000036,7.271634,2099.914551,1859.300537,11.520693,38.402309,0.000000,-0.000000,1860.000122,1860.000000,2131.875244,0.000000,0.009476,242.077820,64.326683,0.067843,-2.022226,3257.260498,267.038818
0.000000,0.000000,0.000000,0.000000,0.000000,0.000000,0.200000,0.000000,0,0,0,0,0,0,30.7693339955,34.6531472755,2131.875244,-0.546741,4.003260,66.952995,65.369209,2.525882,0.025631,0.000039,7.217470,2097.130615,1856.516724,11.315563,37.718544,0.000000,-0.000000,1860.000122,1860.000000,2131.875244,0.000000,0.010179,242.077820,63.401302,0.067874,-1.941187,3100.572754,290.112701
0.000000,0.000000,0.000000,0.000000,0.000000,0.000000,0.200000,0.000000,0,0,0,0,0,0,30.7693339957,34.6531472758,2131.875244,-0.546991,4.001630,66.952995,65.858177,2.525386,0.028347,0.000045,7.340281,2094.847168,1854.233032,11.153129,37.177097,0.000000,-0.000000,1860.000122,1860.000000,2131.875244,0.000000,0.010715,242.077820,62.714996,0.067910,-1.879880,2977.284180,306.469330
0.000000,0.000000,0.000000,0.000000,0.000000,0.000000,0.200000,0.000000,0,0,0,0,0,0,30.7693339960,34.6531472763,2131.875244,-0.547365,3.999167,66.952988,66.564468,2.525000,0.028127,0.000047,7.201181,2091.679932,1851.065918,10.904997,36.349991,0.000000,-0.000000,1850.000122,1850.000000,2131.875244,0.000000,0.010983,242.077820,61.736847,0.067948,-1.791423,2798.501221,328.706421
0.000000,0.000000,0.000000,0.000000,0.000000,0.000000,0.200000,0.000000,0,0,0,0,0,0,30.7693339963,34.6531472769,2131.875244,-0.547785,3.996416,66.952980,67.324852,2.525023,0.027707,0.000047,7.158921,2088.236328,1847.622314,10.622562,35.408539,0.000000,-0.000000,1850.000122,1850.000000,2131.875244,0.000000,0.011184,242.077835,60.702862,0.067987,-1.697357,2600.149414,350.889343
0.000000,0.000000,0.000000,0.000000,0.000000,0.000000,0.200000,0.000000,0,0,0,0,0,0,30.7693339964,34.6531472772,2131.875244,-0.548000,3.995018,66.952980,67.704910,2.525205,0.026853,0.000046,7.170962,2086.576660,1845.962524,10.475728,34.919090,0.000001,-0.000000,1850.000122,1850.000000,2131.875244,0.000000,0.011786,242.077850,60.194122,0.068018,-1.651120,2500.162354,361.322388
0.000000,0.000000,0.000000,0.000000,0.000000,0.000000,0.200000,0.000000,0,0,0,0,0,0,30.7693339967,34.6531472777,2131.875244,-0.548342,3.992806,66.952972,68.301811,2.525718,0.026104,0.000045,7.105683,2083.876221,1843.262329,10.239326,34.131081,0.000002,-0.000000,1850.000122,1850.000000,2131.875244,0.000000,0.011619,242.077911,59.406658,0.068061,-1.579880,2337.352539,376.866852
0.000000,0.000000,0.000000,0.000000,0.000000,0.000000,0.200000,0.000000,0,0,0,0,0,0,30.7693339971,34.6531472785,2131.875488,-0.548916,3.989196,66.952965,69.277550,2.527158,0.027338,0.000047,6.401239,2079.190674,1838.576660,9.842394,32.807945,0.000010,-0.000001,1840.000122,1840.000000,2131.875488,0.000000,0.011384,242.078201,58.152096,0.068128,-1.467835,2052.763184,400.172577
0.000000,0.000000,0.000000,0.000000,0.000000,0.000000,0.200000,0.000000,0,0,0,0,0,0,30.7693339972,34.6531472787,2131.875488,-0.549072,3.988203,66.952965,69.548294,2.527689,0.027152,0.000046,6.673881,2078.116699,1837.502686,9.728192,32.427254,0.000015,-0.000002,1840.000122,1840.000000,2131.875488,0.000000,0.011384,242.078384,57.811584,0.068163,-1.437834,1977.164429,406.200653
0.000000,0.000000,0.000000,0.000000,0.000000,0.000000,0.200000,0.000000,0,0,0,0,0,0,30.7693339976,34.6531472793,2131.875488,-0.549573,3.985078,66.952957,70.413666,2.529773,0.026797,0.000044,6.823747,2074.396973,1833.783081,9.357347,31.191008,0.000043,-0.000006,1840.000122,1840.000000,2131.875488,0.000000,0.010882,242.079453,56.746811,0.068235,-1.345388,1716.563477,424.265564
0.000000,0.000000,0.000000,0.000000,0.000000,0.000000,0.200000,0.000000,0,0,0,0,0,0,30.7693339979,34.6531472799,2131.875488,-0.550001,3.982431,66.952950,71.169411,2.532073,0.025970,0.000041,7.121905,2071.195801,1830.581909,9.025413,30.084356,0.000101,-0.000014,1830.000122,1830.000000,2131.875488,0.000000,0.010748,242.081635,55.847832,0.068288,-1.269079,1473.123169,438.627838
0.000000,0.000000,0.000000,0.000000,0.000000,0.000000,0.200000,0.000000,0,0,0,0,0,0,30.7693339981,34.6531472803,2131.875488,-0.550361,3.980240,66.952942,71.815933,2.534397,0.025528,0.000039,7.176427,2068.396973,1827.783081,8.737494,29.124294,0.000198,-0.000027,1830.000122,1830.000000,2131.875488,0.000000,0.010581,242.085266,55.102936,0.068346,-1.207072,1243.577026,449.940460
0.000000,0.000000,0.000000,0.000000,0.000000,0.000000,0.200000,0.000000,0,0,0,0,0,0,30.7693339984,34.6531472808,2131.875488,-0.550716,3.978129,66.952934,72.461121,2.537045,0.024558,0.000036,7.163807,2065.487305,1824.873413,8.447895,28.158369,0.000369,-0.000051,1830.000122,1830.000000,2131.875488,0.000000,0.010045,242.091736,54.382786,0.068403,-1.148092,979.899536,460.392761
0.000000,0.000000,0.000000,0.000000,0.000000,0.000000,0.200000,0.000000,0,0,0,0,0,0,30.7693339986,34.6531472812,2131.875488,-0.551061,3.976109,66.952927,73.104782,2.540015,0.026142,0.000037,7.169023,2062.697998,1822.083984,8.156868,27.187260,0.000662,-0.000092,1820.000122,1820.000000,2131.875488,0.000000,0.009710,242.102768,53.688313,0.068460,-1.091994,668.279419,470.040436
0.000000,0.000000,0.000000,0.000000,0.000000,0.000000,0.200000,0.000000,0,0,0,0,0,0,30.7693339988,34.6531472815,2131.875488,-0.551342,3.974499,66.952919,73.639961,2.542736,0.026282,0.000036,7.311791,2060.306641,1819.692627,7.914169,26.376928,0.001048,-0.000145,1820.000122,1820.000000,2131.875488,0.000000,0.009108,242.117310,53.129826,0.068517,-1.047346,260.332428,477.504059
0.000000,0.000000,0.000000,0.000000,0.000000,0.000000,0.200000,0.000000,0,0,0,0,0,0,30.7693339991,34.6531472820,2131.875488,-0.551786,3.972102,66.952911,74.395828,2.546714,0.038856,0.000079,7.252265,2056.785400,1816.171387,7.568970,25.223234,0.001920,-0.000266,1820.000122,1820.000000,2131.875488,0.000000,0.014599,242.150238,52.379784,0.068520,-0.987891,-542.220520,542.828186
0.000000,0.000000,0.000000,0.000000,0.000000,0.000000,0.200000,0.000000,0,0,0,0,0,0,30.7693339995,34.6531472827,2131.875488,-0.552370,3.969011,66.952896,74.946144,2.549607,0.037809,0.000133,7.186408,2054.308838,1813.694824,7.297177,24.313793,0.002918,-0.000405,1820.000122,1820.000000,2131.875488,0.000000,0.024610,242.187958,51.867359,0.068474,-0.947510,-699.216431,601.160461
0.000000,0.000000,0.000000,0.000000,0.000000,0.000000,0.200000,0.000000,0,0,0,0,0,0,30.7693340008,34.6531472855,2131.875488,-0.553725,3.962776,66.952812,75.878746,2.553159,0.004415,0.000064,6.815011,2050.514160,1809.900146,6.859673,22.846704,0.005435,-0.000756,1810.000122,1810.000000,2131.875488,0.000114,0.023137,242.283157,51.136066,0.068992,-0.890035,-863.348633,680.035706
0.000000,0.000000,0.000000,0.000000,0.000000,0.000000,0.200000,0.000000,0,0,0,0,0,0,30.7693340037,34.6531472923,2131.875732,-0.555148,3.959141,66.952690,76.758598,2.555102,-0.003148,-0.000107,7.010192,2047.805664,1807.191772,6.481823,21.575039,0.008938,-0.001247,1810.000122,1810.000000,2131.875732,0.000390,0.009543,242.415848,50.583950,0.069067,-0.846602,-942.836731,735.364441
0.000000,0.000000,0.000000,0.000000,0.000000,0.000000,0.200000,0.000000,0,0,0,0,0,0,30.7693340086,34.6531473047,2131.875732,-0.556585,3.957030,66.952385,77.665382,2.556533,-0.005400,-0.000325,7.150834,2045.234009,1804.619995,6.124697,20.366692,0.014099,-0.001971,1810.000122,1810.000000,2131.875732,0.000885,-0.007969,242.611465,50.104004,0.069240,-0.808676,-1008.912842,780.014404
0.000000,0.000000,0.000000,0.000000,0.000000,0.000000,0.200000,0.000000,0,0,0,0,0,0,30.7693340173,34.6531473273,2131.875488,-0.558260,3.955738,66.951981,78.755646,2.557873,-0.006694,-0.000648,7.115143,2042.369019,1801.755005,5.730939,19.023001,0.023068,-0.003236,1800.000122,1800.000000,2131.875488,0.001780,-0.027155,242.951752,49.609360,0.069503,-0.769264,-1073.219971,822.299133
0.000000,0.000000,0.000000,0.000000,0.000000,0.000000,0.200000,0.000000,0,0,0,0,0,0,30.7693340278,34.6531473551,2131.875488,-0.559683,3.955241,66.951607,79.737671,2.559110,-0.007256,-0.000966,7.175371,2039.905029,1799.291138,5.404546,17.895185,0.034533,-0.004856,1800.000122,1800.000000,2131.875488,0.002872,-0.047211,243.386963,49.220478,0.069851,-0.737902,-1123.798584,852.651733
0.000000,0.000000,0.000000,0.000000,0.000000,0.000000,0.200000,0.000000,0,0,0,0,0,0,30.7693340506,34.6531474149,2131.875488,-0.562965,3.955118,66.951004,81.317360,2.559343,-0.009503,-0.001874,7.177509,2036.357788,1795.743774,4.926218,16.204620,0.062198,-0.008781,1800.000122,1800.000000,2131.875488,0.005202,-0.079087,244.438019,48.677299,0.069089,-0.693310,-1182.135498,890.425293
0.000000,0.000000,0.000000,0.000000,0.000000,0.000000,0.200000,0.000000,0,0,0,0,0,0,30.7693340741,34.6531474742,2131.875244,-0.570191,3.955238,66.950104,82.557053,2.561625,-0.009252,-0.002316,7.246898,2033.703857,1793.089844,4.592433,14.980457,0.094282,-0.013382,1800.000122,1800.000000,2131.875244,0.007510,-0.117793,245.658524,48.309818,0.069749,-0.662510,-1222.109741,912.684937
0.000000,0.000000,0.000000,0.000000,0.000000,0.000000,0.200000,0.000000,0,0,0,0,0,0,30.7693341058,34.6531475559,2131.875000,-0.577507,3.955583,66.949036,83.962387,2.566159,-0.008925,-0.002792,7.176366,2030.820068,1790.206055,4.256806,13.682590,0.145769,-0.020865,1790.000122,1790.000000,2131.875000,0.010658,-0.146254,247.620514,47.938881,0.072383,-0.630481,-1260.348755,932.225647
0.000000,0.000000,0.000000,0.000000,0.000000,0.000000,0.200000,0.000000,0,0,0,0,0,0,30.7693341476,34.6531476658,2131.874756,-0.583790,3.956124,66.947922,85.523224,2.571737,-0.008882,-0.003417,7.082921,2027.675537,1787.061523,3.937615,12.332326,0.228028,-0.032963,1790.000122,1790.000000,2131.874756,0.014849,-0.162493,250.763718,47.572426,0.075143,-0.597511,-1298.033447,948.381958
0.000000,0.000000,0.000000,0.000000,0.000000,0.000000,0.200000,0.000000,0,0,0,0,0,0,30.7693341854,34.6531477663,2131.874512,-0.587594,3.956586,66.947044,86.737953,2.578256,-0.008811,-0.003896,7.122960,2025.378296,1784.764282,3.729585,11.333511,0.315739,-0.045974,1790.000122,1790.000000,2131.874512,0.018645,-0.186266,254.127335,47.315620,0.077774,-0.573297,-1318.976318,957.648987
0.000000,0.000000,0.000000,0.000000,0.000000,0.000000,0.200000,0.000000,0,0,0,0,0,0,30.7693342470,34.6531479310,2131.874023,-0.591888,3.957186,66.945816,88.396202,2.588166,-0.008764,-0.004600,6.972885,2021.920044,1781.306030,3.503624,9.994574,0.483920,-0.071107,1780.000122,1780.000000,2131.874023,0.024813,-0.223968,260.613617,46.992725,0.080252,-0.541064,-1355.494019,966.571960
0.000000,0.000000,0.000000,0.000000,0.000000,0.000000,0.200000,0.000000,0,0,0,0,0,0,30.7693343080,34.6531480951,2131.873779,-0.594731,3.957461,66.944138,89.275146,2.599112,-0.008787,-0.005251,7.149826,2019.131836,1778.517822,3.379408,8.901433,0.678850,-0.100426,1780.000122,1780.000000,2131.873779,0.030896,-0.258623,268.195648,46.749886,0.081967,-0.514969,-1376.628540,970.945923
0.000000,0.000000,0.000000,0.000000,0.000000,0.000000,0.200000,0.000000,0,0,0,0,0,0,30.7693343590,34.6531482329,2131.873291,-0.596263,3.956424,66.942596,88.537766,2.609326,-0.006695,-0.004411,7.324557,2016.974854,1776.360840,3.332721,8.114675,0.859981,-0.127791,1780.000122,1780.000000,2131.873291,0.035969,-0.233912,275.308441,46.588211,0.083128,-0.496258,-1394.121338,972.501465
0.000000,0.000000,0.000000,0.000000,0.000000,0.000000,0.200000,0.000000,0,0,0,0,0,0,30.7693344343,34.6531484376,2131.873047,-0.596669,3.953642,66.940567,87.074661,2.623653,-0.007652,-0.005643,7.287792,2013.999146,1773.385254,3.335043,7.109964,1.150513,-0.171803,1780.000122,1780.000000,2131.873047,0.043444,-0.284873,286.872070,46.399765,0.083749,-0.472346,-1419.718628,972.571472
0.000000,0.000000,0.000000,0.000000,0.000000,0.000000,0.200000,0.000000,0,0,0,0,0,0,30.7693345319,34.6531487052,2131.872314,-0.593253,3.951637,66.938026,85.352570,2.644225,-0.007924,-0.006549,7.180727,2010.558594,1769.944580,3.428130,6.003032,1.557233,-0.233290,1770.000122,1770.000000,2131.872314,0.053118,-0.344608,303.416687,46.218781,0.085478,-0.445843,-1445.512573,970.194946
0.000000,0.000000,0.000000,0.000000,0.000000,0.000000,0.200000,0.000000,0,0,0,0,0,0,30.7693346159,34.6531489369,2131.871826,-0.588336,3.951082,66.936043,84.014572,2.659738,-0.008151,-0.007298,7.172679,2007.958618,1767.344604,3.559774,5.185044,1.918125,-0.287117,1770.000122,1770.000000,2131.871826,0.061409,-0.375111,318.497894,46.105637,0.085122,-0.426039,-1459.905273,966.787292
0.000000,0.000000,0.000000,0.000000,0.000000,0.000000,0.200000,0.000000,0,0,0,0,0,0,30.7693347155,34.6531492104,2131.871094,-0.583962,3.950972,66.933617,82.584023,2.678413,-0.008309,-0.008052,7.171288,2005.062256,1764.448242,3.742929,4.347907,2.334094,-0.348211,1770.000122,1770.000000,2131.871094,0.071117,-0.415324,336.452301,46.011013,0.084563,-0.405514,-1476.786377,961.806824
0.000000,0.000000,0.000000,0.000000,0.000000,0.000000,0.200000,0.000000,0,0,0,0,0,0,30.7693348139,34.6531494799,2131.870361,-0.580894,3.951059,66.931137,81.305527,2.697351,-0.008368,-0.008666,7.140792,2002.451050,1761.837158,3.923970,3.634613,2.712694,-0.402975,1760.000122,1760.000000,2131.870361,0.080600,-0.456441,353.477173,45.950333,0.084110,-0.387644,-1489.340210,956.298035
0.000000,0.000000,0.000000,0.000000,0.000000,0.000000,0.200000,0.000000,0,0,0,0,0,0,30.7693349487,34.6531498482,2131.869629,-0.578011,3.951185,66.927704,79.723900,2.722872,-0.008282,-0.009261,7.182969,1999.015625,1758.401733,4.132832,2.807085,3.151107,-0.465330,1760.000122,1760.000000,2131.869629,0.093439,-0.484467,14.349470,45.908581,0.083792,-0.366125,-1508.399780,948.266235
0.000000,0.000000,0.000000,0.000000,0.000000,0.000000,0.200000,0.000000,0,0,0,0,0,0,30.7693350514,34.6531501283,2131.868896,-0.576441,3.951221,66.925087,78.629173,2.742259,-0.008375,-0.009847,7.133857,1996.576538,1755.962524,4.243991,2.274143,3.411252,-0.501657,1760.000122,1760.000000,2131.868896,0.103112,-0.516410,27.630512,45.902668,0.083581,-0.351546,-1520.391479,941.993958
0.000000,0.000000,0.000000,0.000000,0.000000,0.000000,0.200000,0.000000,0,0,0,0,0,0,30.7693351155,34.6531503031,2131.868408,-0.575649,3.951232,66.923454,77.987053,2.754315,-0.008420,-0.010186,7.107812,1995.081909,1754.467896,4.290011,1.978267,3.540690,-0.519468,1760.000122,1760.000000,2131.868408,0.109108,-0.534658,34.626171,45.908531,0.083532,-0.343100,-1528.422852,938.066589
0.000000,0.000000,0.000000,0.000000,0.000000,0.000000,0.200000,0.000000,0,0,0,0,0,0,30.7693353541,34.6531509531,2131.866699,-0.573550,3.951194,66.917450,75.825287,2.798249,-0.008552,-0.011329,6.580066,1989.857666,1749.243652,4.324077,1.083204,3.831636,-0.558265,1750.000122,1750.000000,2131.866699,0.131159,-0.581065,52.159893,45.983440,0.083424,-0.315212,-1552.503052,923.667358
0.000000,0.000000,0.000000,0.000000,0.000000,0.000000,0.200000,0.000000,0,0,0,0,0,0,30.7693354877,34.6531513167,2131.865967,-0.572682,3.951113,66.914139,74.751450,2.823255,-0.008539,-0.011806,7.020504,1987.343506,1746.729492,4.279879,0.698789,3.900226,-0.566718,1750.000122,1750.000000,2131.865967,0.143328,-0.619236,57.145126,46.055607,0.083446,-0.301584,-1556.403809,915.901672
0.000000,0.000000,0.000000,0.000000,0.000000,0.000000,0.200000,0.000000,0,0,0,0,0,0,30.7693356528,34.6531517660,2131.864746,-0.571892,3.950965,66.910118,73.523598,2.852616,-0.008590,-0.012447,7.027407,1984.280396,1743.666504,4.201748,0.314295,3.936288,-0.570573,1750.000122,1750.000000,2131.864746,0.158213,-0.638556,60.253601,46.169163,0.083523,-0.286287,-1564.032837,906.679871
0.000000,0.000000,0.000000,0.000000,0.000000,0.000000,0.200000,0.000000,0,0,0,0,0,0,30.7693358121,34.6531521992,2131.863770,-0.571253,3.950783,66.906296,72.437599,2.881009,-0.008600,-0.012970,7.028186,1981.523682,1740.909668,4.125663,0.023388,3.947278,-0.571228,1740.000122,1740.000000,2131.863770,0.172404,-0.665309,61.448582,46.300404,0.083653,-0.272903,-1567.901123,898.226563
0.000000,0.000000,0.000000,0.000000,0.000000,0.000000,0.200000,0.000000,0,0,0,0,0,0,30.7693358941,34.6531524222,2131.863037,-0.570967,3.950680,66.904358,71.910286,2.895469,-0.008602,-0.013222,7.170796,1980.112061,1739.498047,4.090696,-0.099445,3.949191,-0.571128,1740.000122,1740.000000,2131.863037,0.179652,-0.677965,61.713673,46.375286,0.083758,-0.266465,-1571.036377,894.047668
0.000000,0.000000,0.000000,0.000000,0.000000,0.000000,0.200000,0.000000,0,0,0,0,0,0,30.7693378314,34.6531576804,2131.849854,-0.567967,3.947820,66.865822,63.234467,3.208274,-0.008616,-0.017494,0.000000,1965.091919,1724.477905,3.947857,-0.568005,3.947857,-0.568005,1720.000122,1720.000000,2131.849854,0.340524,-0.896777,61.953209,48.998909,0.086120,-0.166452,-1062.651367,826.415527
0.000000,0.000000,0.000000,0.000000,0.000000,0.000000,0.200000,0.000000,0,0,0,0,0,0,30.7693383364,34.6531590491,2131.846191,-0.567551,3.947294,66.857292,61.671024,3.283131,-0.008579,-0.018228,0.003192,1964.825195,1724.211182,3.947329,-0.567559,3.947329,-0.567559,1720.000122,1720.000000,2131.846191,0.379638,-0.960529,61.944679,49.830158,0.086689,-0.150047,-845.362732,816.702515
0.000000,0.000000,0.000000,0.000000,0.000000,0.000000,0.200000,0.000000,0,0,0,0,0,0,30.7693384711,34.6531594140,2131.845459,-0.567454,3.947168,66.855072,61.320122,3.299269,-0.008621,-0.018524,0.040989,1964.777588,1724.163574,3.947202,-0.567444,3.947202,-0.567444,1720.000122,1720.000000,2131.845459,0.389895,-0.946232,61.942444,50.056576,0.087110,-0.146086,-788.271240,814.509399
0.000000,0.000000,0.000000,0.000000,0.000000,0.000000,0.200000,0.000000,0,0,0,0,0,0,30.7693387252,34.6531601023,2131.843506,-0.567219,3.946948,66.850853,60.949780,3.311741,-0.008585,-0.018818,0.133926,1964.647339,1724.033447,3.946979,-0.567266,3.946979,-0.567266,1720.000122,1720.000000,2131.843506,0.409057,-0.984637,61.938248,50.487770,0.087482,-0.139047,-686.253113,810.775085
0.000000,0.000000,0.000000,0.000000,0.000000,0.000000,0.200000,0.000000,0,0,0,0,0,0,30.7693390448,34.6531609681,2131.841309,-0.567033,3.946706,66.845695,60.497581,3.326047,-0.008590,-0.019280,0.438268,1964.505127,1723.891235,3.946733,-0.567073,3.946733,-0.567073,1720.000122,1720.000000,2131.841309,0.432826,-1.008176,61.933109,51.035904,0.088052,-0.130891,-561.292786,806.759216
0.000000,0.000000,0.000000,0.000000,0.000000,0.000000,0.200000,0.000000,0,0,0,0,0,0,30.7693392896,34.6531616308,2131.839844,-0.566878,3.946542,66.841888,60.172775,3.337348,-0.008576,-0.019581,0.727494,1964.386230,1723.772217,3.946568,-0.566914,3.946568,-0.566914,1720.000122,1720.000000,2131.839844,0.450774,-1.031748,61.929295,51.458256,0.089060,-0.125113,-471.173492,804.142761
