aileron,elevator,rudder,flaps,slats,speedbrake,throttle,throttle,engine-pump,engine-pump,electric-pump,electric-pump,external-power,APU-generator,latitude-deg,longitude-deg,altitude-ft,roll-deg,pitch-deg,heading-deg,side-slip-deg,airspeed-kt,glideslope,vertical-speed-fps,airspeed-indicator_indicated-speed-kt,altimeter_indicated-altitude-ft,altimeter_pressure-alt-ft,attitude-indicator_indicated-pitch-deg,attitude-indicator_indicated-roll-deg,attitude-indicator_internal-pitch-deg,attitude-indicator_internal-roll-deg,encoder_indicated-altitude-ft,encoder_pressure-alt-ft,gps_indicated-altitude-ft,gps_indicated-ground-speed-kt,gps_indicated-vertical-speed,indicated-heading-deg,magnetic-compass_indicated-heading-deg,slip-skid-ball_indicated-slip-skid,turn-indicator_indicated-turn-rate,vertical-speed-indicator_indicated-speed-fpm,engine_rpm
0.000000,0.000000,0.000000,0.000000,0.000000,0.000000,0.000000,0.000000,0,0,0,0,0,0,30.7798632985,34.6818519576,-9999.000000,0.000000,0.424000,246.889999,0.000000,0.000000,0.000000,0.000000,0.000000,0.000000,0.000000,0.000000,0.000000,0.000000,0.000000,0.000000,0.000000,0.000000,0.000000,0.000000,0.000000,0.000000,0.000000,0.000000,0.000000,0.000000
0.000000,0.000000,0.000000,0.000000,0.000000,0.000000,0.000000,0.000000,0,0,0,0,0,0,30.7798632985,34.6818519576,-9999.000000,0.000000,0.424000,246.889999,0.000000,0.000000,0.000000,0.000000,0.000000,0.000000,1.193444,12.000000,40.000000,0.000000,0.000000,0.000000,0.000000,0.000000,0.000000,0.000000,246.889999,0.000000,0.000000,0.000000,0.000000,0.000000
0.000000,0.000000,0.000000,0.000000,0.000000,0.000000,0.000000,0.000000,0,0,0,0,0,0,30.7693347160,34.6531480301,-9999.000000,0.000000,0.424000,66.870003,0.000000,0.000000,0.000000,0.000000,0.000000,0.000000,1.193444,12.000000,40.000000,0.000000,0.000000,0.000000,0.000000,0.000000,0.000000,0.000000,246.889999,0.000000,0.000000,0.000000,0.000000,0.000000
0.000000,0.000000,0.000000,0.000000,0.000000,0.000000,0.000000,0.000000,0,0,0,0,0,0,30.7693347160,34.6531480301,-9999.000000,0.000000,0.424000,66.870003,0.000000,0.000000,0.000000,0.000000,0.000000,0.000000,1.193444,12.000000,40.000000,0.000000,0.000000,0.000000,0.000000,0.000000,0.000000,0.000000,246.889999,0.000000,0.000000,0.000000,0.000000,0.000000
0.000000,0.000000,0.000000,0.000000,0.000000,0.000000,0.000000,0.000000,0,0,0,0,0,0,30.7693347160,34.6531480301,-9999.000000,0.000000,0.424000,66.870003,0.000000,0.000000,0.000000,0.000000,0.000000,0.000000,1.193444,12.000000,40.000000,0.000000,0.000000,0.000000,0.000000,0.000000,0.000000,0.000000,246.889999,0.000000,0.000000,0.000000,0.000000,0.000000
0.000000,0.000000,0.000000,0.000000,0.000000,0.000000,0.000000,0.000000,0,0,0,0,0,0,30.7693347160,34.6531480301,-9999.000000,0.000000,0.424000,66.870003,0.000000,0.000000,0.000000,0.000000,0.000000,0.000000,1.193444,12.000000,40.000000,0.000000,0.000000,0.000000,0.000000,0.000000,0.000000,0.000000,246.889999,0.000000,0.000000,0.000000,0.000000,0.000000
0.000000,0.000000,0.000000,0.000000,0.000000,0.000000,0.000000,0.000000,0,0,0,0,0,0,30.7693347160,34.6531480301,-9999.000000,0.000000,0.424000,66.870003,0.000000,0.000000,0.000000,0.000000,0.000000,0.000000,1.193444,12.000000,40.000000,0.000000,0.000000,0.000000,0.000000,0.000000,0.000000,0.000000,246.889999,0.000000,0.000000,0.000000,0.000000,0.000000
0.000000,0.000000,0.000000,0.000000,0.000000,0.000000,0.000000,0.000000,0,0,0,0,0,0,30.7693347160,34.6531480301,-9999.000000,0.000000,0.424000,66.870003,0.000000,0.000000,0.000000,0.000000,0.000000,0.000000,1.193444,12.000000,40.000000,0.000000,0.000000,0.000000,0.000000,0.000000,0.000000,0.000000,246.889999,0.000000,0.000000,0.000000,0.000000,0.000000
0.000000,0.000000,0.000000,0.000000,0.000000,0.000000,0.000000,0.000000,0,0,0,0,0,0,30.7693347160,34.6531480301,-9999.000000,0.000000,0.424000,66.870003,0.000000,0.000000,0.000000,0.000000,0.000000,0.000000,1.193444,12.000000,40.000000,0.000000,0.000000,0.000000,0.000000,0.000000,0.000000,0.000000,246.889999,0.000000,0.000000,0.000000,0.000000,0.000000
0.000000,0.000000,0.000000,0.000000,0.000000,0.000000,0.000000,0.000000,0,0,0,0,0,0,30.7693347160,34.6531480301,-9999.000000,0.000000,0.424000,66.870003,0.000000,0.000000,0.000000,0.000000,0.000000,0.000000,1.193444,12.000000,40.000000,0.000000,0.000000,0.000000,0.000000,0.000000,0.000000,0.000000,246.889999,0.000000,0.000000,0.000000,0.000000,0.000000
0.000000,0.000000,0.000000,0.000000,0.000000,0.000000,0.000000,0.000000,0,0,0,0,0,0,30.7693347160,34.6531480301,-9999.000000,0.000000,0.424000,66.870003,0.000000,0.000000,0.000000,0.000000,0.000000,0.000000,1.193444,12.000000,40.000000,0.000000,0.000000,0.000000,0.000000,0.000000,0.000000,0.000000,246.889999,0.000000,0.000000,0.000000,0.000000,0.000000
0.000000,0.000000,0.000000,0.000000,0.000000,0.000000,0.000000,0.000000,0,0,0,0,0,0,30.7693347160,34.6531480301,-9999.000000,0.000000,0.424000,66.870003,0.000000,0.000000,0.000000,0.000000,0.000000,0.000000,1.193444,12.000000,40.000000,0.000000,0.000000,0.000000,0.000000,0.000000,0.000000,0.000000,246.889999,0.000000,0.000000,0.000000,0.000000,0.000000
0.000000,0.000000,0.000000,0.000000,0.000000,0.000000,0.000000,0.000000,0,0,0,0,0,0,30.7693347160,34.6531480301,-9999.000000,0.000000,0.424000,66.870003,0.000000,0.000000,0.000000,0.000000,0.000000,0.000000,1.193444,12.000000,40.000000,0.000000,0.000000,0.000000,0.000000,0.000000,0.000000,0.000000,246.889999,0.000000,0.000000,0.000000,0.000000,0.000000
0.000000,0.000000,0.000000,0.000000,0.000000,0.000000,0.000000,0.000000,0,0,0,0,0,0,30.7693347160,34.6531480301,-9999.000000,0.000000,0.424000,66.870003,0.000000,0.000000,0.000000,0.000000,0.000000,0.000000,1.193444,12.000000,40.000000,0.000000,0.000000,0.000000,0.000000,0.000000,0.000000,0.000000,246.889999,0.000000,0.000000,0.000000,0.000000,0.000000
0.000000,0.000000,0.000000,0.000000,0.000000,0.000000,0.000000,0.000000,0,0,0,0,0,0,30.7693347160,34.6531480301,-9999.000000,0.000000,0.424000,66.870003,0.000000,0.000000,0.000000,0.000000,0.000000,0.000000,1.193444,12.000000,40.000000,0.000000,0.000000,0.000000,0.000000,0.000000,0.000000,0.000000,246.889999,0.000000,0.000000,0.000000,0.000000,0.000000
0.000000,0.000000,0.000000,0.000000,0.000000,0.000000,0.000000,0.000000,0,0,0,0,0,0,30.7693347160,34.6531480301,-9999.000000,0.000000,0.424000,66.870003,0.000000,0.000000,0.000000,0.000000,0.000000,0.000000,1.193444,12.000000,40.000000,0.000000,0.000000,0.000000,0.000000,0.000000,0.000000,0.000000,246.889999,0.000000,0.000000,0.000000,0.000000,0.000000
0.000000,0.000000,0.000000,0.000000,0.000000,0.000000,0.000000,0.000000,0,0,0,0,0,0,30.7693347160,34.6531480301,-9999.000000,0.000000,0.424000,66.870003,0.000000,0.000000,0.000000,0.000000,0.000000,0.000000,1.193444,12.000000,40.000000,0.000000,0.000000,0.000000,0.000000,0.000000,0.000000,0.000000,246.889999,0.000000,0.000000,0.000000,0.000000,0.000000
0.000000,0.000000,0.000000,0.000000,0.000000,0.000000,0.000000,0.000000,0,0,0,0,0,0,30.7693347160,34.6531480301,-9999.000000,0.000000,0.424000,66.870003,0.000000,0.000000,0.000000,0.000000,0.000000,0.000000,1.193444,12.000000,40.000000,0.000000,0.000000,0.000000,0.000000,0.000000,0.000000,0.000000,246.889999,0.000000,0.000000,0.000000,0.000000,0.000000
0.000000,0.000000,0.000000,0.000000,0.000000,0.000000,0.000000,0.000000,0,0,0,0,0,0,30.7693347160,34.6531480301,-9999.000000,0.000000,0.424000,66.870003,0.000000,0.000000,0.000000,0.000000,0.000000,0.000000,1.193444,12.000000,40.000000,0.000000,0.000000,0.000000,0.000000,0.000000,0.000000,0.000000,246.889999,0.000000,0.000000,0.000000,0.000000,0.000000
0.000000,0.000000,0.000000,0.000000,0.000000,0.000000,0.000000,0.000000,0,0,0,0,0,0,30.7693347160,34.6531480301,-9999.000000,0.000000,0.424000,66.870003,0.000000,0.000000,0.000000,0.000000,0.000000,0.000000,1.193444,12.000000,40.000000,0.000000,0.000000,0.000000,0.000000,0.000000,0.000000,0.000000,246.889999,0.000000,0.000000,0.000000,0.000000,0.000000
0.000000,0.000000,0.000000,0.000000,0.000000,0.000000,0.000000,0.000000,0,0,0,0,0,0,30.7693347160,34.6531480301,-9999.000000,0.000000,0.424000,66.870003,0.000000,0.000000,0.000000,0.000000,0.000000,0.000000,1.193444,12.000000,40.000000,0.000000,0.000000,0.000000,0.000000,0.000000,0.000000,0.000000,246.889999,0.000000,0.000000,0.000000,0.000000,0.000000
0.000000,0.000000,0.000000,0.000000,0.000000,0.000000,0.000000,0.000000,0,0,0,0,0,0,30.7693347160,34.6531480301,-9999.000000,0.000000,0.424000,66.870003,0.000000,0.000000,0.000000,0.000000,0.000000,0.000000,1.193444,12.000000,40.000000,0.000000,0.000000,0.000000,0.000000,0.000000,0.000000,0.000000,246.889999,0.000000,0.000000,0.000000,0.000000,0.000000
0.000000,0.000000,0.000000,0.000000,0.000000,0.000000,0.000000,0.000000,0,0,0,0,0,0,30.7693347160,34.6531480301,-9999.000000,0.000000,0.424000,66.870003,0.000000,0.000000,0.000000,0.000000,0.000000,0.000000,1.193444,12.000000,40.000000,0.000000,0.000000,0.000000,0.000000,0.000000,0.000000,0.000000,246.889999,0.000000,0.000000,0.000000,0.000000,0.000000
0.000000,0.000000,0.000000,0.000000,0.000000,0.000000,0.000000,0.000000,0,0,0,0,0,0,30.7693347160,34.6531480301,-9999.000000,0.000000,0.424000,66.870003,0.000000,0.000000,0.000000,0.000000,0.000000,0.000000,1.193444,12.000000,40.000000,0.000000,0.000000,0.000000,0.000000,0.000000,0.000000,0.000000,246.889999,0.000000,0.000000,0.000000,0.000000,0.000000
0.000000,0.000000,0.000000,0.000000,0.000000,0.000000,0.000000,0.000000,0,0,0,0,0,0,30.7693347160,34.6531480301,-9999.000000,0.000000,0.424000,66.870003,0.000000,0.000000,0.000000,0.000000,0.000000,0.000000,1.193444,12.000000,40.000000,0.000000,0.000000,0.000000,0.000000,0.000000,0.000000,0.000000,246.889999,0.000000,0.000000,0.000000,0.000000,0.000000
0.000000,0.000000,0.000000,0.000000,0.000000,0.000000,0.000000,0.000000,0,0,0,0,0,0,30.7693347160,34.6531480301,-9999.000000,0.000000,0.424000,66.870003,0.000000,0.000000,0.000000,0.000000,0.000000,0.000000,1.193444,12.000000,40.000000,0.000000,0.000000,0.000000,0.000000,0.000000,0.000000,0.000000,246.889999,0.000000,0.000000,0.000000,0.000000,0.000000
0.000000,0.000000,0.000000,0.000000,0.000000,0.000000,0.000000,0.000000,0,0,0,0,0,0,30.7693347160,34.6531480301,-9999.000000,0.000000,0.424000,66.870003,0.000000,0.000000,0.000000,0.000000,0.000000,0.000000,1.193444,12.000000,40.000000,0.000000,0.000000,0.000000,0.000000,0.000000,0.000000,0.000000,246.889999,0.000000,0.000000,0.000000,0.000000,0.000000
0.000000,0.000000,0.000000,0.000000,0.000000,0.000000,0.000000,0.000000,0,0,0,0,0,0,30.7693347160,34.6531480301,-9999.000000,0.000000,0.424000,66.870003,0.000000,0.000000,0.000000,0.000000,0.000000,0.000000,1.193444,12.000000,40.000000,0.000000,0.000000,0.000000,0.000000,0.000000,0.000000,0.000000,246.889999,0.000000,0.000000,0.000000,0.000000,0.000000
0.000000,0.000000,0.000000,0.000000,0.000000,0.000000,0.000000,0.000000,0,0,0,0,0,0,30.7693340647,34.6531472403,2131.875000,-0.515180,4.008967,66.848923,0.000000,0.000000,0.000000,0.000000,0.000000,0.000000,1.193444,12.000000,40.000000,0.000000,0.000000,0.000000,0.000000,0.000000,0.000000,0.000000,246.889999,0.000000,0.000000,0.000000,0.000000,0.000000
0.000000,0.000000,0.000000,0.000000,0.000000,0.000000,0.000000,0.000000,0,0,0,0,0,0,30.7693340675,34.6531472381,2131.875000,-0.530739,4.011962,66.847672,-23.196407,2.925263,0.032740,0.000005,0.000000,2140.187500,2141.380859,12.000000,40.000000,0.000000,0.000000,2140.000244,2140.000000,2131.875000,0.000000,0.000569,246.889969,5.579779,0.041810,-0.985256,15490.831055,0.000000
0.000000,0.000000,0.000000,0.000000,0.000000,0.000000,0.000000,0.000000,0,0,0,0,0,0,30.7693340681,34.6531472380,2131.875000,-0.533176,4.011300,66.847488,-17.006168,2.654301,-0.086546,-0.000002,0.000012,2111.409424,2112.602783,12.000000,40.000000,0.000000,0.000000,2110.000244,2110.000000,2131.875000,0.000000,-0.000067,246.889969,19.865465,0.057189,-1.582221,14352.375000,0.000000
0.000000,0.000000,0.000000,0.000000,0.000000,0.000000,0.000000,0.000000,0,0,0,0,0,0,30.7693340684,34.6531472380,2131.875000,-0.534904,4.010739,66.847359,-9.517774,2.420984,-0.111705,-0.000002,0.003835,2082.561768,2083.755371,12.000000,40.000000,0.000000,0.000000,2080.000244,2080.000000,2131.875000,0.000000,0.000000,246.889969,38.729801,0.062934,-1.943920,13203.597656,0.000000
0.000000,0.000000,0.000000,0.000000,0.000000,0.000000,0.000000,0.000000,0,0,0,0,0,0,30.7693340685,34.6531472379,2131.875000,-0.535057,4.010709,66.847343,-7.639609,2.374846,-0.124454,-0.000006,5.587695,2077.681396,2078.875000,12.000000,40.000000,0.000000,0.000000,2080.000244,2080.000000,2131.875000,0.000000,-0.000335,246.889969,43.167145,0.063531,-2.003205,12950.248047,0.000000
0.000000,0.000000,0.000000,0.000000,0.000000,0.000000,0.000000,0.000000,0,0,0,0,0,0,30.7693340685,34.6531472379,2131.875000,-0.535144,4.010691,66.847343,-6.709434,2.353566,-0.128192,-0.000008,6.943792,2075.152100,2076.345459,12.000000,40.000000,0.000000,0.000000,2080.000244,2080.000000,2131.875000,0.000000,-0.000469,246.889969,45.296253,0.063871,-2.029452,12827.220703,0.000000
0.000000,0.000000,0.000000,0.000000,0.000000,0.000000,0.000000,0.000000,0,0,0,0,0,0,30.7693340685,34.6531472379,2131.875000,-0.535233,4.010675,66.847336,-5.909215,2.336053,-0.161160,-0.000012,7.209455,2072.709717,2073.903076,12.000000,40.000000,0.000000,0.000000,2080.000244,2080.000000,2131.875000,0.000000,-0.000234,246.889969,47.089111,0.064026,-2.050575,12721.583008,0.000000
0.000000,0.000000,0.000000,0.000000,0.000000,0.000000,0.000000,0.000000,0,0,0,0,0,0,30.7693340685,34.6531472379,2131.875000,-0.535340,4.010658,66.847328,-5.022606,2.317474,-0.130366,-0.000011,7.345420,2069.902100,2071.095459,12.000000,40.000000,0.000000,0.000000,2070.000244,2070.000000,2131.875000,0.000000,-0.000335,246.889969,49.032326,0.064242,-2.072539,12605.534180,0.000000
0.000000,0.000000,0.000000,0.000000,0.000000,0.000000,0.000000,0.000000,0,0,0,0,0,0,30.7693340686,34.6531472379,2131.875000,-0.535456,4.010641,66.847313,-4.121786,2.299460,-0.126019,-0.000011,7.392824,2067.044189,2068.237549,12.000000,40.000000,0.000000,0.000000,2070.000244,2070.000000,2131.875000,0.000000,-0.000502,246.889969,50.958878,0.064441,-2.093429,12489.108398,0.000000
0.000000,0.000000,0.000000,0.000000,0.000000,0.000000,0.000000,0.000000,0,0,0,0,0,0,30.7693340686,34.6531472379,2131.875000,-0.535578,4.010624,66.847305,-3.206896,2.282022,-0.148142,-0.000013,7.409551,2064.168701,2065.362061,12.000000,40.000000,0.000000,0.000000,2070.000244,2070.000000,2131.875000,0.000000,-0.000402,246.889969,52.865273,0.064623,-2.113298,12372.457031,0.000000
0.000000,0.000000,0.000000,0.000000,0.000000,0.000000,0.000000,0.000000,0,0,0,0,0,0,30.7693340686,34.6531472379,2131.875000,-0.535703,4.010611,66.847298,-2.278140,2.265174,-0.124624,-0.000011,7.415522,2061.286865,2062.480225,12.000000,40.000000,0.000000,0.000000,2070.000244,2070.000000,2131.875000,0.000000,-0.000368,246.889969,54.748138,0.064790,-2.132196,12255.632813,0.000000
0.000000,0.000000,0.000000,0.000000,0.000000,0.000000,0.000000,0.000000,0,0,0,0,0,0,30.7693340686,34.6531472379,2131.875000,-0.535830,4.010599,66.847290,-1.335625,2.248930,-0.121382,-0.000011,7.417690,2058.402832,2059.596191,12.000000,40.000000,0.000000,0.000000,2060.000244,2060.000000,2131.875000,0.000000,-0.000536,246.889969,56.604210,0.064945,-2.150170,12138.651367,0.000000
0.000000,0.000000,0.000000,0.000000,0.000000,0.000000,0.000000,0.000000,0,0,0,0,0,0,30.7693340687,34.6531472379,2131.875000,-0.535936,4.010592,66.847282,-0.539890,2.235864,-0.123034,-0.000011,7.418411,2055.998779,2057.192139,12.000000,40.000000,0.000000,0.000000,2060.000244,2060.000000,2131.875000,0.000000,-0.000368,246.889969,58.128193,0.065085,-2.164476,12041.050781,0.000000
0.000000,0.000000,0.000000,0.000000,0.000000,0.000000,0.000000,0.000000,0,0,0,0,0,0,30.7693340687,34.6531472379,2131.875000,-0.536087,4.010586,66.847267,0.589642,2.218304,-0.116263,-0.000010,7.173463,2052.526611,2053.720215,12.000000,40.000000,0.000000,0.000000,2060.000244,2060.000000,2131.875000,0.000000,-0.000469,246.889969,60.223499,0.065213,-2.183527,11903.697266,0.000000
0.000000,0.000000,0.000000,0.000000,0.000000,0.000000,0.000000,0.000000,0,0,0,0,0,0,30.7693340687,34.6531472379,2131.875000,-0.536211,4.010575,66.847260,1.571871,2.203944,-0.103799,-0.000009,7.354088,2049.709961,2050.903564,12.000000,40.000000,0.000000,0.000000,2050.000244,2050.000000,2131.875000,0.000000,-0.000234,246.889969,61.980797,0.065333,-2.198993,11786.608398,0.000000
0.000000,0.000000,0.000000,0.000000,0.000000,0.000000,0.000000,0.000000,0,0,0,0,0,0,30.7693340687,34.6531472379,2131.875000,-0.536334,4.010554,66.847252,2.566683,2.190239,-0.113782,-0.000010,7.396301,2046.848877,2048.042236,12.000000,40.000000,0.000000,0.000000,2050.000244,2050.000000,2131.875000,0.000000,-0.000268,246.889969,63.699451,0.065442,-2.213703,11669.134766,0.000000
0.000000,0.000000,0.000000,0.000000,0.000000,0.000000,0.000000,0.000000,0,0,0,0,0,0,30.7693340688,34.6531472379,2131.875000,-0.536458,4.010523,66.847237,3.573779,2.177204,-0.109414,-0.000010,7.410903,2043.971924,2045.165405,12.000000,40.000000,0.000000,0.000000,2050.000244,2050.000000,2131.875000,0.000000,-0.000268,246.889969,65.376831,0.065544,-2.227695,11551.418945,0.000000
0.000000,0.000000,0.000000,0.000000,0.000000,0.000000,0.000000,0.000000,0,0,0,0,0,0,30.7693340688,34.6531472378,2131.875000,-0.536580,4.010488,66.847229,4.592737,2.164851,-0.103097,-0.000009,7.415955,2041.089478,2042.282959,12.000000,40.000000,0.000000,0.000000,2040.000122,2040.000000,2131.875000,0.000000,-0.000268,246.889969,67.010429,0.065637,-2.241002,11433.509766,0.000000
0.000000,0.000000,0.000000,0.000000,0.000000,0.000000,0.000000,0.000000,0,0,0,0,0,0,30.7693340688,34.6531472378,2131.875000,-0.536702,4.010448,66.847221,5.623088,2.153190,-0.100957,-0.000009,7.417626,2038.205078,2039.398438,12.000000,40.000000,0.000000,0.000000,2040.000122,2040.000000,2131.875000,0.000000,-0.000167,246.889969,68.597878,0.065724,-2.253659,11315.422852,0.000000
0.000000,0.000000,0.000000,0.000000,0.000000,0.000000,0.000000,0.000000,0,0,0,0,0,0,30.7693340688,34.6531472378,2131.875000,-0.536824,4.010409,66.847214,6.664368,2.142233,-0.098571,-0.000009,7.418085,2035.319824,2036.513306,12.000000,40.000000,0.000000,0.000000,2040.000122,2040.000000,2131.875000,0.000000,-0.000234,246.889969,70.136940,0.065804,-2.265698,11197.161133,0.000000
0.000000,0.000000,0.000000,0.000000,0.000000,0.000000,0.000000,0.000000,0,0,0,0,0,0,30.7693340689,34.6531472378,2131.875000,-0.536944,4.010371,66.847198,7.716068,2.131992,-0.081263,-0.000007,7.418092,2032.434448,2033.627808,12.000000,40.000000,0.000000,0.000000,2040.000122,2040.000000,2131.875000,0.000000,0.000000,246.889969,71.625526,0.065879,-2.277148,11078.722656,0.000000
0.000000,0.000000,0.000000,0.000000,0.000000,0.000000,0.000000,0.000000,0,0,0,0,0,0,30.7693340689,34.6531472378,2131.875000,-0.537063,4.010334,66.847191,8.777555,2.122476,-0.093111,-0.000008,7.417915,2029.548828,2030.742310,12.000000,40.000000,0.000000,0.000000,2030.000122,2030.000000,2131.875000,0.000000,-0.000234,246.889969,73.061691,0.065949,-2.288039,10960.105469,0.000000
0.000000,0.000000,0.000000,0.000000,0.000000,0.000000,0.000000,0.000000,0,0,0,0,0,0,30.7693340689,34.6531472378,2131.875000,-0.537162,4.010307,66.847183,9.669213,2.115106,-0.091637,-0.000008,7.417697,2027.144165,2028.337524,12.000000,40.000000,0.000000,0.000000,2030.000122,2030.000000,2131.875000,0.000000,-0.000201,246.889969,74.217148,0.066013,-2.296707,10861.117188,0.000000
0.000000,0.000000,0.000000,0.000000,0.000000,0.000000,0.000000,0.000000,0,0,0,0,0,0,30.7693340689,34.6531472378,2131.875000,-0.537315,4.010271,66.847176,11.017952,2.105021,-0.111516,-0.000010,7.218555,2023.432251,2024.625732,12.000000,40.000000,0.000000,0.000000,2030.000122,2030.000000,2131.875000,0.000000,-0.000234,246.889969,75.877609,0.066091,-2.309049,10711.807617,0.000000
0.000000,0.000000,0.000000,0.000000,0.000000,0.000000,0.000000,0.000000,0,0,0,0,0,0,30.7693340690,34.6531472378,2131.875000,-0.537433,4.010248,66.847168,12.105833,2.097799,-0.083882,-0.000007,7.345919,2020.599976,2021.793457,12.000000,40.000000,0.000000,0.000000,2020.000122,2020.000000,2131.875000,0.000000,-0.000167,246.889969,77.141396,0.066145,-2.318381,10592.916992,0.000000
0.000000,0.000000,0.000000,0.000000,0.000000,0.000000,0.000000,0.000000,0,0,0,0,0,0,30.7693340690,34.6531472378,2131.875000,-0.537542,4.010230,66.847153,13.109371,2.091848,-0.080448,-0.000007,7.387892,2017.933716,2019.127197,12.000000,40.000000,0.000000,0.000000,2020.000122,2020.000000,2131.875000,0.000000,-0.000167,246.889969,78.248154,0.066179,-2.326534,10483.361328,0.000000
0.000000,0.000000,0.000000,0.000000,0.000000,0.000000,0.000000,0.000000,0,0,0,0,0,0,30.7693340690,34.6531472378,2131.875000,-0.537660,4.010215,66.847145,14.210361,2.086092,-0.102320,-0.000009,7.369886,2015.094116,2016.287476,12.000000,40.000000,0.000000,0.000000,2020.000122,2020.000000,2131.875000,0.000000,-0.000201,246.889969,79.397972,0.066229,-2.335011,10364.054688,0.000000
0.000000,0.000000,0.000000,0.000000,0.000000,0.000000,0.000000,0.000000,0,0,0,0,0,0,30.7693340690,34.6531472378,2131.875000,-0.537777,4.010205,66.847137,15.317040,2.081110,-0.072331,-0.000006,7.399822,2012.225098,2013.418579,12.000000,40.000000,0.000000,0.000000,2020.000122,2020.000000,2131.875000,0.000000,-0.000167,246.889969,80.486687,0.066276,-2.343074,10244.373047,0.000000
0.000000,0.000000,0.000000,0.000000,0.000000,0.000000,0.000000,0.000000,0,0,0,0,0,0,30.7693340691,34.6531472378,2131.875000,-0.537896,4.010199,66.847130,16.428673,2.076907,-0.069357,-0.000006,7.409541,2009.345215,2010.538574,12.000000,40.000000,0.000000,0.000000,2010.000122,2010.000000,2131.875000,0.000000,-0.000167,246.889969,81.513344,0.066320,-2.350743,10124.417969,0.000000
0.000000,0.000000,0.000000,0.000000,0.000000,0.000000,0.000000,0.000000,0,0,0,0,0,0,30.7693340691,34.6531472378,2131.875000,-0.538016,4.010198,66.847122,17.544439,2.073490,-0.066624,-0.000006,7.412578,2006.461304,2007.654785,12.000000,40.000000,0.000000,0.000000,2010.000122,2010.000000,2131.875000,0.000000,-0.000167,246.889969,82.477142,0.066363,-2.358037,10004.223633,0.000000
0.000000,0.000000,0.000000,0.000000,0.000000,0.000000,0.000000,0.000000,0,0,0,0,0,0,30.7693340691,34.6531472378,2131.875000,-0.538136,4.010201,66.847107,18.663507,2.070861,-0.063475,-0.000005,7.413243,2003.576050,2004.769531,12.000000,40.000000,0.000000,0.000000,2010.000122,2010.000000,2131.875000,0.000000,-0.000201,246.889969,83.377419,0.066403,-2.364975,9883.800781,0.000000
0.000000,0.000000,0.000000,0.000000,0.000000,0.000000,0.000000,0.000000,0,0,0,0,0,0,30.7693340691,34.6531472378,2131.875000,-0.538236,4.010208,66.847099,19.597980,2.069275,-0.060653,-0.000005,7.413114,2001.171387,2002.364746,12.000000,40.000000,0.000000,0.000000,2010.000122,2010.000000,2131.875000,0.000000,-0.000134,246.889969,84.078735,0.066441,-2.370497,9783.273438,0.000000
0.000000,0.000000,0.000000,0.000000,0.000000,0.000000,0.000000,0.000000,0,0,0,0,0,0,30.7693340692,34.6531472377,2131.875000,-0.538369,4.010222,66.847092,20.814598,2.068038,-0.057562,-0.000005,7.125647,1997.822876,1999.016357,12.000000,40.000000,0.000000,0.000000,2000.000122,2000.000000,2131.875000,0.000000,-0.000201,246.889969,84.923584,0.066478,-2.377339,9650.963867,0.000000
0.000000,0.000000,0.000000,0.000000,0.000000,0.000000,0.000000,0.000000,0,0,0,0,0,0,30.7693340692,34.6531472377,2131.875000,-0.538500,4.010237,66.847084,22.125948,2.067748,-0.054077,-0.000004,7.159594,1994.525879,1995.719360,12.000000,40.000000,0.000000,0.000000,2000.000122,2000.000000,2131.875000,0.000000,-0.000100,246.889969,85.748535,0.066525,-2.384303,9510.100586,0.000000
0.000000,0.000000,0.000000,0.000000,0.000000,0.000000,0.000000,0.000000,0,0,0,0,0,0,30.7693340692,34.6531472377,2131.875000,-0.538592,4.010247,66.847076,23.156174,2.068281,-0.072363,-0.000005,7.316359,1991.977905,1993.171387,12.000000,40.000000,0.000000,0.000000,2000.000122,2000.000000,2131.875000,0.000000,-0.000268,246.889969,86.334831,0.066548,-2.389497,9399.462891,0.000000
0.000000,0.000000,0.000000,0.000000,0.000000,0.000000,0.000000,0.000000,0,0,0,0,0,0,30.7693340692,34.6531472377,2131.875000,-0.538688,4.010257,66.847069,24.279013,2.069622,-0.042268,-0.000003,7.377389,1989.126953,1990.320435,12.000000,40.000000,0.000000,0.000000,1990.000122,1990.000000,2131.875000,0.000000,-0.000067,246.889969,86.912323,0.066580,-2.394897,9278.071289,0.000000
0.000000,0.000000,0.000000,0.000000,0.000000,0.000000,0.000000,0.000000,0,0,0,0,0,0,30.7693340692,34.6531472377,2131.875000,-0.538781,4.010264,66.847061,25.400013,2.071758,-0.037644,-0.000002,7.397937,1986.253174,1987.446655,12.000000,40.000000,0.000000,0.000000,1990.000122,1990.000000,2131.875000,0.000000,0.000000,246.889969,87.425171,0.066611,-2.400033,9156.274414,0.000000
0.000000,0.000000,0.000000,0.000000,0.000000,0.000000,0.000000,0.000000,0,0,0,0,0,0,30.7693340693,34.6531472377,2131.875000,-0.538871,4.010271,66.847054,26.518332,2.074686,-0.056368,-0.000004,7.404577,1983.371338,1984.564697,12.000000,40.000000,0.000000,0.000000,1990.000122,1990.000000,2131.875000,0.000000,-0.000100,246.889969,87.873619,0.066641,-2.404919,9034.159180,0.000000
0.000000,0.000000,0.000000,0.000000,0.000000,0.000000,0.000000,0.000000,0,0,0,0,0,0,30.7693340693,34.6531472377,2131.875000,-0.538961,4.010279,66.847046,27.633057,2.078401,-0.020206,-0.000001,7.406310,1980.486572,1981.680054,12.000000,40.000000,0.000000,0.000000,1980.000122,1980.000000,2131.875000,0.000000,-0.000067,246.889969,88.258072,0.066668,-2.409565,8911.751953,0.000000
0.000000,0.000000,0.000000,0.000000,0.000000,0.000000,0.000000,0.000000,0,0,0,0,0,0,30.7693340693,34.6531472377,2131.875000,-0.539053,4.010287,66.847038,28.743444,2.082900,-0.017823,-0.000001,7.406293,1977.600830,1978.794189,12.000000,40.000000,0.000000,0.000000,1980.000122,1980.000000,2131.875000,0.000000,0.000000,246.889969,88.579025,0.066694,-2.413985,8789.057617,0.000000
0.000000,0.000000,0.000000,0.000000,0.000000,0.000000,0.000000,0.000000,0,0,0,0,0,0,30.7693340693,34.6531472376,2131.875000,-0.539147,4.010295,66.847031,29.848675,2.088179,-0.014585,-0.000001,7.405636,1974.714600,1975.908081,12.000000,40.000000,0.000000,0.000000,1980.000122,1980.000000,2131.875000,0.000000,0.000033,246.889969,88.837105,0.066719,-2.418189,8666.070313,0.000000
0.000000,0.000000,0.000000,0.000000,0.000000,0.000000,0.000000,0.000000,0,0,0,0,0,0,30.7693340693,34.6531472376,2131.875000,-0.539242,4.010304,66.847023,30.947962,2.094231,-0.011270,-0.000001,7.404728,1971.828369,1973.021729,12.000000,40.000000,0.000000,0.000000,1980.000122,1980.000000,2131.875000,0.000000,0.000033,246.889969,89.033043,0.066743,-2.422187,8542.785156,0.000000
0.000000,0.000000,0.000000,0.000000,0.000000,0.000000,0.000000,0.000000,0,0,0,0,0,0,30.7693340693,34.6531472376,2131.875000,-0.539339,4.010315,66.847015,32.040554,2.101050,-0.007828,-0.000001,7.403707,1968.941895,1970.135376,12.000000,40.000000,0.000000,0.000000,1970.000122,1970.000000,2131.875000,0.000000,0.000000,246.889969,89.167694,0.066767,-2.425989,8419.191406,0.000000
0.000000,0.000000,0.000000,0.000000,0.000000,0.000000,0.000000,0.000000,0,0,0,0,0,0,30.7693340694,34.6531472376,2131.875000,-0.539440,4.010329,66.847008,33.125721,2.108628,-0.006347,-0.000000,7.175320,1965.908936,1967.102417,12.000000,40.000000,0.000000,0.000000,1970.000122,1970.000000,2131.875000,0.000000,0.000100,246.889969,89.241989,0.066789,-2.429606,8294.222656,0.000000
0.000000,0.000000,0.000000,0.000000,0.000000,0.000000,0.000000,0.000000,0,0,0,0,0,0,30.7693340694,34.6531472376,2131.875000,-0.539541,4.010344,66.847000,34.202801,2.116958,-0.026793,-0.000002,7.319759,1963.128540,1964.322021,12.000000,40.000000,0.000000,0.000000,1970.000122,1970.000000,2131.875000,0.000000,0.000134,246.889969,89.256989,0.066810,-2.433046,8170.767578,0.000000
0.000000,0.000000,0.000000,0.000000,0.000000,0.000000,0.000000,0.000000,0,0,0,0,0,0,30.7693340694,34.6531472376,2131.875000,-0.539643,4.010361,66.846992,35.271061,2.126029,0.004903,0.000000,7.362945,1960.262207,1961.455566,12.000000,40.000000,0.000000,0.000000,1960.000122,1960.000000,2131.875000,0.000000,0.000033,246.889969,89.213837,0.066831,-2.436318,8046.344238,0.000000
0.000000,0.000000,0.000000,0.000000,0.000000,0.000000,0.000000,0.000000,0,0,0,0,0,0,30.7693340694,34.6531472376,2131.875000,-0.539749,4.010380,66.846985,36.329937,2.135834,0.007083,0.000001,7.386797,1957.388672,1958.582153,12.000000,40.000000,0.000000,0.000000,1960.000122,1960.000000,2131.875000,0.000000,0.000067,246.889969,89.113770,0.066852,-2.439430,7921.520508,0.000000
0.000000,0.000000,0.000000,0.000000,0.000000,0.000000,0.000000,0.000000,0,0,0,0,0,0,30.7693340694,34.6531472376,2131.875000,-0.539858,4.010401,66.846970,37.378822,2.146362,0.009418,0.000001,7.393519,1954.506714,1955.700195,12.000000,40.000000,0.000000,0.000000,1960.000122,1960.000000,2131.875000,0.000000,0.000100,246.889969,88.958107,0.066874,-2.442391,7796.271484,0.000000
0.000000,0.000000,0.000000,0.000000,0.000000,0.000000,0.000000,0.000000,0,0,0,0,0,0,30.7693340695,34.6531472375,2131.875000,-0.539971,4.010424,66.846962,38.417156,2.157603,0.013354,0.000001,7.395027,1951.621704,1952.815186,12.000000,40.000000,0.000000,0.000000,1960.000122,1960.000000,2131.875000,0.000000,0.000067,246.889969,88.748276,0.066894,-2.445206,7670.626465,0.000000
0.000000,0.000000,0.000000,0.000000,0.000000,0.000000,0.000000,0.000000,0,0,0,0,0,0,30.7693340695,34.6531472375,2131.875000,-0.540087,4.010448,66.846954,39.444439,2.169545,0.015017,0.000001,7.394680,1948.735596,1949.929077,12.000000,40.000000,0.000000,0.000000,1950.000122,1950.000000,2131.875000,0.000000,0.000134,246.889969,88.485748,0.066916,-2.447884,7544.587402,0.000000
0.000000,0.000000,0.000000,0.000000,0.000000,0.000000,0.000000,0.000000,0,0,0,0,0,0,30.7693340695,34.6531472375,2131.875000,-0.540207,4.010475,66.846947,40.460190,2.182178,0.016748,0.000001,7.393656,1945.849121,1947.042480,12.000000,40.000000,0.000000,0.000000,1950.000122,1950.000000,2131.875000,0.000000,0.000067,246.889969,88.172096,0.066937,-2.450431,7418.144531,0.000000
0.000000,0.000000,0.000000,0.000000,0.000000,0.000000,0.000000,0.000000,0,0,0,0,0,0,30.7693340695,34.6531472375,2131.875000,-0.540331,4.010503,66.846931,41.463974,2.195489,0.018528,0.000002,7.392369,1942.962402,1944.155762,12.000000,40.000000,0.000000,0.000000,1950.000122,1950.000000,2131.875000,0.000000,0.000134,246.889969,87.808960,0.066958,-2.452853,7291.285645,0.000000
0.000000,0.000000,0.000000,0.000000,0.000000,0.000000,0.000000,0.000000,0,0,0,0,0,0,30.7693340695,34.6531472375,2131.875000,-0.540457,4.010534,66.846924,42.455399,2.209467,0.008754,0.000001,7.390964,1940.075562,1941.269043,12.000000,40.000000,0.000000,0.000000,1940.000122,1940.000000,2131.875000,0.000000,0.000536,246.889969,87.398033,0.066979,-2.455157,7163.995605,0.000000
0.000000,0.000000,0.000000,0.000000,0.000000,0.000000,0.000000,0.000000,0,0,0,0,0,0,30.7693340696,34.6531472374,2131.875000,-0.540590,4.010569,66.846916,43.434113,2.224100,0.001958,0.000000,7.131955,1937.043823,1938.237305,12.000000,40.000000,0.000000,0.000000,1940.000122,1940.000000,2131.875000,0.000000,0.000134,246.889969,86.941078,0.067000,-2.457349,7035.027344,0.000000
0.000000,0.000000,0.000000,0.000000,0.000000,0.000000,0.000000,0.000000,0,0,0,0,0,0,30.7693340696,34.6531472374,2131.875000,-0.540723,4.010605,66.846901,44.399792,2.239372,0.014120,0.000001,7.263446,1934.266602,1935.460083,12.000000,40.000000,0.000000,0.000000,1940.000122,1940.000000,2131.875000,0.000000,0.000033,246.889969,86.439911,0.067020,-2.459433,6907.780273,0.000000
0.000000,0.000000,0.000000,0.000000,0.000000,0.000000,0.000000,0.000000,0,0,0,0,0,0,30.7693340696,34.6531472374,2131.875000,-0.540858,4.010643,66.846893,45.352139,2.255273,0.016473,0.000002,7.364561,1931.402588,1932.596069,12.000000,40.000000,0.000000,0.000000,1940.000122,1940.000000,2131.875000,0.000000,0.000100,246.889969,85.896400,0.067042,-2.461416,6779.296387,0.000000
0.000000,0.000000,0.000000,0.000000,0.000000,0.000000,0.000000,0.000000,0,0,0,0,0,0,30.7693340696,34.6531472374,2131.875000,-0.540998,4.010684,66.846878,46.290924,2.271788,0.036914,0.000004,7.377268,1928.523682,1929.717041,12.000000,40.000000,0.000000,0.000000,1930.000122,1930.000000,2131.875000,0.000000,0.000067,246.889969,85.312469,0.067064,-2.463301,6650.178223,0.000000
0.000000,0.000000,0.000000,0.000000,0.000000,0.000000,0.000000,0.000000,0,0,0,0,0,0,30.7693340697,34.6531472374,2131.875000,-0.541145,4.010725,66.846870,47.215969,2.288905,0.029782,0.000003,7.380511,1925.639526,1926.832886,12.000000,40.000000,0.000000,0.000000,1930.000122,1930.000000,2131.875000,0.000000,0.000335,246.889969,84.690079,0.067086,-2.465095,6520.487793,0.000000
0.000000,0.000000,0.000000,0.000000,0.000000,0.000000,0.000000,0.000000,0,0,0,0,0,0,30.7693340697,34.6531472373,2131.875000,-0.541297,4.010769,66.846855,48.127079,2.306612,0.021202,0.000002,7.380548,1922.753418,1923.946899,12.000000,40.000000,0.000000,0.000000,1930.000122,1930.000000,2131.875000,0.000000,0.000067,246.889969,84.031212,0.067109,-2.466800,6390.232422,0.000000
0.000000,0.000000,0.000000,0.000000,0.000000,0.000000,0.000000,0.000000,0,0,0,0,0,0,30.7693340697,34.6531472373,2131.875000,-0.541451,4.010815,66.846848,49.024113,2.324893,0.023076,0.000003,7.379432,1919.866699,1921.060181,12.000000,40.000000,0.000000,0.000000,1920.000122,1920.000000,2131.875000,0.000000,0.000100,246.889969,83.337898,0.067133,-2.468423,6259.397461,0.000000
0.000000,0.000000,0.000000,0.000000,0.000000,0.000000,0.000000,0.000000,0,0,0,0,0,0,30.7693340697,34.6531472373,2131.875000,-0.541611,4.010864,66.846832,49.906967,2.343736,0.024168,0.000003,7.362295,1916.969971,1918.163330,12.000000,40.000000,0.000000,0.000000,1920.000122,1920.000000,2131.875000,0.000000,0.000134,246.889969,82.612206,0.067156,-2.469966,6127.864746,0.000000
0.000000,0.000000,0.000000,0.000000,0.000000,0.000000,0.000000,0.000000,0,0,0,0,0,0,30.7693340698,34.6531472372,2131.875000,-0.541774,4.010915,66.846817,50.775566,2.363127,0.029760,0.000004,7.370197,1914.089233,1915.282593,12.000000,40.000000,0.000000,0.000000,1920.000122,1920.000000,2131.875000,0.000000,0.000000,246.889969,81.856201,0.067180,-2.471434,5995.862305,0.000000
0.000000,0.000000,0.000000,0.000000,0.000000,0.000000,0.000000,0.000000,0,0,0,0,0,0,30.7693340698,34.6531472372,2131.875000,-0.541943,4.010967,66.846802,51.629864,2.383053,0.039031,0.000005,7.372247,1911.204224,1912.397705,12.000000,40.000000,0.000000,0.000000,1920.000122,1920.000000,2131.875000,0.000000,0.000201,246.889969,81.071999,0.067205,-2.472830,5863.160156,0.000000
0.000000,0.000000,0.000000,0.000000,0.000000,0.000000,0.000000,0.000000,0,0,0,0,0,0,30.7693340698,34.6531472372,2131.875000,-0.542136,4.011029,66.846786,52.539192,2.405229,0.026558,0.000003,7.158541,1907.935547,1909.129028,12.000000,40.000000,0.000000,0.000000,1910.000122,1910.000000,2131.875000,0.000000,0.000201,246.889969,80.193062,0.067238,-2.474265,5717.129395,0.000000
0.000000,0.000000,0.000000,0.000000,0.000000,0.000000,0.000000,0.000000,0,0,0,0,0,0,30.7693340699,34.6531472372,2131.875000,-0.542299,4.011082,66.846771,53.295528,2.424459,0.035260,0.000005,7.246097,1905.396240,1906.589722,12.000000,40.000000,0.000000,0.000000,1910.000122,1910.000000,2131.875000,0.000000,0.000435,246.889969,79.427422,0.067253,-2.475420,5595.284180,0.000000
0.000000,0.000000,0.000000,0.000000,0.000000,0.000000,0.000000,0.000000,0,0,0,0,0,0,30.7693340699,34.6531472371,2131.875000,-0.542497,4.011146,66.846756,54.173859,2.447722,0.033817,0.000005,7.330026,1902.279175,1903.472534,12.000000,40.000000,0.000000,0.000000,1910.000122,1910.000000,2131.875000,0.000000,-0.000033,246.889969,78.499046,0.067283,-2.476719,5449.209473,0.000000
0.000000,0.000000,0.000000,0.000000,0.000000,0.000000,0.000000,0.000000,0,0,0,0,0,0,30.7693340699,34.6531472371,2131.875000,-0.542668,4.011203,66.846741,54.904026,2.467848,0.035536,0.000005,7.329751,1899.643433,1900.836914,12.000000,40.000000,0.000000,0.000000,1900.000122,1900.000000,2131.875000,0.000000,0.000569,246.889969,77.695488,0.067300,-2.477764,5324.888672,0.000000
0.000000,0.000000,0.000000,0.000000,0.000000,0.000000,0.000000,0.000000,0,0,0,0,0,0,30.7693340699,34.6531472371,2131.875000,-0.542876,4.011272,66.846725,55.751621,2.492141,0.014805,0.000002,7.361751,1896.502686,1897.696167,12.000000,40.000000,0.000000,0.000000,1900.000122,1900.000000,2131.875000,0.000000,0.000268,246.889969,76.726891,0.067336,-2.478939,5176.734863,0.000000
0.000000,0.000000,0.000000,0.000000,0.000000,0.000000,0.000000,0.000000,0,0,0,0,0,0,30.7693340700,34.6531472370,2131.875000,-0.543074,4.011334,66.846710,56.519363,2.515043,0.016927,0.000003,7.346936,1893.631958,1894.825317,12.000000,40.000000,0.000000,0.000000,1900.000122,1900.000000,2131.875000,0.000000,0.000268,246.889969,75.816818,0.067361,-2.479968,5039.364746,0.000000
0.000000,0.000000,0.000000,0.000000,0.000000,0.000000,0.000000,0.000000,0,0,0,0,0,0,30.7693340700,34.6531472370,2131.875000,-0.543260,4.011392,66.846695,57.210846,2.536427,0.015840,0.000002,7.304296,1890.988403,1892.181885,12.000000,40.000000,0.000000,0.000000,1890.000122,1890.000000,2131.875000,0.000000,0.000335,246.889969,74.970947,0.067379,-2.480868,4912.453125,0.000000
0.000000,0.000000,0.000000,0.000000,0.000000,0.000000,0.000000,0.000000,0,0,0,0,0,0,30.7693340701,34.6531472370,2131.875000,-0.543484,4.011463,66.846680,57.989342,2.555385,0.031471,0.000005,7.336264,1887.848999,1889.042480,12.000000,40.000000,0.000000,0.000000,1890.000122,1890.000000,2131.875000,0.000000,0.000234,246.889969,73.959206,0.067418,-2.481878,4761.159668,0.000000
0.000000,0.000000,0.000000,0.000000,0.000000,0.000000,0.000000,0.000000,0,0,0,0,0,0,30.7693340701,34.6531472369,2131.875000,-0.543663,4.011521,66.846664,58.573265,2.551509,0.006555,0.000001,7.305907,1885.222778,1886.416260,12.000000,40.000000,0.000000,0.000000,1890.000122,1890.000000,2131.875000,0.000000,0.000033,246.889969,73.094742,0.067445,-2.482692,4632.524902,0.000000
0.000000,0.000000,0.000000,0.000000,0.000000,0.000000,0.000000,0.000000,0,0,0,0,0,0,30.7693340701,34.6531472369,2131.875000,-0.543833,4.011580,66.846649,59.265575,2.547271,0.003354,0.000000,7.340044,1882.082764,1883.276245,12.000000,40.000000,0.000000,0.000000,1890.000122,1890.000000,2131.875000,0.000000,0.000100,246.889969,72.065483,0.067496,-2.483606,4478.757324,0.000000
0.000000,0.000000,0.000000,0.000000,0.000000,0.000000,0.000000,0.000000,0,0,0,0,0,0,30.7693340701,34.6531472369,2131.875000,-0.543950,4.011623,66.846642,59.853096,2.543971,0.013680,0.000001,7.157802,1879.340454,1880.533813,12.000000,40.000000,0.000000,0.000000,1880.000122,1880.000000,2131.875000,0.000000,0.000067,246.889969,71.189926,0.067519,-2.484342,4346.323730,0.000000
0.000000,0.000000,0.000000,0.000000,0.000000,0.000000,0.000000,0.000000,0,0,0,0,0,0,30.7693340701,34.6531472369,2131.875000,-0.544066,4.011663,66.846626,60.549305,2.540416,0.003298,0.000000,7.300731,1876.289307,1877.482666,12.000000,40.000000,0.000000,0.000000,1880.000122,1880.000000,2131.875000,0.000000,-0.000033,246.889969,70.151917,0.067560,-2.485169,4190.963867,0.000000
0.000000,0.000000,0.000000,0.000000,0.000000,0.000000,0.000000,0.000000,0,0,0,0,0,0,30.7693340702,34.6531472368,2131.875000,-0.544158,4.011693,66.846626,61.193581,2.537467,-0.013424,-0.000001,7.335103,1873.422363,1874.615845,12.000000,40.000000,0.000000,0.000000,1880.000122,1880.000000,2131.875000,0.000000,0.000000,246.889969,69.192650,0.067588,-2.485894,4045.326172,0.000000
0.000000,0.000000,0.000000,0.000000,0.000000,0.000000,0.000000,0.000000,0,0,0,0,0,0,30.7693340702,34.6531472368,2131.875000,-0.544234,4.011715,66.846619,61.785404,2.535045,-0.023335,-0.000001,7.334256,1870.733398,1871.926758,12.000000,40.000000,0.000000,0.000000,1870.000122,1870.000000,2131.875000,0.000000,-0.000033,246.889969,68.314079,0.067605,-2.486527,3909.500977,0.000000
0.000000,0.000000,0.000000,0.000000,0.000000,0.000000,0.000000,0.000000,0,0,0,0,0,0,30.7693340702,34.6531472368,2131.875000,-0.544315,4.011738,66.846611,62.486195,2.532531,-0.035761,-0.000002,7.327734,1867.648315,1868.841797,12.000000,40.000000,0.000000,0.000000,1870.000122,1870.000000,2131.875000,0.000000,-0.000100,246.889969,67.278740,0.067638,-2.487239,3748.552734,0.000000
0.000000,0.000000,0.000000,0.000000,0.000000,0.000000,0.000000,0.000000,0,0,0,0,0,0,30.7693340702,34.6531472368,2131.875000,-0.544385,4.011757,66.846603,63.134232,2.530548,-0.043940,-0.000002,7.344422,1864.769409,1865.962769,12.000000,40.000000,0.000000,0.000000,1870.000122,1870.000000,2131.875000,0.000000,-0.000100,246.889969,66.327827,0.067660,-2.487863,3597.525879,0.000000
0.000000,0.000000,0.000000,0.000000,0.000000,0.000000,0.000000,0.000000,0,0,0,0,0,0,30.7693340702,34.6531472368,2131.875000,-0.544449,4.011776,66.846596,63.783199,2.528889,-0.035371,-0.000002,7.348373,1861.885498,1863.078857,12.000000,40.000000,0.000000,0.000000,1870.000122,1870.000000,2131.875000,0.000000,-0.000201,246.889969,65.383339,0.067680,-2.488456,3444.333008,0.000000
0.000000,0.000000,0.000000,0.000000,0.000000,0.000000,0.000000,0.000000,0,0,0,0,0,0,30.7693340702,34.6531472368,2131.875000,-0.544514,4.011795,66.846596,64.432953,2.527553,-0.045123,-0.000002,7.349309,1858.999878,1860.193237,12.000000,40.000000,0.000000,0.000000,1860.000122,1860.000000,2131.875000,0.000000,-0.000067,246.889969,64.447021,0.067699,-2.489020,3288.800781,0.000000
0.000000,0.000000,0.000000,0.000000,0.000000,0.000000,0.000000,0.000000,0,0,0,0,0,0,30.7693340702,34.6531472368,2131.875000,-0.544580,4.011813,66.846588,65.083328,2.526543,-0.048233,-0.000002,7.349193,1856.113525,1857.307007,12.000000,40.000000,0.000000,0.000000,1860.000122,1860.000000,2131.875000,0.000000,-0.000134,246.889969,63.520569,0.067717,-2.489557,3130.683838,0.000000
0.000000,0.000000,0.000000,0.000000,0.000000,0.000000,0.000000,0.000000,0,0,0,0,0,0,30.7693340702,34.6531472368,2131.875000,-0.544645,4.011831,66.846581,65.734146,2.525859,-0.049603,-0.000002,7.348703,1853.227051,1854.420532,12.000000,40.000000,0.000000,0.000000,1860.000122,1860.000000,2131.875000,0.000000,-0.000100,246.889969,62.605625,0.067735,-2.490067,2969.672852,0.000000
0.000000,0.000000,0.000000,0.000000,0.000000,0.000000,0.000000,0.000000,0,0,0,0,0,0,30.7693340703,34.6531472368,2131.875000,-0.544713,4.011850,66.846581,66.385246,2.525501,-0.049505,-0.000002,7.089037,1850.195557,1851.389038,12.000000,40.000000,0.000000,0.000000,1850.000122,1850.000000,2131.875000,0.000000,-0.000167,246.889969,61.703770,0.067753,-2.490552,2802.386475,0.000000
0.000000,0.000000,0.000000,0.000000,0.000000,0.000000,0.000000,0.000000,0,0,0,0,0,0,30.7693340703,34.6531472367,2131.875000,-0.544774,4.011868,66.846573,66.982201,2.525459,-0.048798,-0.000002,7.251346,1847.645630,1848.838989,12.000000,40.000000,0.000000,0.000000,1850.000122,1850.000000,2131.875000,0.000000,-0.000134,246.889969,60.889877,0.067765,-2.490977,2650.611328,0.000000
0.000000,0.000000,0.000000,0.000000,0.000000,0.000000,0.000000,0.000000,0,0,0,0,0,0,30.7693340703,34.6531472367,2131.875000,-0.544845,4.011890,66.846565,67.687622,2.525765,-0.076058,-0.000004,7.325371,1844.555542,1845.749023,12.000000,40.000000,0.000000,0.000000,1850.000122,1850.000000,2131.875000,0.000000,-0.000234,246.889969,59.945385,0.067787,-2.491453,2464.933350,0.000000
0.000000,0.000000,0.000000,0.000000,0.000000,0.000000,0.000000,0.000000,0,0,0,0,0,0,30.7693340703,34.6531472367,2131.875000,-0.544914,4.011911,66.846558,68.338562,2.526384,-0.038893,-0.000002,7.338827,1841.676514,1842.869995,12.000000,40.000000,0.000000,0.000000,1850.000122,1850.000000,2131.875000,0.000000,-0.000134,246.889969,59.091732,0.067801,-2.491871,2287.630127,0.000000
0.000000,0.000000,0.000000,0.000000,0.000000,0.000000,0.000000,0.000000,0,0,0,0,0,0,30.7693340703,34.6531472367,2131.875000,-0.544985,4.011932,66.846558,68.989105,2.527331,-0.038610,-0.000002,7.342779,1838.792603,1839.985962,12.000000,40.000000,0.000000,0.000000,1840.000122,1840.000000,2131.875000,0.000000,-0.000100,246.889969,58.256916,0.067816,-2.492268,2104.074219,0.000000
0.000000,0.000000,0.000000,0.000000,0.000000,0.000000,0.000000,0.000000,0,0,0,0,0,0,30.7693340703,34.6531472367,2131.875000,-0.545058,4.011953,66.846550,69.639091,2.528605,-0.067190,-0.000004,7.343706,1835.906860,1837.100220,12.000000,40.000000,0.000000,0.000000,1840.000122,1840.000000,2131.875000,0.000000,-0.000167,246.889969,57.442223,0.067831,-2.492646,1912.936890,0.000000
0.000000,0.000000,0.000000,0.000000,0.000000,0.000000,0.000000,0.000000,0,0,0,0,0,0,30.7693340703,34.6531472367,2131.875000,-0.545131,4.011976,66.846542,70.288345,2.530202,-0.030050,-0.000002,7.343567,1833.020508,1834.213989,12.000000,40.000000,0.000000,0.000000,1840.000122,1840.000000,2131.875000,0.000000,-0.000134,246.889969,56.648865,0.067844,-2.493006,1712.230347,0.000000
0.000000,0.000000,0.000000,0.000000,0.000000,0.000000,0.000000,0.000000,0,0,0,0,0,0,30.7693340703,34.6531472367,2131.875000,-0.545208,4.011998,66.846535,70.936707,2.532126,-0.062665,-0.000004,7.343051,1830.133911,1831.327393,12.000000,40.000000,0.000000,0.000000,1830.000122,1830.000000,2131.875000,0.000000,-0.000067,246.889969,55.877987,0.067858,-2.493347,1498.880127,0.000000
0.000000,0.000000,0.000000,0.000000,0.000000,0.000000,0.000000,0.000000,0,0,0,0,0,0,30.7693340704,34.6531472367,2131.875000,-0.545286,4.012021,66.846527,71.584007,2.534373,-0.025753,-0.000002,7.342400,1827.247192,1828.440674,12.000000,40.000000,0.000000,0.000000,1830.000122,1830.000000,2131.875000,0.000000,-0.000033,246.889969,55.130680,0.067872,-2.493672,1267.724976,0.000000
0.000000,0.000000,0.000000,0.000000,0.000000,0.000000,0.000000,0.000000,0,0,0,0,0,0,30.7693340704,34.6531472366,2131.875000,-0.545367,4.012043,66.846527,72.230080,2.536943,-0.024931,-0.000002,7.341699,1824.360474,1825.553955,12.000000,40.000000,0.000000,0.000000,1830.000122,1830.000000,2131.875000,0.000000,-0.000033,246.889969,54.407955,0.067885,-2.493982,1008.809387,0.000000
0.000000,0.000000,0.000000,0.000000,0.000000,0.000000,0.000000,0.000000,0,0,0,0,0,0,30.7693340704,34.6531472366,2131.875000,-0.545452,4.012065,66.846519,72.874763,2.539837,-0.049753,-0.000003,7.191251,1821.371094,1822.564575,12.000000,40.000000,0.000000,0.000000,1830.000122,1830.000000,2131.875000,0.000000,-0.000201,246.889969,53.710754,0.067901,-2.494276,689.507874,0.000000
0.000000,0.000000,0.000000,0.000000,0.000000,0.000000,0.000000,0.000000,0,0,0,0,0,0,30.7693340704,34.6531472366,2131.875000,-0.545536,4.012088,66.846512,73.517899,2.543050,-0.020428,-0.000001,7.289032,1818.560913,1819.754395,12.000000,40.000000,0.000000,0.000000,1820.000122,1820.000000,2131.875000,0.000000,-0.000067,246.889969,53.039955,0.067915,-2.494555,175.009644,0.000000
0.000000,0.000000,0.000000,0.000000,0.000000,0.000000,0.000000,0.000000,0,0,0,0,0,0,30.7693340704,34.6531472366,2131.875000,-0.545624,4.012110,66.846504,74.159325,2.546584,-0.020570,-0.000001,7.323522,1815.691162,1816.884521,12.000000,40.000000,0.000000,0.000000,1820.000122,1820.000000,2131.875000,0.000000,-0.000067,246.889969,52.396362,0.067929,-2.494822,-509.324768,0.000000
0.000000,0.000000,0.000000,0.000000,0.000000,0.000000,0.000000,0.000000,0,0,0,0,0,0,30.7693340704,34.6531472366,2131.875000,-0.545714,4.012131,66.846497,74.798882,2.550437,-0.020334,-0.000001,7.333161,1812.810303,1814.003784,12.000000,40.000000,0.000000,0.000000,1820.000122,1820.000000,2131.875000,0.000000,0.000000,246.889969,51.780716,0.067943,-2.495075,-697.018250,0.000000
0.000000,0.000000,0.000000,0.000000,0.000000,0.000000,0.000000,0.000000,0,0,0,0,0,0,30.7693340704,34.6531472366,2131.875000,-0.545805,4.012152,66.846489,75.436409,2.554609,-0.042203,-0.000003,7.336053,1809.925537,1811.119019,12.000000,40.000000,0.000000,0.000000,1810.000122,1810.000000,2131.875000,0.000000,-0.000134,246.889969,51.193676,0.067958,-2.495315,-824.948181,0.000000
0.000000,0.000000,0.000000,0.000000,0.000000,0.000000,0.000000,0.000000,0,0,0,0,0,0,30.7693340705,34.6531472366,2131.875000,-0.545898,4.012173,66.846481,76.071770,2.559093,-0.012594,-0.000001,7.336585,1807.039551,1808.232910,12.000000,40.000000,0.000000,0.000000,1810.000122,1810.000000,2131.875000,0.000000,0.000000,246.889969,50.635845,0.067971,-2.495544,-923.098999,0.000000
0.000000,0.000000,0.000000,0.000000,0.000000,0.000000,0.000000,0.000000,0,0,0,0,0,0,30.7693340705,34.6531472366,2131.875000,-0.545995,4.012191,66.846474,76.704811,2.563894,-0.014283,-0.000001,7.336284,1804.152954,1805.346436,12.000000,40.000000,0.000000,0.000000,1810.000122,1810.000000,2131.875000,0.000000,-0.000067,246.889969,50.107746,0.067986,-2.495762,-1002.684875,0.000000
0.000000,0.000000,0.000000,0.000000,0.000000,0.000000,0.000000,0.000000,0,0,0,0,0,0,30.7693340705,34.6531472365,2131.875000,-0.546095,4.012208,66.846466,77.335365,2.569007,-0.015021,-0.000001,7.335688,1801.266235,1802.459717,12.000000,40.000000,0.000000,0.000000,1810.000122,1810.000000,2131.875000,0.000000,-0.000000,246.889969,49.609837,0.068001,-2.495969,-1069.361694,0.000000
0.000000,0.000000,0.000000,0.000000,0.000000,0.000000,0.000000,0.000000,0,0,0,0,0,0,30.7693340705,34.6531472365,2131.875000,-0.546196,4.012223,66.846458,77.963295,2.574431,-0.015242,-0.000001,7.334985,1798.379395,1799.572876,12.000000,40.000000,0.000000,0.000000,1800.000122,1800.000000,2131.875000,0.000000,0.000067,246.889969,49.142506,0.068016,-2.496166,-1126.450928,0.000000
0.000000,0.000000,0.000000,0.000000,0.000000,0.000000,0.000000,0.000000,0,0,0,0,0,0,30.7693340705,34.6531472365,2131.875000,-0.546300,4.012236,66.846451,78.588470,2.580163,-0.013306,-0.000001,7.334242,1795.492554,1796.686035,12.000000,40.000000,0.000000,0.000000,1800.000122,1800.000000,2131.875000,0.000000,0.000067,246.889969,48.706074,0.068031,-2.496354,-1176.096802,0.000000
0.000000,0.000000,0.000000,0.000000,0.000000,0.000000,0.000000,0.000000,0,0,0,0,0,0,30.7693340706,34.6531472365,2131.875000,-0.546410,4.012245,66.846443,79.210732,2.586202,-0.014562,-0.000001,7.115897,1792.457886,1793.651367,12.000000,40.000000,0.000000,0.000000,1800.000122,1800.000000,2131.875000,0.000000,0.000000,246.889969,48.300793,0.068048,-2.496532,-1226.341919,0.000000
0.000000,0.000000,0.000000,0.000000,0.000000,0.000000,0.000000,0.000000,0,0,0,0,0,0,30.7693340706,34.6531472365,2131.875000,-0.546519,4.012250,66.846428,79.829941,2.592553,-0.014961,-0.000001,7.237492,1789.680054,1790.873535,12.000000,40.000000,0.000000,0.000000,1790.000122,1790.000000,2131.875000,0.000000,0.000067,246.889969,47.926846,0.068065,-2.496701,-1259.379517,0.000000
0.000000,0.000000,0.000000,0.000000,0.000000,0.000000,0.000000,0.000000,0,0,0,0,0,0,30.7693340706,34.6531472365,2131.875000,-0.546630,4.012251,66.846420,80.445961,2.599206,-0.028230,-0.000002,7.308022,1786.818237,1788.011719,12.000000,40.000000,0.000000,0.000000,1790.000122,1790.000000,2131.875000,0.000000,-0.000067,246.889969,47.584358,0.068081,-2.496862,-1292.846436,0.000000
0.000000,0.000000,0.000000,0.000000,0.000000,0.000000,0.000000,0.000000,0,0,0,0,0,0,30.7693340706,34.6531472365,2131.875000,-0.546741,4.012248,66.846413,81.058640,2.606159,-0.008513,-0.000001,7.322820,1783.940186,1785.133667,12.000000,40.000000,0.000000,0.000000,1790.000122,1790.000000,2131.875000,0.000000,-0.000067,246.889969,47.273384,0.068097,-2.497016,-1323.698364,0.000000
0.000000,0.000000,0.000000,0.000000,0.000000,0.000000,0.000000,0.000000,0,0,0,0,0,0,30.7693340708,34.6531472364,2131.875000,-0.547287,4.012219,66.846375,81.663551,2.611639,-0.099314,-0.000317,7.327461,1781.056396,1782.249878,12.000000,40.000000,0.000000,0.000000,1780.000122,1780.000000,2131.875000,0.000000,0.004185,246.889969,46.993912,0.066857,-2.497162,-1351.844116,0.000000
0.000000,0.000000,0.000000,0.000000,0.000000,0.000000,0.000000,0.000000,0,0,0,0,0,0,30.7693340720,34.6531472359,2131.875000,-0.553667,4.011854,66.845871,82.268272,2.618223,-0.071839,-0.000349,7.328700,1778.170654,1779.364136,12.000000,40.000000,0.000000,0.000000,1780.000122,1780.000000,2131.875000,0.000051,-0.009710,246.889969,46.745869,0.066627,-2.497300,-1377.480347,0.000000
0.000000,0.000000,0.000000,0.000000,0.000000,0.000000,0.000000,0.000000,0,0,0,0,0,0,30.7693340733,34.6531472354,2131.875000,-0.559945,4.011399,66.845383,82.871162,2.626630,-0.068968,-0.000267,7.328624,1775.284058,1776.477539,12.000000,40.000000,0.000000,0.000000,1780.000122,1780.000000,2131.875000,0.000089,-0.007232,246.889969,46.529133,0.067366,-2.497432,-1400.868774,0.000000
0.000000,0.000000,0.000000,0.000000,0.000000,0.000000,0.000000,0.000000,0,0,0,0,0,0,30.7693340743,34.6531472350,2131.875000,-0.564758,4.011040,66.845009,83.469078,2.635312,-0.069523,-0.000202,7.328054,1772.397217,1773.590698,12.000000,40.000000,0.000000,0.000000,1780.000122,1780.000000,2131.875000,0.000087,-0.005223,246.889969,46.343517,0.068084,-2.497558,-1422.253418,0.000000
0.000000,0.000000,0.000000,0.000000,0.000000,0.000000,0.000000,0.000000,0,0,0,0,0,0,30.7693340750,34.6531472347,2131.875000,-0.568374,4.010816,66.844727,84.062263,2.644144,-0.069120,-0.000151,7.327312,1769.510254,1770.703735,12.000000,40.000000,0.000000,0.000000,1770.000122,1770.000000,2131.875000,0.000085,-0.004956,246.889969,46.188782,0.068708,-2.497677,-1441.851685,0.000000
0.000000,0.000000,0.000000,0.000000,0.000000,0.000000,0.000000,0.000000,0,0,0,0,0,0,30.7693340755,34.6531472345,2131.875000,-0.571115,4.010710,66.844513,84.650826,2.653144,-0.069478,-0.000116,7.326515,1766.623291,1767.816772,12.000000,40.000000,0.000000,0.000000,1770.000122,1770.000000,2131.875000,0.000084,-0.003214,246.889969,46.064617,0.069247,-2.497791,-1459.852417,0.000000
0.000000,0.000000,0.000000,0.000000,0.000000,0.000000,0.000000,0.000000,0,0,0,0,0,0,30.7693340759,34.6531472343,2131.875000,-0.573241,4.010698,66.844345,85.234573,2.662343,-0.067706,-0.000088,7.065786,1763.591309,1764.784790,12.000000,40.000000,0.000000,0.000000,1770.000122,1770.000000,2131.875000,0.000082,-0.003014,246.889969,45.970669,0.069729,-2.497899,-1481.840576,0.000000
0.000000,0.000000,0.000000,0.000000,0.000000,0.000000,0.000000,0.000000,0,0,0,0,0,0,30.7693340762,34.6531472341,2131.875000,-0.574905,4.010745,66.844215,85.813148,2.671761,-0.069221,-0.000072,7.243000,1760.809326,1762.002808,12.000000,40.000000,0.000000,0.000000,1760.000122,1760.000000,2131.875000,0.000080,-0.002076,246.889969,45.906525,0.070155,-2.498001,-1492.582397,0.000000
0.000000,0.000000,0.000000,0.000000,0.000000,0.000000,0.000000,0.000000,0,0,0,0,0,0,30.7693340765,34.6531472339,2131.875000,-0.576247,4.010832,66.844109,86.385857,2.681411,-0.071672,-0.000061,7.299522,1757.948120,1759.141602,12.000000,40.000000,0.000000,0.000000,1760.000122,1760.000000,2131.875000,0.000079,-0.001038,246.889969,45.871719,0.070528,-2.498099,-1505.614624,0.000000
0.000000,0.000000,0.000000,0.000000,0.000000,0.000000,0.000000,0.000000,0,0,0,0,0,0,30.7693340767,34.6531472338,2131.875000,-0.577362,4.010944,66.844025,86.951637,2.691303,-0.068401,-0.000050,7.314638,1755.070190,1756.263672,12.000000,40.000000,0.000000,0.000000,1760.000122,1760.000000,2131.875000,0.000077,-0.002310,246.889969,45.865749,0.070865,-2.498192,-1518.322510,0.000000
0.000000,0.000000,0.000000,0.000000,0.000000,0.000000,0.000000,0.000000,0,0,0,0,0,0,30.7693340769,34.6531472337,2131.875000,-0.578314,4.011065,66.843948,87.508575,2.701444,-0.076209,-0.000048,7.319388,1752.186401,1753.379761,12.000000,40.000000,0.000000,0.000000,1760.000122,1760.000000,2131.875000,0.000076,-0.001473,246.889969,45.888046,0.071169,-2.498280,-1530.318848,0.000000
0.000000,0.000000,0.000000,0.000000,0.000000,0.000000,0.000000,0.000000,0,0,0,0,0,0,30.7693340770,34.6531472336,2131.875000,-0.579154,4.011176,66.843880,88.052711,2.711836,-0.082294,-0.000046,7.320524,1749.300415,1750.493896,12.000000,40.000000,0.000000,0.000000,1750.000122,1750.000000,2131.875000,0.000074,-0.001339,246.889969,45.938015,0.071448,-2.498364,-1541.520386,0.000000
0.000000,0.000000,0.000000,0.000000,0.000000,0.000000,0.000000,0.000000,0,0,0,0,0,0,30.7693340772,34.6531472335,2131.875000,-0.579913,4.011248,66.843819,88.574280,2.722481,-0.100116,-0.000052,7.320386,1746.413696,1747.607178,12.000000,40.000000,0.000000,0.000000,1750.000122,1750.000000,2131.875000,0.000073,-0.001473,246.889969,46.015003,0.071706,-2.498444,-1551.943726,0.000000
0.000000,0.000000,0.000000,0.000000,0.000000,0.000000,0.000000,0.000000,0,0,0,0,0,0,30.7693340773,34.6531472334,2131.875000,-0.580616,4.011229,66.843765,89.043388,2.733382,-0.129910,-0.000063,7.319800,1743.526733,1744.720215,12.000000,40.000000,0.000000,0.000000,1750.000122,1750.000000,2131.875000,0.000071,-0.001607,246.889969,46.118328,0.071949,-2.498520,-1561.636230,0.000000
0.000000,0.000000,0.000000,0.000000,0.000000,0.000000,0.000000,0.000000,0,0,0,0,0,0,30.7693340774,34.6531472334,2131.875000,-0.581273,4.010983,66.843712,89.346916,2.744541,-0.145066,-0.000081,7.319053,1740.639648,1741.833130,12.000000,40.000000,0.000000,0.000000,1740.000122,1740.000000,2131.875000,0.000070,-0.001641,246.889969,46.247257,0.072180,-2.498593,-1570.651245,0.000000
0.000000,0.000000,0.000000,0.000000,0.000000,0.000000,0.000000,0.000000,0,0,0,0,0,0,30.7693340777,34.6531472337,2131.875000,-0.581855,4.009736,66.843681,89.248116,2.756045,0.243914,0.000680,7.318240,1737.752563,1738.946045,12.000000,40.000000,0.000000,0.000000,1740.000122,1740.000000,2131.875000,0.000068,0.013829,246.889969,46.401031,0.072483,-2.498661,-1579.040527,0.000000
0.000000,0.000000,0.000000,0.000000,0.000000,0.000000,0.000000,0.000000,0,0,0,0,0,0,30.7693340781,34.6531472350,2131.875000,-0.581632,4.004126,66.843758,88.867081,2.767212,0.228356,0.001246,7.101298,1734.937500,1736.130859,12.000000,40.000000,0.000000,0.000000,1740.000122,1740.000000,2131.875000,0.000113,0.091745,246.889969,46.563126,0.072842,-2.498721,-1592.240601,0.000000
0.000000,0.000000,0.000000,0.000000,0.000000,0.000000,0.000000,0.000000,0,0,0,0,0,0,30.7693340785,34.6531472366,2131.875244,-0.580675,3.997224,66.843895,88.399803,2.779228,0.217942,0.000901,7.179048,1732.173706,1733.367065,12.000000,40.000000,0.000000,0.000000,1740.000122,1740.000000,2131.875244,0.000173,0.068374,246.889969,46.762241,0.073104,-2.498784,-1594.611694,0.000000
0.000000,0.000000,0.000000,0.000000,0.000000,0.000000,0.000000,0.000000,0,0,0,0,0,0,30.7693340786,34.6531472378,2131.875244,-0.579534,3.992556,66.844032,87.872719,2.792325,0.217413,0.000491,7.296061,1729.081543,1730.275024,12.000000,40.000000,0.000000,0.000000,1730.000122,1730.000000,2131.875244,0.000181,0.043060,246.889969,47.003216,0.073205,-2.498848,-1600.608521,0.000000
0.000000,0.000000,0.000000,0.000000,0.000000,0.000000,0.000000,0.000000,0,0,0,0,0,0,30.7693340786,34.6531472383,2131.875244,-0.578633,3.990403,66.844124,87.373878,2.804600,0.191398,0.000195,7.059688,1726.255371,1727.448853,12.000000,40.000000,0.000000,0.000000,1730.000122,1730.000000,2131.875244,0.000178,0.020124,246.889969,47.248024,0.073229,-2.498904,-1604.657104,0.000000
0.000000,0.000000,0.000000,0.000000,0.000000,0.000000,0.000000,0.000000,0,0,0,0,0,0,30.7693340782,34.6531472387,2131.875244,-0.576178,3.989882,66.844322,86.873161,2.819059,0.058821,0.000238,4.429816,1724.747681,1725.941040,12.000000,40.000000,0.000000,0.000000,1730.000122,1730.000000,2131.875244,0.000174,0.006663,246.889969,47.513367,0.075375,-2.498958,-1558.985962,0.000000
0.000000,0.000000,0.000000,0.000000,0.000000,0.000000,0.000000,0.000000,0,0,0,0,0,0,30.7693340769,34.6531472392,2131.875244,-0.569943,3.990396,66.844803,86.367241,2.831859,0.051000,0.000217,2.725380,1724.137939,1725.331421,12.000000,40.000000,0.000000,0.000000,1730.000122,1730.000000,2131.875244,0.000218,0.002478,246.889969,47.798306,0.075075,-2.499009,-1479.763306,0.000000
0.000000,0.000000,0.000000,0.000000,0.000000,0.000000,0.000000,0.000000,0,0,0,0,0,0,30.7693340758,34.6531472395,2131.875244,-0.564636,3.991429,66.845207,85.859055,2.844211,0.048068,0.000158,1.765013,1723.842041,1725.035522,12.000000,40.000000,0.000000,0.000000,1730.000122,1730.000000,2131.875244,0.000223,0.000100,246.889969,48.101883,0.074352,-2.499057,-1388.668091,0.000000
