aileron,elevator,rudder,flaps,slats,speedbrake,throttle,throttle,engine-pump,engine-pump,electric-pump,electric-pump,external-power,APU-generator,latitude-deg,longitude-deg,altitude-ft,roll-deg,pitch-deg,heading-deg,side-slip-deg,airspeed-kt,glideslope,vertical-speed-fps,airspeed-indicator_indicated-speed-kt,altimeter_indicated-altitude-ft,altimeter_pressure-alt-ft,attitude-indicator_indicated-pitch-deg,attitude-indicator_indicated-roll-deg,attitude-indicator_internal-pitch-deg,attitude-indicator_internal-roll-deg,encoder_indicated-altitude-ft,encoder_pressure-alt-ft,gps_indicated-altitude-ft,gps_indicated-ground-speed-kt,gps_indicated-vertical-speed,indicated-heading-deg,magnetic-compass_indicated-heading-deg,slip-skid-ball_indicated-slip-skid,turn-indicator_indicated-turn-rate,vertical-speed-indicator_indicated-speed-fpm,engine_rpm
11,,,,,,,,,,,,,,,,,,,,,,,,,,,,,,,,,,,,,,,,,
0,0,0,0,0,0,0,0,0,0,0,0,0,0,30.7798633,34.68185196,-9999,0,0.424,246.889999,0,0,0,0,0,0,0,0,0,0,0,0,0,0,0,0,0,0,0,0,0,0
0,0,0,0,0,0,0,0,0,0,0,0,0,0,30.7798633,34.68185196,-9999,0,0.424,246.889999,0,0,0,0,0,0,1.193444,12,40,0,0,0,0,0,0,0,246.889999,0,0,0,0,0
0,0,0,0,0,0,0,0,0,0,0,0,0,0,30.76933472,34.65314803,-9999,0,0.424,66.870003,0,0,0,0,0,0,1.193444,12,40,0,0,0,0,0,0,0,246.889999,0,0,0,0,0
0,0,0,0,0,0,0,0,0,0,0,0,0,0,30.76933472,34.65314803,-9999,0,0.424,66.870003,0,0,0,0,0,0,1.193444,12,40,0,0,0,0,0,0,0,246.889999,0,0,0,0,0
0,0,0,0,0,0,0,0,0,0,0,0,0,0,30.76933472,34.65314803,-9999,0,0.424,66.870003,0,0,0,0,0,0,1.193444,12,40,0,0,0,0,0,0,0,246.889999,0,0,0,0,0
0,0,0,0,0,0,0,0,0,0,0,0,0,0,30.76933472,34.65314803,-9999,0,0.424,66.870003,0,0,0,0,0,0,1.193444,12,40,0,0,0,0,0,0,0,246.889999,0,0,0,0,0
0,0,0,0,0,0,0,0,0,0,0,0,0,0,30.76933472,34.65314803,-9999,0,0.424,66.870003,0,0,0,0,0,0,1.193444,12,40,0,0,0,0,0,0,0,246.889999,0,0,0,0,0
0,0,0,0,0,0,0,0,0,0,0,0,0,0,30.76933472,34.65314803,-9999,0,0.424,66.870003,0,0,0,0,0,0,1.193444,12,40,0,0,0,0,0,0,0,246.889999,0,0,0,0,0
0,0,0,0,0,0,0,0,0,0,0,0,0,0,30.76933472,34.65314803,-9999,0,0.424,66.870003,0,0,0,0,0,0,1.193444,12,40,0,0,0,0,0,0,0,246.889999,0,0,0,0,0
0,0,0,0,0,0,0,0,0,0,0,0,0,0,30.76933472,34.65314803,-9999,0,0.424,66.870003,0,0,0,0,0,0,1.193444,12,40,0,0,0,0,0,0,0,246.889999,0,0,0,0,0
0,0,0,0,0,0,0,0,0,0,0,0,0,0,30.76933472,34.65314803,-9999,0,0.424,66.870003,0,0,0,0,0,0,1.193444,12,40,0,0,0,0,0,0,0,246.889999,0,0,0,0,0
0,0,0,0,0,0,0,0,0,0,0,0,0,0,30.76933472,34.65314803,-9999,0,0.424,66.870003,0,0,0,0,0,0,1.193444,12,40,0,0,0,0,0,0,0,246.889999,0,0,0,0,0
0,0,0,0,0,0,0,0,0,0,0,0,0,0,30.76933472,34.65314803,-9999,0,0.424,66.870003,0,0,0,0,0,0,1.193444,12,40,0,0,0,0,0,0,0,246.889999,0,0,0,0,0
0,0,0,0,0,0,0,0,0,0,0,0,0,0,30.76933472,34.65314803,-9999,0,0.424,66.870003,0,0,0,0,0,0,1.193444,12,40,0,0,0,0,0,0,0,246.889999,0,0,0,0,0
0,0,0,0,0,0,0,0,0,0,0,0,0,0,30.76933472,34.65314803,-9999,0,0.424,66.870003,0,0,0,0,0,0,1.193444,12,40,0,0,0,0,0,0,0,246.889999,0,0,0,0,0
0,0,0,0,0,0,0,0,0,0,0,0,0,0,30.76933472,34.65314803,-9999,0,0.424,66.870003,0,0,0,0,0,0,1.193444,12,40,0,0,0,0,0,0,0,246.889999,0,0,0,0,0
0,0,0,0,0,0,0,0,0,0,0,0,0,0,30.76933472,34.65314803,-9999,0,0.424,66.870003,0,0,0,0,0,0,1.193444,12,40,0,0,0,0,0,0,0,246.889999,0,0,0,0,0
0,0,0,0,0,0,0,0,0,0,0,0,0,0,30.76933472,34.65314803,-9999,0,0.424,66.870003,0,0,0,0,0,0,1.193444,12,40,0,0,0,0,0,0,0,246.889999,0,0,0,0,0
0,0,0,0,0,0,0,0,0,0,0,0,0,0,30.76933472,34.65314803,-9999,0,0.424,66.870003,0,0,0,0,0,0,1.193444,12,40,0,0,0,0,0,0,0,246.889999,0,0,0,0,0
0,0,0,0,0,0,0,0,0,0,0,0,0,0,30.76933472,34.65314803,-9999,0,0.424,66.870003,0,0,0,0,0,0,1.193444,12,40,0,0,0,0,0,0,0,246.889999,0,0,0,0,0
0,0,0,0,0,0,0,0,0,0,0,0,0,0,30.76933472,34.65314803,-9999,0,0.424,66.870003,0,0,0,0,0,0,1.193444,12,40,0,0,0,0,0,0,0,246.889999,0,0,0,0,0
0,0,0,0,0,0,0,0,0,0,0,0,0,0,30.76933472,34.65314803,-9999,0,0.424,66.870003,0,0,0,0,0,0,1.193444,12,40,0,0,0,0,0,0,0,246.889999,0,0,0,0,0
0,0,0,0,0,0,0,0,0,0,0,0,0,0,30.76933472,34.65314803,-9999,0,0.424,66.870003,0,0,0,0,0,0,1.193444,12,40,0,0,0,0,0,0,0,246.889999,0,0,0,0,0
0,0,0,0,0,0,0,0,0,0,0,0,0,0,30.76933472,34.65314803,-9999,0,0.424,66.870003,0,0,0,0,0,0,1.193444,12,40,0,0,0,0,0,0,0,246.889999,0,0,0,0,0
0,0,0,0,0,0,0,0,0,0,0,0,0,0,30.76933472,34.65314803,-9999,0,0.424,66.870003,0,0,0,0,0,0,1.193444,12,40,0,0,0,0,0,0,0,246.889999,0,0,0,0,0
0,0,0,0,0,0,0,0,0,0,0,0,0,0,30.76933472,34.65314803,-9999,0,0.424,66.870003,0,0,0,0,0,0,1.193444,12,40,0,0,0,0,0,0,0,246.889999,0,0,0,0,0
0,0,0,0,0,0,0,0,0,0,0,0,0,0,30.76933472,34.65314803,-9999,0,0.424,66.870003,0,0,0,0,0,0,1.193444,12,40,0,0,0,0,0,0,0,246.889999,0,0,0,0,0
0,0,0,0,0,0,0,0,0,0,0,0,0,0,30.76933472,34.65314803,-9999,0,0.424,66.870003,0,0,0,0,0,0,1.193444,12,40,0,0,0,0,0,0,0,246.889999,0,0,0,0,0
0,0,0,0,0,0,0,0,0,0,0,0,0,0,30.76933472,34.65314803,-9999,0,0.424,66.870003,0,0,0,0,0,0,1.193444,12,40,0,0,0,0,0,0,0,246.889999,0,0,0,0,0
0,0,0,0,0,0,0,0,0,0,0,0,0,0,30.76933472,34.65314803,-9999,0,0.424,66.870003,0,0,0,0,0,0,1.193444,12,40,0,0,0,0,0,0,0,246.889999,0,0,0,0,0
0,0,0,0,0,0,0,0,0,0,0,0,0,0,30.76933472,34.65314803,-9999,0,0.424,66.870003,0,0,0,0,0,0,1.193444,12,40,0,0,0,0,0,0,0,246.889999,0,0,0,0,0
0,0,0,0,0,0,0,0,0,0,0,0,0,0,30.76933472,34.65314803,-9999,0,0.424,66.870003,0,0,0,0,0,0,1.193444,12,40,0,0,0,0,0,0,0,246.889999,0,0,0,0,0
0,0,0,0,0,0,0,0,0,0,0,0,0,0,30.76933472,34.65314803,-9999,0,0.424,66.870003,0,0,0,0,0,0,1.193444,12,40,0,0,0,0,0,0,0,246.889999,0,0,0,0,0
0,0,0,0,0,0,0,0,0,0,0,0,0,0,30.76933472,34.65314803,-9999,0,0.424,66.870003,0,0,0,0,0,0,1.193444,12,40,0,0,0,0,0,0,0,246.889999,0,0,0,0,0
0,0,0,0,0,0,0,0,0,0,0,0,0,0,30.76933472,34.65314803,-9999,0,0.424,66.870003,0,0,0,0,0,0,1.193444,12,40,0,0,0,0,0,0,0,246.889999,0,0,0,0,0
0,0,0,0,0,0,0,0,0,0,0,0,0,0,30.76933472,34.65314803,-9999,0,0.424,66.870003,0,0,0,0,0,0,1.193444,12,40,0,0,0,0,0,0,0,246.889999,0,0,0,0,0
0,0,0,0,0,0,0,0,0,0,0,0,0,0,30.76933472,34.65314803,-9999,0,0.424,66.870003,0,0,0,0,0,0,1.193444,12,40,0,0,0,0,0,0,0,246.889999,0,0,0,0,0
0,0,0,0,0,0,0,0,0,0,0,0,0,0,30.76933472,34.65314803,-9999,0,0.424,66.870003,0,0,0,0,0,0,1.193444,12,40,0,0,0,0,0,0,0,246.889999,0,0,0,0,0
0,0,0,0,0,0,0,0,0,0,0,0,0,0,30.76933472,34.65314803,-9999,0,0.424,66.870003,0,0,0,0,0,0,1.193444,12,40,0,0,0,0,0,0,0,246.889999,0,0,0,0,0
0,0,0,0,0,0,0,0,0,0,0,0,0,0,30.76933472,34.65314803,-9999,0,0.424,66.870003,0,0,0,0,0,0,1.193444,12,40,0,0,0,0,0,0,0,246.889999,0,0,0,0,0
0,0,0,0,0,0,0,0,0,0,0,0,0,0,30.76933472,34.65314803,-9999,0,0.424,66.870003,0,0,0,0,0,0,1.193444,12,40,0,0,0,0,0,0,0,246.889999,0,0,0,0,0
0,0,0,0,0,0,0,0,0,0,0,0,0,0,30.76933472,34.65314803,-9999,0,0.424,66.870003,0,0,0,0,0,0,1.193444,12,40,0,0,0,0,0,0,0,246.889999,0,0,0,0,0
0,0,0,0,0,0,0,0,0,0,0,0,0,0,30.76933472,34.65314803,-9999,0,0.424,66.870003,0,0,0,0,0,0,1.193444,12,40,0,0,0,0,0,0,0,246.889999,0,0,0,0,0
0,0,0,0,0,0,0,0,0,0,0,0,0,0,30.76933472,34.65314803,-9999,0,0.424,66.870003,0,0,0,0,0,0,1.193444,12,40,0,0,0,0,0,0,0,246.889999,0,0,0,0,0
0,0,0,0,0,0,0,0,0,0,0,0,0,0,30.76933406,34.65314724,2131.875,-0.51518,4.008967,66.848923,0,0,0,0,0,0,1.193444,12,40,0,0,0,0,0,0,0,246.889999,0,0,0,0,0
0,0,0,0,0,0,0,0,0,0,0,0,0,0,30.76933407,34.65314724,2131.875,-0.530739,4.011962,66.847672,-23.196407,2.925263,0.03274,0.000005,0,2140.1875,2141.380859,12,40,0,0,2140.000244,2140,2131.875,0,0.000569,246.889969,5.579837,0.04181,-0.985256,15490.83106,0
0,0,0,0,0,0,0,0,0,0,0,0,0,0,30.76933407,34.65314724,2131.875,-0.533176,4.0113,66.847488,-17.006168,2.654301,-0.086546,-0.000002,0.000012,2111.409424,2112.602783,12,40,0,0,2110.000244,2110,2131.875,0,-0.000067,246.889969,19.865673,0.057189,-1.582221,14352.375,0
0,0,0,0,0,0,0,0,0,0,0,0,0,0,30.76933407,34.65314724,2131.875,-0.534904,4.010739,66.847359,-9.517774,2.420984,-0.111705,-0.000002,0.003835,2082.561768,2083.755371,12,40,0,0,2080.000244,2080,2131.875,0,0,246.889969,38.730206,0.062934,-1.94392,13203.59766,0
0,0,0,0,0,0,0,0,0,0,0,0,0,0,30.76933407,34.65314724,2131.875,-0.535063,4.010707,66.847343,-7.568659,2.373187,-0.130902,-0.000007,5.779385,2077.51001,2078.703369,12,40,0,0,2080.000244,2080,2131.875,0,-0.000268,246.889969,43.331669,0.06362,-2.005275,12940.89844,0
0,0,0,0,0,0,0,0,0,0,0,0,0,0,30.76933407,34.65314724,2131.875,-0.535144,4.010691,66.847343,-6.709435,2.353566,-0.135997,-0.000009,6.883585,2075.175049,2076.368652,12,40,0,0,2080.000244,2080,2131.875,0,-0.000268,246.889969,45.296726,0.063867,-2.029452,12827.33008,0
0,0,0,0,0,0,0,0,0,0,0,0,0,0,30.76933407,34.65314724,2131.875,-0.535241,4.010674,66.847336,-5.835871,2.334484,-0.155146,-0.000012,7.234754,2072.483643,2073.677002,12,40,0,0,2080.000244,2080,2131.875,0,-0.000469,246.889969,47.25209,0.064094,-2.052448,12711.95508,0
0,0,0,0,0,0,0,0,0,0,0,0,0,0,30.76933407,34.65314724,2131.875,-0.53534,4.010658,66.847328,-5.0226,2.317474,-0.127681,-0.00001,7.337883,2069.911865,2071.105225,12,40,0,0,2070.000244,2070,2131.875,0,-0.000469,246.889969,49.032841,0.064233,-2.072539,12605.58106,0
0,0,0,0,0,0,0,0,0,0,0,0,0,0,30.76933407,34.65314724,2131.875,-0.535466,4.010639,66.847313,-4.046083,2.297984,-0.12669,-0.000011,7.430369,2066.7771,2067.970703,12,40,0,0,2070.000244,2070,2131.875,0,-0.000402,246.889969,51.119095,0.064493,-2.095123,12479.25879,0
0,0,0,0,0,0,0,0,0,0,0,0,0,0,30.76933407,34.65314724,2131.875,-0.535579,4.010624,66.847305,-3.206882,2.282022,-0.143087,-0.000012,7.352668,2064.16748,2065.361084,12,40,0,0,2070.000244,2070,2131.875,0,-0.000536,246.889969,52.865826,0.064612,-2.113298,12372.45215,0
0,0,0,0,0,0,0,0,0,0,0,0,0,0,30.76933407,34.65314724,2131.875,-0.535715,4.010609,66.847298,-2.200119,2.263797,-0.121312,-0.000011,7.439578,2061.004395,2062.197754,12,40,0,0,2060.000244,2060,2131.875,0,-0.000469,246.889969,54.904453,0.064829,-2.133729,12245.68164,0
0,0,0,0,0,0,0,0,0,0,0,0,0,0,30.76933407,34.65314724,2131.875,-0.535841,4.010598,66.84729,-1.256469,2.247604,-0.126935,-0.000011,7.392879,2058.147461,2059.341064,12,40,0,0,2060.000244,2060,2131.875,0,-0.000268,246.889969,56.758167,0.064978,-2.151628,12128.82422,0
0,0,0,0,0,0,0,0,0,0,0,0,0,0,30.76933407,34.65314724,2131.875,-0.535926,4.010592,66.847282,-0.61988,2.237151,-0.12347,-0.000011,7.405653,2056.231689,2057.425293,12,40,0,0,2060.000244,2060,2131.875,0,-0.000368,246.889969,57.977386,0.065069,-2.163073,12050.78125,0
0,0,0,0,0,0,0,0,0,0,0,0,0,0,30.76933407,34.65314724,2131.875,-0.536097,4.010585,66.847267,0.670994,2.217083,-0.12101,-0.000011,7.300604,2052.331055,2053.524414,12,40,0,0,2060.000244,2060,2131.875,0,-0.000402,246.889969,60.371983,0.065239,-2.184846,11894.14648,0
0,0,0,0,0,0,0,0,0,0,0,0,0,0,30.76933407,34.65314724,2131.875,-0.536221,4.010574,66.84726,1.654301,2.202777,-0.099173,-0.000009,7.381644,2049.485352,2050.678711,12,40,0,0,2050.000244,2050,2131.875,0,-0.000268,246.889969,62.126179,0.065354,-2.200248,11776.89551,0
0,0,0,0,0,0,0,0,0,0,0,0,0,0,30.76933407,34.65314724,2131.875,-0.536344,4.010551,66.847244,2.650143,2.189127,-0.113453,-0.00001,7.405838,2046.614014,2047.807373,12,40,0,0,2050.000244,2050,2131.875,0,-0.000268,246.889969,63.841515,0.065458,-2.214896,11659.35547,0
0,0,0,0,0,0,0,0,0,0,0,0,0,0,30.76933407,34.65314724,2131.875,-0.536468,4.01052,66.847237,3.658244,2.176149,-0.109286,-0.00001,7.414248,2043.733521,2044.92688,12,40,0,0,2050.000244,2050,2131.875,0,-0.000268,246.889969,65.515358,0.065556,-2.228829,11541.60742,0
0,0,0,0,0,0,0,0,0,0,0,0,0,0,30.76933407,34.65314724,2131.875,-0.53659,4.010484,66.847229,4.67817,2.163852,-0.104962,-0.00001,7.417123,2040.849731,2042.043213,12,40,0,0,2040.000122,2040,2131.875,0,-0.000234,246.889969,67.145218,0.065646,-2.242081,11423.67871,0
0,0,0,0,0,0,0,0,0,0,0,0,0,0,30.76933407,34.65314724,2131.875,-0.536712,4.010445,66.847221,5.709451,2.15225,-0.100704,-0.000009,7.418028,2037.964844,2039.158203,12,40,0,0,2040.000122,2040,2131.875,0,-0.000234,246.889969,68.728729,0.065729,-2.254686,11305.5752,0
0,0,0,0,0,0,0,0,0,0,0,0,0,0,30.76933407,34.65314724,2131.875,-0.536834,4.010406,66.847214,6.751617,2.141352,-0.098393,-0.000009,7.418214,2035.079468,2036.272949,12,40,0,0,2040.000122,2040,2131.875,0,-0.000134,246.889969,70.26368,0.065806,-2.266674,11187.29785,0
0,0,0,0,0,0,0,0,0,0,0,0,0,0,30.76933407,34.65314724,2131.875,-0.536954,4.010367,66.847198,7.804163,2.131171,-0.077664,-0.000007,7.418123,2032.19397,2033.387451,12,40,0,0,2040.000122,2040,2131.875,0,-0.000134,246.889969,71.747986,0.065879,-2.278077,11068.84473,0
0,0,0,0,0,0,0,0,0,0,0,0,0,0,30.76933407,34.65314724,2131.875,-0.537072,4.010332,66.847191,8.866437,2.121716,-0.094935,-0.000008,7.41791,2029.30835,2030.501831,12,40,0,0,2030.000122,2030,2131.875,0,-0.000134,246.889969,73.179718,0.065945,-2.288922,10950.21191,0
0,0,0,0,0,0,0,0,0,0,0,0,0,0,30.76933407,34.65314724,2131.875,-0.537152,4.01031,66.847183,9.579768,2.11582,-0.092007,-0.000008,7.417728,2027.384644,2028.578003,12,40,0,0,2030.000122,2030,2131.875,0,-0.000201,246.889969,74.104103,0.065987,-2.295856,10871.02148,0
0,0,0,0,0,0,0,0,0,0,0,0,0,0,30.76933407,34.65314724,2131.875,-0.537314,4.010271,66.847176,11.017953,2.105021,-0.112019,-0.00001,7.290635,2023.47876,2024.672241,12,40,0,0,2030.000122,2030,2131.875,0,-0.000167,246.889969,75.878403,0.066068,-2.309049,10712.06836,0
0,0,0,0,0,0,0,0,0,0,0,0,0,0,30.76933407,34.65314724,2131.875,-0.537412,4.010252,66.847168,11.924003,2.09895,-0.085688,-0.000007,7.374569,2021.107788,2022.30127,12,40,0,0,2020.000122,2020,2131.875,0,-0.000067,246.889969,76.935623,0.066105,-2.316858,10612.94531,0
0,0,0,0,0,0,0,0,0,0,0,0,0,0,30.76933407,34.65314724,2131.875,-0.537551,4.010228,66.847153,13.20088,2.091339,-0.081341,-0.000007,7.394196,2017.752441,2018.945923,12,40,0,0,2020.000122,2020,2131.875,0,-0.000167,246.889969,78.347099,0.066173,-2.327256,10473.74023,0
0,0,0,0,0,0,0,0,0,0,0,0,0,0,30.76933407,34.65314724,2131.875,-0.537668,4.010214,66.847145,14.302374,2.085647,-0.088851,-0.000007,7.408177,2014.875122,2016.068481,12,40,0,0,2020.000122,2020,2131.875,0,-0.000469,246.889969,79.491882,0.066222,-2.335698,10354.19727,0
0,0,0,0,0,0,0,0,0,0,0,0,0,0,30.76933407,34.65314724,2131.875,-0.537786,4.010204,66.847137,15.409495,2.080729,-0.071554,-0.000006,7.4128,2011.992188,2013.185669,12,40,0,0,2020.000122,2020,2131.875,0,-0.000167,246.889969,80.57547,0.066267,-2.343728,10234.41602,0
0,0,0,0,0,0,0,0,0,0,0,0,0,0,30.76933407,34.65314724,2131.875,-0.537905,4.010199,66.84713,16.521503,2.076592,-0.068797,-0.000006,7.414072,2009.1073,2010.300781,12,40,0,0,2010.000122,2010,2131.875,0,-0.000167,246.889969,81.596924,0.06631,-2.351365,10114.41406,0
0,0,0,0,0,0,0,0,0,0,0,0,0,0,30.76933407,34.65314724,2131.875,-0.538025,4.010198,66.847122,17.637579,2.073241,-0.066073,-0.000006,7.414139,2006.221802,2007.415161,12,40,0,0,2010.000122,2010,2131.875,0,-0.000201,246.889969,82.555466,0.066351,-2.358629,9994.191406,0
0,0,0,0,0,0,0,0,0,0,0,0,0,0,30.76933407,34.65314724,2131.875,-0.538145,4.010202,66.847107,18.756886,2.070678,-0.062987,-0.000005,7.413758,2003.335938,2004.529419,12,40,0,0,2010.000122,2010,2131.875,0,-0.000167,246.889969,83.450432,0.06639,-2.365537,9873.746094,0
0,0,0,0,0,0,0,0,0,0,0,0,0,0,30.76933407,34.65314724,2131.875,-0.538266,4.010211,66.847099,19.87858,2.068907,-0.059685,-0.000005,7.413195,2000.449951,2001.643433,12,40,0,0,2000.000122,2000,2131.875,0,-0.0001,246.889969,84.281303,0.066427,-2.372109,9753.073242,0
0,0,0,0,0,0,0,0,0,0,0,0,0,0,30.76933407,34.65314724,2131.875,-0.538346,4.01022,66.847092,20.627331,2.068168,-0.058104,-0.000005,7.412767,1998.526001,1999.71936,12,40,0,0,2000.000122,2000,2131.875,0,-0.000167,246.889969,84.799431,0.066452,-2.37631,9672.496094,0
0,0,0,0,0,0,0,0,0,0,0,0,0,0,30.76933407,34.65314724,2131.875,-0.538496,4.010237,66.847084,22.125944,2.067748,-0.053953,-0.000004,7.285059,1994.619629,1995.81311,12,40,0,0,2000.000122,2000,2131.875,0,-0.000167,246.889969,85.749428,0.066503,-2.384303,9510.661133,0
0,0,0,0,0,0,0,0,0,0,0,0,0,0,30.76933407,34.65314724,2131.875,-0.538597,4.010248,66.847076,23.249779,2.068362,-0.043539,-0.000003,7.37558,1991.77124,1992.964722,12,40,0,0,2000.000122,2000,2131.875,0,-0.000201,246.889969,86.38633,0.066537,-2.389957,9389.513672,0
0,0,0,0,0,0,0,0,0,0,0,0,0,0,30.76933407,34.65314724,2131.875,-0.538694,4.010257,66.847069,24.372505,2.069769,-0.041787,-0.000003,7.397869,1988.898315,1990.091797,12,40,0,0,1990.000122,1990,2131.875,0,-0.0001,246.889969,86.958443,0.066569,-2.395335,9267.958008,0
0,0,0,0,0,0,0,0,0,0,0,0,0,0,30.76933407,34.65314724,2131.875,-0.538787,4.010264,66.847061,25.493315,2.071971,-0.037356,-0.000002,7.405083,1986.016846,1987.210327,12,40,0,0,1990.000122,1990,2131.875,0,-0.000067,246.889969,87.465912,0.066599,-2.40045,9146.087891,0
0,0,0,0,0,0,0,0,0,0,0,0,0,0,30.76933407,34.65314724,2131.875,-0.538878,4.010272,66.847054,26.61137,2.074966,-0.05496,-0.000003,7.407041,1983.132202,1984.325684,12,40,0,0,1990.000122,1990,2131.875,0,-0.000201,246.889969,87.909019,0.066628,-2.405315,9023.932617,0
0,0,0,0,0,0,0,0,0,0,0,0,0,0,30.76933407,34.65314724,2131.875,-0.538968,4.01028,66.847046,27.725763,2.078746,-0.02109,-0.000001,7.407126,1980.246582,1981.439941,12,40,0,0,1980.000122,1980,2131.875,0,0,246.889969,88.288155,0.066654,-2.409942,8901.496094,0
0,0,0,0,0,0,0,0,0,0,0,0,0,0,30.76933407,34.65314724,2131.875,-0.539053,4.010287,66.847038,28.743448,2.0829,-0.02037,-0.000001,7.337714,1977.560791,1978.754272,12,40,0,0,1980.000122,1980,2131.875,0,0.000033,246.889969,88.579948,0.066671,-2.413985,8788.736328,0
0,0,0,0,0,0,0,0,0,0,0,0,0,0,30.76933407,34.65314724,2131.875,-0.539155,4.010296,66.847031,29.940521,2.088654,-0.014458,-0.000001,7.377483,1974.461426,1975.654785,12,40,0,0,1980.000122,1980,2131.875,0,0.000067,246.889969,88.856728,0.066705,-2.41853,8655.677734,0
0,0,0,0,0,0,0,0,0,0,0,0,0,0,30.76933407,34.65314724,2131.875,-0.53925,4.010305,66.847023,31.039278,2.09477,-0.010951,-0.000001,7.39689,1971.583252,1972.776733,12,40,0,0,1980.000122,1980,2131.875,0,0,246.889969,89.047523,0.066728,-2.422511,8532.424805,0
0,0,0,0,0,0,0,0,0,0,0,0,0,0,30.76933407,34.65314724,2131.875,-0.539314,4.010313,66.847015,31.768074,2.099273,-0.008512,-0.000001,7.400122,1969.661255,1970.854736,12,40,0,0,1970.000122,1970,2131.875,0,0.0001,246.889969,89.140663,0.066743,-2.425056,8450.063477,0
0,0,0,0,0,0,0,0,0,0,0,0,0,0,30.76933407,34.65314724,2131.875,-0.539449,4.01033,66.847008,33.215801,2.109293,-0.00443,0,7.232716,1965.723022,1966.916504,12,40,0,0,1970.000122,1970,2131.875,0,0.000067,246.889969,89.246422,0.066775,-2.4299,8284.245117,0
0,0,0,0,0,0,0,0,0,0,0,0,0,0,30.76933407,34.65314724,2131.875,-0.539549,4.010345,66.847,34.292168,2.117686,-0.019724,-0.000001,7.345419,1962.896118,1964.089478,12,40,0,0,1970.000122,1970,2131.875,0,-0.000167,246.889969,89.256531,0.066797,-2.433326,8160.419434,0
0,0,0,0,0,0,0,0,0,0,0,0,0,0,30.76933407,34.65314724,2131.875,-0.539651,4.010363,66.846992,35.359669,2.126818,0.005103,0,7.380581,1960.030518,1961.223999,12,40,0,0,1960.000122,1960,2131.875,0,0.000067,246.889969,89.208588,0.066817,-2.436584,8035.973145,0
0,0,0,0,0,0,0,0,0,0,0,0,0,0,30.76933407,34.65314724,2131.875,-0.539758,4.010382,66.846977,36.417732,2.136684,0.007166,0.000001,7.392088,1957.151245,1958.344727,12,40,0,0,1960.000122,1960,2131.875,0,0.000067,246.889969,89.103828,0.066837,-2.439683,7911.075684,0
0,0,0,0,0,0,0,0,0,0,0,0,0,0,30.76933407,34.65314724,2131.875,-0.539867,4.010403,66.84697,37.465759,2.147272,0.013446,0.000001,7.395305,1954.267334,1955.460693,12,40,0,0,1960.000122,1960,2131.875,0,0.000033,246.889969,88.943604,0.066857,-2.442631,7785.780273,0
0,0,0,0,0,0,0,0,0,0,0,0,0,0,30.76933407,34.65314724,2131.875,-0.53998,4.010426,66.846962,38.503193,2.158571,0.013713,0.000001,7.395583,1951.381592,1952.574951,12,40,0,0,1960.000122,1960,2131.875,0,0.000067,246.889969,88.729317,0.066877,-2.445434,7660.098145,0
0,0,0,0,0,0,0,0,0,0,0,0,0,0,30.76933407,34.65314724,2131.875,-0.540097,4.01045,66.846954,39.52953,2.170572,0.015272,0.000001,7.394802,1948.495117,1949.688599,12,40,0,0,1950.000122,1950,2131.875,0,0.0001,246.889969,88.462471,0.066897,-2.448101,7534.023926,0
0,0,0,0,0,0,0,0,0,0,0,0,0,0,30.76933407,34.65314724,2131.875,-0.540217,4.010477,66.846947,40.5443,2.183262,0.016967,0.000002,7.393623,1945.608521,1946.802002,12,40,0,0,1950.000122,1950,2131.875,0,0.000067,246.889969,88.14463,0.066917,-2.450637,7407.546387,0
0,0,0,0,0,0,0,0,0,0,0,0,0,0,30.76933407,34.65314724,2131.875,-0.540341,4.010506,66.846931,41.54707,2.196629,0.018556,0.000002,7.392279,1942.721802,1943.915283,12,40,0,0,1950.000122,1950,2131.875,0,0.0001,246.889969,87.777435,0.066937,-2.45305,7280.651855,0
0,0,0,0,0,0,0,0,0,0,0,0,0,0,30.76933407,34.65314724,2131.875,-0.540425,4.010526,66.846924,42.208721,2.205911,0.011187,0.000001,7.391334,1940.797241,1941.990723,12,40,0,0,1940.000122,1940,2131.875,0,0.000402,246.889969,87.506065,0.06695,-2.454592,7195.816406,0
0,0,0,0,0,0,0,0,0,0,0,0,0,0,30.76933407,34.65314724,2131.875,-0.540601,4.010571,66.846916,43.515091,2.225348,0.006305,0.000001,7.208446,1936.858154,1938.051514,12,40,0,0,1940.000122,1940,2131.875,0,0.000067,246.889969,86.901886,0.066981,-2.457526,7024.796387,0
0,0,0,0,0,0,0,0,0,0,0,0,0,0,30.76933407,34.65314724,2131.875,-0.540734,4.010608,66.846901,44.479656,2.240673,0.00951,0.000001,7.332794,1934.029663,1935.223022,12,40,0,0,1940.000122,1940,2131.875,0,0.000234,246.889969,86.39711,0.067001,-2.459602,6897.0625,0
0,0,0,0,0,0,0,0,0,0,0,0,0,0,30.76933407,34.65314724,2131.875,-0.54087,4.010647,66.846893,45.430893,2.256626,0.016361,0.000002,7.367001,1931.163208,1932.356689,12,40,0,0,1930.000122,1930,2131.875,0,0.0001,246.889969,85.850159,0.067022,-2.461576,6768.51709,0
0,0,0,0,0,0,0,0,0,0,0,0,0,0,30.76933407,34.65314724,2131.875,-0.54101,4.010687,66.846878,46.368542,2.273191,0.032489,0.000003,7.37789,1928.283569,1929.476929,12,40,0,0,1930.000122,1930,2131.875,0,0.000301,246.889969,85.262939,0.067042,-2.463454,6639.348633,0
0,0,0,0,0,0,0,0,0,0,0,0,0,0,30.76933407,34.65314724,2131.875,-0.541158,4.010729,66.84687,47.292427,2.290358,0.035698,0.000004,7.380637,1925.399048,1926.592529,12,40,0,0,1930.000122,1930,2131.875,0,0.0001,246.889969,84.637421,0.067063,-2.46524,6509.61084,0
0,0,0,0,0,0,0,0,0,0,0,0,0,0,30.76933407,34.65314724,2131.875,-0.541309,4.010773,66.846855,48.202374,2.308113,0.020258,0.000002,7.380499,1922.512939,1923.706421,12,40,0,0,1930.000122,1930,2131.875,0,0.000067,246.889969,83.975601,0.067085,-2.466939,6379.307617,0
0,0,0,0,0,0,0,0,0,0,0,0,0,0,30.76933407,34.65314724,2131.875,-0.541464,4.010819,66.84684,49.098228,2.326442,0.022207,0.000003,7.379319,1919.626221,1920.81958,12,40,0,0,1920.000122,1920,2131.875,0,0.000201,246.889969,83.279503,0.067107,-2.468554,6248.422852,0
0,0,0,0,0,0,0,0,0,0,0,0,0,0,30.76933407,34.65314724,2131.875,-0.541624,4.010868,66.846832,49.979897,2.345331,0.023768,0.000003,7.377748,1916.739136,1917.932617,12,40,0,0,1920.000122,1920,2131.875,0,0.000167,246.889969,82.551193,0.067129,-2.470091,6116.93457,0
0,0,0,0,0,0,0,0,0,0,0,0,0,0,30.76933407,34.65314724,2131.875,-0.541788,4.010919,66.846817,50.847305,2.364767,0.024251,0.000003,7.376014,1913.852051,1915.045532,12,40,0,0,1920.000122,1920,2131.875,0,0.000335,246.889969,81.792755,0.067152,-2.471553,5984.814941,0
0,0,0,0,0,0,0,0,0,0,0,0,0,0,30.76933407,34.65314724,2131.875,-0.5419,4.010954,66.846809,51.417629,2.378022,0.037336,0.000005,7.374809,1911.927246,1913.120728,12,40,0,0,1920.000122,1920,2131.875,0,0.000368,246.889969,81.271431,0.067167,-2.472487,5896.369141,0
0,0,0,0,0,0,0,0,0,0,0,0,0,0,30.76933407,34.65314724,2131.875,-0.542136,4.011029,66.846786,52.5392,2.40523,0.025641,0.000003,7.205437,1907.958862,1909.152344,12,40,0,0,1910.000122,1910,2131.875,0,0.000268,246.889969,80.193901,0.067205,-2.474265,5717.334473,0
0,0,0,0,0,0,0,0,0,0,0,0,0,0,30.76933407,34.65314724,2131.875,-0.542313,4.011086,66.846771,53.36367,2.426228,0.040485,0.000005,7.310007,1905.15625,1906.349731,12,40,0,0,1910.000122,1910,2131.875,0,0.000268,246.889969,79.357719,0.067228,-2.475523,5584.03125,0
0,0,0,0,0,0,0,0,0,0,0,0,0,0,30.76933407,34.65314724,2131.875,-0.542496,4.011146,66.846756,54.173859,2.447722,0.026972,0.000004,7.347654,1902.291138,1903.484497,12,40,0,0,1910.000122,1910,2131.875,0,0.000201,246.889969,78.49987,0.067253,-2.476719,5449.293457,0
0,0,0,0,0,0,0,0,0,0,0,0,0,0,30.76933407,34.65314724,2131.875,-0.542683,4.011208,66.846741,54.969807,2.469697,0.042658,0.000006,7.359141,1899.411499,1900.60498,12,40,0,0,1900.000122,1900,2131.875,0,0.000167,246.889969,77.62249,0.067278,-2.477857,5313.586914,0
0,0,0,0,0,0,0,0,0,0,0,0,0,0,30.76933407,34.65314724,2131.875,-0.542876,4.011272,66.846725,55.751621,2.492142,0.017919,0.000003,7.361844,1896.526855,1897.720337,12,40,0,0,1900.000122,1900,2131.875,0,0.000067,246.889969,76.727692,0.067303,-2.478939,5176.963379,0
0,0,0,0,0,0,0,0,0,0,0,0,0,0,30.76933407,34.65314724,2131.875,-0.543073,4.011334,66.84671,56.519363,2.515043,0.017049,0.000003,7.361435,1893.640503,1894.833862,12,40,0,0,1900.000122,1900,2131.875,0,0.000268,246.889969,75.817612,0.067331,-2.479968,5039.406738,0
0,0,0,0,0,0,0,0,0,0,0,0,0,0,30.76933407,34.65314724,2131.875,-0.543276,4.011397,66.846695,57.273113,2.538389,0.020102,0.000003,7.359907,1890.753296,1891.946777,12,40,0,0,1890.000122,1890,2131.875,0,0.000234,246.889969,74.894341,0.067359,-2.480947,4900.874023,0
0,0,0,0,0,0,0,0,0,0,0,0,0,0,30.76933407,34.65314724,2131.875,-0.543483,4.011463,66.84668,57.989338,2.555385,0.031735,0.000005,7.357998,1887.866089,1889.059448,12,40,0,0,1890.000122,1890,2131.875,0,0.000201,246.889969,73.959976,0.067388,-2.481878,4761.307129,0
0,0,0,0,0,0,0,0,0,0,0,0,0,0,30.76933407,34.65314724,2131.875,-0.543676,4.011526,66.846664,58.626434,2.55117,0.003662,0,7.356615,1884.979126,1886.172607,12,40,0,0,1890.000122,1890,2131.875,0,0.0001,246.889969,73.016594,0.067431,-2.482764,4620.645508,0
0,0,0,0,0,0,0,0,0,0,0,0,0,0,30.76933407,34.65314724,2131.875,-0.543784,4.011563,66.846657,59.052311,2.548535,0.006426,0.000001,7.355976,1883.054688,1884.248169,12,40,0,0,1890.000122,1890,2131.875,0,0.000134,246.889969,72.383667,0.067459,-2.48333,4526.224609,0
0,0,0,0,0,0,0,0,0,0,0,0,0,0,30.76933407,34.65314724,2131.875,-0.54396,4.011627,66.846642,59.906582,2.543684,0.009905,0.000001,7.17317,1879.115967,1880.309448,12,40,0,0,1880.000122,1880,2131.875,0,0.000067,246.889969,71.110924,0.067508,-2.484407,4334.520996,0
0,0,0,0,0,0,0,0,0,0,0,0,0,0,30.76933407,34.65314724,2131.875,-0.544066,4.011663,66.846626,60.549305,2.540416,0.003375,0,7.298956,1876.287842,1877.481323,12,40,0,0,1880.000122,1880,2131.875,0,-0.000067,246.889969,70.152649,0.067541,-2.485169,4190.890137,0
0,0,0,0,0,0,0,0,0,0,0,0,0,0,30.76933407,34.65314724,2131.875,-0.544158,4.011693,66.846626,61.193581,2.537467,-0.0133,-0.000001,7.334216,1873.421875,1874.615356,12,40,0,0,1880.000122,1880,2131.875,0,0,246.889969,69.193367,0.06757,-2.485894,4045.265381,0
0,0,0,0,0,0,0,0,0,0,0,0,0,0,30.76933407,34.65314724,2131.875,-0.54424,4.011717,66.846619,61.83926,2.534838,-0.025515,-0.000001,7.346094,1870.542603,1871.736084,12,40,0,0,1870.000122,1870,2131.875,0,0,246.889969,68.235008,0.067598,-2.486583,3897.857178,0
0,0,0,0,0,0,0,0,0,0,0,0,0,0,30.76933407,34.65314724,2131.875,-0.544315,4.011738,66.846611,62.486195,2.532531,-0.035846,-0.000002,7.349832,1867.658569,1868.852051,12,40,0,0,1870.000122,1870,2131.875,0,-0.000033,246.889969,67.279449,0.067623,-2.487239,3748.644531,0
0,0,0,0,0,0,0,0,0,0,0,0,0,0,30.76933407,34.65314724,2131.875,-0.544385,4.011757,66.846603,63.134228,2.530548,-0.043693,-0.000002,7.350708,1864.772949,1865.966431,12,40,0,0,1870.000122,1870,2131.875,0,-0.000067,246.889969,66.328522,0.067646,-2.487863,3597.508057,0
0,0,0,0,0,0,0,0,0,0,0,0,0,0,30.76933407,34.65314724,2131.875,-0.544449,4.011776,66.846596,63.783199,2.528889,-0.035136,-0.000002,7.350575,1861.886719,1863.0802,12,40,0,0,1870.000122,1870,2131.875,0,-0.000201,246.889969,65.384018,0.067668,-2.488456,3444.27417,0
0,0,0,0,0,0,0,0,0,0,0,0,0,0,30.76933407,34.65314724,2131.875,-0.544514,4.011795,66.846596,64.432953,2.527553,-0.045037,-0.000002,7.350084,1859.000244,1860.193726,12,40,0,0,1860.000122,1860,2131.875,0,-0.0001,246.889969,64.447693,0.067688,-2.48902,3288.726074,0
0,0,0,0,0,0,0,0,0,0,0,0,0,0,30.76933407,34.65314724,2131.875,-0.54458,4.011813,66.846588,65.083328,2.526543,-0.048241,-0.000002,7.349465,1856.11377,1857.307129,12,40,0,0,1860.000122,1860,2131.875,0,-0.0001,246.889969,63.521233,0.067707,-2.489557,3130.602539,0
0,0,0,0,0,0,0,0,0,0,0,0,0,0,30.76933407,34.65314724,2131.875,-0.544623,4.011826,66.846588,65.517166,2.526051,-0.049378,-0.000002,7.349024,1854.189331,1855.382813,12,40,0,0,1860.000122,1860,2131.875,0,-0.000134,246.889969,62.909885,0.06772,-2.4899,3023.602539,0
0,0,0,0,0,0,0,0,0,0,0,0,0,0,30.76933407,34.65314724,2131.875,-0.544713,4.01185,66.846581,66.385246,2.525501,-0.049408,-0.000002,7.165074,1850.251343,1851.444824,12,40,0,0,1850.000122,1850,2131.875,0,-0.000134,246.889969,61.704414,0.067745,-2.490552,2803.534668,0
0,0,0,0,0,0,0,0,0,0,0,0,0,0,30.76933407,34.65314724,2131.875,-0.544779,4.01187,66.846573,67.036469,2.525469,-0.048582,-0.000002,7.29261,1847.422607,1848.615967,12,40,0,0,1850.000122,1850,2131.875,0,-0.000067,246.889969,60.817169,0.067762,-2.491014,2636.760498,0
0,0,0,0,0,0,0,0,0,0,0,0,0,0,30.76933407,34.65314724,2131.875,-0.544845,4.01189,66.846565,67.687622,2.525765,-0.075807,-0.000004,7.327537,1844.556274,1845.749756,12,40,0,0,1850.000122,1850,2131.875,0,-0.000234,246.889969,59.946014,0.067779,-2.491453,2464.852295,0
0,0,0,0,0,0,0,0,0,0,0,0,0,0,30.76933407,34.65314724,2131.875,-0.544914,4.011911,66.846558,68.338562,2.526384,-0.038644,-0.000002,7.339269,1841.676758,1842.870239,12,40,0,0,1850.000122,1850,2131.875,0,-0.0001,246.889969,59.09235,0.067794,-2.491871,2287.534668,0
0,0,0,0,0,0,0,0,0,0,0,0,0,0,30.76933407,34.65314724,2131.875,-0.544985,4.011932,66.846558,68.989105,2.527331,-0.038515,-0.000002,7.342933,1838.792603,1839.986084,12,40,0,0,1840.000122,1840,2131.875,0,-0.000134,246.889969,58.257526,0.067809,-2.492268,2103.970459,0
0,0,0,0,0,0,0,0,0,0,0,0,0,0,30.76933407,34.65314724,2131.875,-0.545058,4.011953,66.84655,69.639091,2.528605,-0.067092,-0.000004,7.330945,1835.900879,1837.094238,12,40,0,0,1840.000122,1840,2131.875,0,-0.000201,246.889969,57.442822,0.067826,-2.492646,1912.656738,0
0,0,0,0,0,0,0,0,0,0,0,0,0,0,30.76933407,34.65314724,2131.875,-0.545131,4.011976,66.846542,70.288345,2.530202,-0.030315,-0.000002,7.427059,1832.953857,1834.147217,12,40,0,0,1840.000122,1840,2131.875,0,-0.000134,246.889969,56.649456,0.067839,-2.493006,1709.80249,0
0,0,0,0,0,0,0,0,0,0,0,0,0,0,30.76933407,34.65314724,2131.875,-0.545196,4.011994,66.846535,70.82872,2.531783,-0.065876,-0.000004,7.292049,1830.585449,1831.778931,12,40,0,0,1830.000122,1830,2131.875,0,-0.000067,246.889969,56.005444,0.067851,-2.493292,1534.358643,0
0,0,0,0,0,0,0,0,0,0,0,0,0,0,30.76933407,34.65314724,2131.875,-0.545286,4.012021,66.846527,71.584007,2.534373,-0.024496,-0.000001,7.317196,1827.232666,1828.426147,12,40,0,0,1830.000122,1830,2131.875,0,-0.000067,246.889969,55.131256,0.067869,-2.493672,1267.177368,0
0,0,0,0,0,0,0,0,0,0,0,0,0,0,30.76933407,34.65314724,2131.875,-0.54534,4.012035,66.846527,72.01487,2.53605,-0.025394,-0.000002,7.329328,1825.315552,1826.508911,12,40,0,0,1830.000122,1830,2131.875,0,-0.0001,246.889969,54.646645,0.067879,-2.49388,1098.994263,0
0,0,0,0,0,0,0,0,0,0,0,0,0,0,30.76933407,34.65314724,2131.875,-0.545453,4.012065,66.846519,72.874763,2.539837,-0.050528,-0.000003,7.154531,1821.382813,1822.576294,12,40,0,0,1830.000122,1830,2131.875,0,-0.000201,246.889969,53.711315,0.067901,-2.494276,691.603088,0
0,0,0,0,0,0,0,0,0,0,0,0,0,0,30.76933407,34.65314724,2131.875,-0.545537,4.012088,66.846512,73.517899,2.54305,-0.020433,-0.000001,7.28427,1818.555054,1819.748535,12,40,0,0,1820.000122,1820,2131.875,0,-0.000067,246.889969,53.040508,0.067914,-2.494555,176.561615,0
0,0,0,0,0,0,0,0,0,0,0,0,0,0,30.76933407,34.65314724,2131.875,-0.545625,4.01211,66.846504,74.159325,2.546584,-0.020695,-0.000001,7.319921,1815.688965,1816.882446,12,40,0,0,1820.000122,1820,2131.875,0,-0.000033,246.889969,52.396912,0.067928,-2.494822,-508.613892,0
0,0,0,0,0,0,0,0,0,0,0,0,0,0,30.76933407,34.65314724,2131.875,-0.545715,4.012131,66.846497,74.798882,2.550437,-0.020585,-0.000001,7.320086,1812.802612,1813.996094,12,40,0,0,1820.000122,1820,2131.875,0,0,246.889969,51.781258,0.067943,-2.495075,-696.895325,0
0,0,0,0,0,0,0,0,0,0,0,0,0,0,30.76933407,34.65314724,2131.875,-0.545805,4.012152,66.846489,75.436409,2.554609,-0.042258,-0.000003,7.331365,1809.922852,1811.116333,12,40,0,0,1810.000122,1810,2131.875,0,-0.000134,246.889969,51.19421,0.067958,-2.495315,-824.515869,0
0,0,0,0,0,0,0,0,0,0,0,0,0,0,30.76933407,34.65314724,2131.875,-0.545898,4.012173,66.846481,76.07177,2.559093,-0.012471,-0.000001,7.334935,1807.038574,1808.232056,12,40,0,0,1810.000122,1810,2131.875,0,-0.000033,246.889969,50.636375,0.067971,-2.495544,-922.647583,0
0,0,0,0,0,0,0,0,0,0,0,0,0,0,30.76933407,34.65314724,2131.875,-0.545995,4.012191,66.846474,76.704811,2.563894,-0.015301,-0.000001,7.307096,1804.131836,1805.325195,12,40,0,0,1810.000122,1810,2131.875,0,-0.000067,246.889969,50.108269,0.067987,-2.495762,-1003.422852,0
0,0,0,0,0,0,0,0,0,0,0,0,0,0,30.76933407,34.65314724,2131.875,-0.546095,4.012208,66.846466,77.335365,2.569007,-0.015041,-0.000001,7.307076,1801.248901,1802.442383,12,40,0,0,1810.000122,1810,2131.875,0,0.000033,246.889969,49.610355,0.068003,-2.495969,-1069.750488,0
0,0,0,0,0,0,0,0,0,0,0,0,0,0,30.76933407,34.65314724,2131.875,-0.546196,4.012223,66.846458,77.963295,2.574431,-0.014818,-0.000001,7.324425,1798.373291,1799.566772,12,40,0,0,1800.000122,1800,2131.875,0,0.0001,246.889969,49.143021,0.068018,-2.496166,-1126.211182,0
0,0,0,0,0,0,0,0,0,0,0,0,0,0,30.76933407,34.65314724,2131.875,-0.546265,4.012232,66.846451,78.380402,2.578218,-0.014195,-0.000001,7.282813,1796.44165,1797.635132,12,40,0,0,1800.000122,1800,2131.875,0,0.000033,246.889969,48.84861,0.068028,-2.496292,-1160.386597,0
0,0,0,0,0,0,0,0,0,0,0,0,0,0,30.76933407,34.65314724,2131.875,-0.54641,4.012245,66.846443,79.210732,2.586203,-0.014391,-0.000001,7.144168,1792.513306,1793.706665,12,40,0,0,1800.000122,1800,2131.875,0,0.000067,246.889969,48.301296,0.068051,-2.496532,-1222.912354,0
0,0,0,0,0,0,0,0,0,0,0,0,0,0,30.76933407,34.65314724,2131.875,-0.546519,4.01225,66.846428,79.829941,2.592553,-0.014284,-0.000001,7.263884,1789.679321,1790.872803,12,40,0,0,1790.000122,1790,2131.875,0,0.000067,246.889969,47.927349,0.068068,-2.496701,-1258.869751,0
0,0,0,0,0,0,0,0,0,0,0,0,0,0,30.76933407,34.65314724,2131.875,-0.546621,4.012251,66.84642,80.394745,2.59864,-0.041478,-0.000003,7.343186,1787.025146,1788.218628,12,40,0,0,1790.000122,1790,2131.875,0,0.000067,246.889969,47.612194,0.068079,-2.496849,-1291.123901,0
0,0,0,0,0,0,0,0,0,0,0,0,0,0,30.76933407,34.65314724,2131.875,-0.546742,4.012248,66.846413,81.05864,2.606159,-0.008406,-0.000001,7.295371,1783.92395,1785.117432,12,40,0,0,1790.000122,1790,2131.875,0,0,246.889969,47.27388,0.068102,-2.497016,-1323.85376,0
0,0,0,0,0,0,0,0,0,0,0,0,0,0,30.76933407,34.65314724,2131.875,-0.546838,4.012239,66.846405,81.56385,2.611151,-0.139075,-0.000264,7.299443,1781.52063,1782.714111,12,40,0,0,1790.000122,1790,2131.875,0,0.000234,246.889969,47.038799,0.068113,-2.497138,-1347.472778,0
0,0,0,0,0,0,0,0,0,0,0,0,0,0,30.76933407,34.65314724,2131.875,-0.553089,4.011893,66.845917,82.217827,2.617557,-0.071575,-0.000351,7.351285,1778.376831,1779.570313,12,40,0,0,1780.000122,1780,2131.875,0.000046,-0.010212,246.889969,46.765831,0.066477,-2.497289,-1376.296265,0
0,0,0,0,0,0,0,0,0,0,0,0,0,0,30.76933407,34.65314724,2131.875,-0.559481,4.011435,66.845421,82.821106,2.625914,-0.070159,-0.000278,7.316596,1775.497192,1776.690674,12,40,0,0,1780.000122,1780,2131.875,0.000089,-0.007232,246.889969,46.54649,0.067125,-2.497422,-1399.508301,0
0,0,0,0,0,0,0,0,0,0,0,0,0,0,30.76933407,34.65314724,2131.875,-0.564761,4.011041,66.845009,83.469093,2.635314,-0.069443,-0.000202,7.273059,1772.397949,1773.591431,12,40,0,0,1780.000122,1780,2131.875,0.000087,-0.005391,246.889969,46.344002,0.068114,-2.497558,-1421.544556,0
0,0,0,0,0,0,0,0,0,0,0,0,0,0,30.76933407,34.65314723,2131.875,-0.568113,4.01083,66.844749,84.013,2.643402,-0.070516,-0.000158,7.308774,1769.735962,1770.929443,12,40,0,0,1770.000122,1770,2131.875,0.000085,-0.003683,246.889969,46.200985,0.06854,-2.497667,-1440.244507,0
0,0,0,0,0,0,0,0,0,0,0,0,0,0,30.76933408,34.65314723,2131.875,-0.570284,4.010735,66.844582,84.455177,2.650126,-0.067798,-0.000123,7.275346,1767.588379,1768.78186,12,40,0,0,1770.000122,1770,2131.875,0.000084,-0.003683,246.889969,46.103111,0.069117,-2.497753,-1453.252808,0
0,0,0,0,0,0,0,0,0,0,0,0,0,0,30.76933408,34.65314723,2131.875,-0.573086,4.010697,66.84436,85.186119,2.66157,-0.070144,-0.000093,7.125599,1763.872803,1765.066284,12,40,0,0,1770.000122,1770,2131.875,0.000082,-0.002545,246.889969,45.977833,0.069613,-2.49789,-1478.171997,0
0,0,0,0,0,0,0,0,0,0,0,0,0,0,30.76933408,34.65314723,2131.875,-0.574781,4.010739,66.844231,85.765152,2.670967,-0.067495,-0.000072,7.260854,1761.053223,1762.246704,12,40,0,0,1760.000122,1760,2131.875,0.00008,-0.002913,246.889969,45.911221,0.070056,-2.497993,-1490.661621,0
0,0,0,0,0,0,0,0,0,0,0,0,0,0,30.76933408,34.65314723,2131.875,-0.576145,4.010823,66.844116,86.338394,2.680597,-0.062244,-0.000054,7.301672,1758.189941,1759.383301,12,40,0,0,1760.000122,1760,2131.875,0.000079,-0.00298,246.889969,45.873993,0.070453,-2.498091,-1503.92041,0
0,0,0,0,0,0,0,0,0,0,0,0,0,0,30.76933408,34.65314723,2131.875,-0.577276,4.010934,66.844032,86.904785,2.69047,-0.071587,-0.000053,7.315409,1755.311157,1756.504639,12,40,0,0,1760.000122,1760,2131.875,0.000077,-0.001507,246.889969,45.865639,0.070812,-2.498184,-1516.782837,0
0,0,0,0,0,0,0,0,0,0,0,0,0,0,30.76933408,34.65314723,2131.875,-0.57824,4.011055,66.843956,87.462585,2.700588,-0.070351,-0.000045,7.319704,1752.427124,1753.620483,12,40,0,0,1760.000122,1760,2131.875,0.000076,-0.001808,246.889969,45.885605,0.071135,-2.498273,-1528.9021,0
0,0,0,0,0,0,0,0,0,0,0,0,0,0,30.76933408,34.65314723,2131.875,-0.579087,4.011168,66.843887,88.008034,2.71096,-0.077681,-0.000044,7.32068,1749.541016,1750.734497,12,40,0,0,1750.000122,1750,2131.875,0.000074,-0.001942,246.889969,45.933289,0.07143,-2.498358,-1540.209473,0
0,0,0,0,0,0,0,0,0,0,0,0,0,0,30.76933408,34.65314723,2131.875,-0.579853,4.011244,66.843826,88.532158,2.721584,-0.095975,-0.00005,7.320486,1746.654297,1747.847778,12,40,0,0,1750.000122,1750,2131.875,0.000073,-0.001674,246.889969,46.008053,0.071703,-2.498438,-1550.727661,0
0,0,0,0,0,0,0,0,0,0,0,0,0,0,30.76933408,34.65314723,2131.875,-0.58056,4.011236,66.843765,89.007973,2.732464,-0.132735,-0.000065,7.31988,1743.767334,1744.960815,12,40,0,0,1750.000122,1750,2131.875,0.000071,-0.002009,246.889969,46.109211,0.071958,-2.498514,-1560.506348,0
0,0,0,0,0,0,0,0,0,0,0,0,0,0,30.76933408,34.65314723,2131.875,-0.581221,4.011018,66.843719,89.334076,2.743601,-0.147864,-0.000081,7.319126,1740.880249,1742.07373,12,40,0,0,1740.000122,1740,2131.875,0.00007,-0.00144,246.889969,46.236038,0.072195,-2.498587,-1569.60022,0
0,0,0,0,0,0,0,0,0,0,0,0,0,0,30.76933408,34.65314723,2131.875,-0.581731,4.010379,66.843681,89.316139,2.753108,0.171457,0.000279,7.318453,1738.474365,1739.667847,12,40,0,0,1740.000122,1740,2131.875,0.000069,0.001976,246.889969,46.36079,0.072435,-2.498644,-1576.693481,0
0,0,0,0,0,0,0,0,0,0,0,0,0,0,30.76933408,34.65314724,2131.875,-0.581633,4.003751,66.843758,88.865196,2.76719,0.218327,0.001228,7.135041,1735.036743,1736.230225,12,40,0,0,1740.000122,1740,2131.875,0.000119,0.093687,246.889969,46.563614,0.072919,-2.498721,-1588.235596,0
0,0,0,0,0,0,0,0,0,0,0,0,0,0,30.76933408,34.65314724,2131.875244,-0.58069,3.996788,66.843903,88.400215,2.779231,0.212023,0.000865,7.273411,1732.194702,1733.388062,12,40,0,0,1740.000122,1740,2131.875244,0.000179,0.075338,246.889969,46.76273,0.073176,-2.498784,-1593.760742,0
0,0,0,0,0,0,0,0,0,0,0,0,0,0,30.76933408,34.65314724,2131.875244,-0.57963,3.992454,66.844025,87.914726,2.791309,0.222063,0.000512,7.30063,1729.323364,1730.516846,12,40,0,0,1730.000122,1730,2131.875244,0.000188,0.045002,246.889969,46.984261,0.073247,-2.498843,-1599.98584,0
0,0,0,0,0,0,0,0,0,0,0,0,0,0,30.76933408,34.65314724,2131.875244,-0.578711,3.99024,66.844116,87.416306,2.803578,0.19914,0.000211,7.230044,1726.459717,1727.653076,12,40,0,0,1730.000122,1730,2131.875244,0.000184,0.02143,246.889969,47.227318,0.073262,-2.4989,-1605.49707,0
0,0,0,0,0,0,0,0,0,0,0,0,0,0,30.76933408,34.65314724,2131.875244,-0.576965,3.989673,66.844261,86.915375,2.817816,0.060558,0.000224,4.622128,1724.828003,1726.021362,12,40,0,0,1730.000122,1730,2131.875244,0.00018,0.007534,246.889969,47.490982,0.073844,-2.498954,-1564.464966,0
0,0,0,0,0,0,0,0,0,0,0,0,0,0,30.76933408,34.65314724,2131.875244,-0.570781,3.990178,66.844742,86.409958,2.830865,0.052107,0.000228,2.835498,1724.172607,1725.366089,12,40,0,0,1730.000122,1730,2131.875244,0.000225,0.002946,246.889969,47.774326,0.074341,-2.499005,-1486.962524,0
0,0,0,0,0,0,0,0,0,0,0,0,0,0,30.76933408,34.65314724,2131.875244,-0.565269,3.991227,66.845161,85.901718,2.843202,0.047903,0.000164,1.825015,1723.860962,1725.054443,12,40,0,0,1730.000122,1730,2131.875244,0.000238,-0.000368,246.889969,48.076389,0.073741,-2.499053,-1396.46582,0
0,0,0,0,0,0,0,0,0,0,0,0,0,0,30.76933408,34.65314724,2131.875244,-0.561182,3.99247,66.845467,85.394157,2.855839,0.045137,0.000116,1.289718,1723.67041,1724.863892,12,40,0,0,1730.000122,1730,2131.875244,0.000234,-0.001674,246.889969,48.396194,0.073131,-2.4991,-1301.390381,0
0,0,0,0,0,0,0,0,0,0,0,0,0,0,30.76933407,34.65314724,2131.875244,-0.558228,3.993709,66.845688,84.889091,2.868841,0.046626,0.00009,1.032854,1723.522461,1724.715942,12,40,0,0,1720.000122,1720,2131.875244,0.000229,-0.002377,246.889969,48.732758,0.072611,-2.499144,-1204.87207,0
0,0,0,0,0,0,0,0,0,0,0,0,0,0,30.76933407,34.65314724,2131.875244,-0.556412,3.994668,66.845818,84.470863,2.879932,0.039098,0.00006,0.933368,1723.411133,1724.604614,12,40,0,0,1720.000122,1720,2131.875244,0.000225,-0.002411,246.889969,49.025311,0.072171,-2.499179,-1124.241943,0
0,0,0,0,0,0,0,0,0,0,0,0,0,0,30.76933407,34.65314724,2131.875244,-0.554584,3.995866,66.845947,83.890167,2.895808,0.036079,0.00004,0.815962,1723.258667,1724.452148,12,40,0,0,1720.000122,1720,2131.875244,0.00022,-0.002411,246.889969,49.452152,0.071798,-2.499225,-1011.829224,0
0,0,0,0,0,0,0,0,0,0,0,0,0,0,30.76933407,34.65314724,2131.875244,-0.553499,3.996739,66.846024,83.397171,2.909715,0.033964,0.000029,0.83405,1723.134888,1724.328247,12,40,0,0,1720.000122,1720,2131.875244,0.000216,-0.002109,246.889969,49.832951,0.071477,-2.499263,-915.824646,0
0,0,0,0,0,0,0,0,0,0,0,0,0,0,30.76933407,34.65314724,2131.875244,-0.55273,3.997481,66.846077,83.135521,2.917158,0.036862,0.000024,0.832198,1723.010498,1724.203857,12,40,0,0,1720.000122,1720,2131.875244,0.000211,-0.001239,246.889969,50.226456,0.071201,-2.499299,-820.669006,0
0,0,0,0,0,0,0,0,0,0,0,0,0,0,30.76933407,34.65314724,2131.875244,-0.552434,3.997798,66.8461,83.134819,2.917083,0.039121,0.000022,0.831282,1722.948242,1724.141724,12,40,0,0,1720.000122,1720,2131.875244,0.000209,-0.001674,246.889969,50.427647,0.07104,-2.499316,-773.452148,0
0,0,0,0,0,0,0,0,0,0,0,0,0,0,30.76933407,34.65314724,2131.875244,-0.550839,3.999462,66.846207,83.129913,2.916119,0.081275,0.000001,0,1721.598267,1722.791748,12,40,0,0,1720.000122,1720,2131.875244,0.000171,0.000033,246.889969,54.866306,0.069697,-2.499586,-7.678193,0
0,0,0,0,0,0,0,0,0,0,0,0,0,0,30.76933407,34.65314724,2131.875244,-0.550807,3.999483,66.846207,83.129845,2.91592,0.076109,0.000001,0.076071,1721.366333,1722.559814,12,40,0,0,1720.000122,1720,2131.875244,0.000163,-0.000033,246.889969,56.031277,0.069545,-2.499635,-45.657917,0
0,0,0,0,0,0,0,0,0,0,0,0,0,0,30.76933407,34.65314724,2131.875244,-0.550799,3.999487,66.846214,83.129829,2.915834,0.065769,0,0.659049,1721.25293,1722.446289,12,40,0,0,1720.000122,1720,2131.875244,0.000159,0,246.889969,56.534492,0.069474,-2.499654,-61.480949,0
0,0,0,0,0,0,0,0,0,0,0,0,0,0,30.76933407,34.65314724,2131.875244,-0.550794,3.99949,66.846214,83.129822,2.915756,0.053906,0,0.773967,1721.135132,1722.328613,12,40,0,0,1720.000122,1720,2131.875244,0.000156,0,246.889969,56.996704,0.069427,-2.499671,-68.079025,0
0,0,0,0,0,0,0,0,0,0,0,0,0,0,30.76933407,34.65314724,2131.875244,-0.55079,3.999492,66.846214,83.129814,2.915677,0.038171,0,0.787653,1721.013062,1722.206543,12,40,0,0,1720.000122,1720,2131.875244,0.000153,0,246.889969,57.455811,0.069384,-2.499687,-70.704651,0
0,0,0,0,0,0,0,0,0,0,0,0,0,0,30.76933407,34.65314724,2131.875244,-0.550787,3.999494,66.846214,83.129814,2.915598,0.010761,0,0.820079,1720.890137,1722.083496,12,40,0,0,1720.000122,1720,2131.875244,0.00015,0,246.889969,57.910969,0.069345,-2.499702,-71.945122,0
0,0,0,0,0,0,0,0,0,0,0,0,0,0,30.76933407,34.65314724,2131.875244,-0.550785,3.999495,66.846214,83.129814,2.91552,-0.016276,0,0.825416,1720.766479,1721.959961,12,40,0,0,1720.000122,1720,2131.875244,0.000147,0,246.889969,58.361355,0.069311,-2.499717,-72.459183,0
0,0,0,0,0,0,0,0,0,0,0,0,0,0,30.76933407,34.65314724,2131.875244,-0.550783,3.999496,66.846214,83.129807,2.915442,-0.038107,0,0.827178,1720.6427,1721.83606,12,40,0,0,1720.000122,1720,2131.875244,0.000144,0,246.889969,58.806168,0.069279,-2.499731,-72.654793,0
0,0,0,0,0,0,0,0,0,0,0,0,0,0,30.76933407,34.65314724,2131.875244,-0.550781,3.999496,66.846214,83.129807,2.915363,-0.077572,0,0.82773,1720.518799,1721.71228,12,40,0,0,1720.000122,1720,2131.875244,0.000141,0,246.889969,59.24464,0.069251,-2.499744,-72.723007,0
0,0,0,0,0,0,0,0,0,0,0,0,0,0,30.76933407,34.65314724,2131.875244,-0.55078,3.999497,66.846214,83.129807,2.915324,-0.091542,0,0.827822,1720.456787,1721.650269,12,40,0,0,1720.000122,1720,2131.875244,0.00014,0,246.889969,59.461266,0.069242,-2.49975,-72.736343,0
0,0,0,0,0,0,0,0,0,0,0,0,0,0,30.76933407,34.65314724,2131.875244,-0.550778,3.999498,66.846214,83.129807,2.915207,-0.125631,0,0.751681,1720.267944,1721.461426,12,40,0,0,1720.000122,1720,2131.875244,0.000136,0,246.889969,60.099613,0.069202,-2.499768,-70.606102,0
0,0,0,0,0,0,0,0,0,0,0,0,0,0,30.76933407,34.65314724,2131.875244,-0.550777,3.999499,66.846214,83.129807,2.915128,-0.152591,0,0.810908,1720.145996,1721.339478,12,40,0,0,1720.000122,1720,2131.875244,0.000133,0,246.889969,60.514713,0.069181,-2.499779,-71.482727,0
0,0,0,0,0,0,0,0,0,0,0,0,0,0,30.76933407,34.65314724,2131.875244,-0.550776,3.999499,66.846214,83.129807,2.91505,-0.175973,0,0.821838,1720.022827,1721.216309,12,40,0,0,1720.000122,1720,2131.875244,0.000131,0,246.889969,60.920677,0.069162,-2.49979,-72.178978,0
0,0,0,0,0,0,0,0,0,0,0,0,0,0,30.76933407,34.65314724,2131.875244,-0.550775,3.9995,66.846214,83.129807,2.914972,-0.2071,0,0.825518,1719.899292,1721.092651,12,40,0,0,1720.000122,1720,2131.875244,0.000128,-0.000033,246.889969,61.316879,0.069145,-2.499801,-72.504814,0
0,0,0,0,0,0,0,0,0,0,0,0,0,0,30.76933407,34.65314724,2131.875244,-0.550775,3.9995,66.846214,83.129807,2.914894,-0.213329,0,0.826741,1719.775513,1720.968994,12,40,0,0,1720.000122,1720,2131.875244,0.000125,-0.000033,246.889969,61.702728,0.069129,-2.49981,-72.633636,0
0,0,0,0,0,0,0,0,0,0,0,0,0,0,30.76933407,34.65314724,2131.875244,-0.550774,3.999501,66.846214,83.129807,2.914815,-0.22835,0,0.827103,1719.651733,1720.845093,12,40,0,0,1720.000122,1720,2131.875244,0.000123,0,246.889969,62.077663,0.069115,-2.49982,-72.678032,0
0,0,0,0,0,0,0,0,0,0,0,0,0,0,30.76933407,34.65314724,2131.875244,-0.550773,3.999501,66.846214,83.129807,2.914737,-0.238293,0,0.827163,1719.527832,1720.721313,12,40,0,0,1720.000122,1720,2131.875244,0.000121,0,246.889969,62.441158,0.069102,-2.499828,-72.689285,0
0,0,0,0,0,0,0,0,0,0,0,0,0,0,30.76933407,34.65314724,2131.875244,-0.550772,3.999502,66.846214,83.129807,2.914659,-0.244591,0,0.827117,1719.404053,1720.597534,12,40,0,0,1720.000122,1720,2131.875244,0.000118,0,246.889969,62.792721,0.069091,-2.499837,-72.688095,0
0,0,0,0,0,0,0,0,0,0,0,0,0,0,30.76933407,34.65314724,2131.875244,-0.550771,3.999502,66.846214,83.129807,2.914581,-0.242792,0,0.827033,1719.280273,1720.473755,12,40,0,0,1720.000122,1720,2131.875244,0.000116,0,246.889969,63.131889,0.069081,-2.499845,-72.68235,0
0,0,0,0,0,0,0,0,0,0,0,0,0,0,30.76933407,34.65314724,2131.875244,-0.55077,3.999503,66.846214,83.129807,2.914503,-0.240054,0,0.84277,1719.149048,1720.342529,12,40,0,0,1720.000122,1720,2131.875244,0.000113,0,246.889969,63.458237,0.069071,-2.499852,-76.063919,0
0,0,0,0,0,0,0,0,0,0,0,0,0,0,30.76933407,34.65314724,2131.875244,-0.55077,3.999503,66.846214,83.129807,2.914425,-0.225678,0,0.784613,1719.030762,1720.224121,12,40,0,0,1720.000122,1720,2131.875244,0.000111,0,246.889969,63.771374,0.069063,-2.49986,-71.257942,0
0,0,0,0,0,0,0,0,0,0,0,0,0,0,30.76933407,34.65314724,2131.875244,-0.550769,3.999504,66.846214,83.129807,2.914346,-0.224442,0,0.815471,1718.908325,1720.101685,12,40,0,0,1720.000122,1720,2131.875244,0.000109,-0.000033,246.889969,64.070938,0.069055,-2.499866,-71.816826,0
0,0,0,0,0,0,0,0,0,0,0,0,0,0,30.76933407,34.65314724,2131.875244,-0.550768,3.999504,66.846214,83.129807,2.914268,-0.223512,0,0.822705,1718.785034,1719.978516,12,40,0,0,1720.000122,1720,2131.875244,0.000107,0,246.889969,64.356613,0.069048,-2.499873,-72.277992,0
0,0,0,0,0,0,0,0,0,0,0,0,0,0,30.76933407,34.65314724,2131.875244,-0.550767,3.999505,66.846214,83.129807,2.91419,-0.22067,0,0.825145,1718.661499,1719.854858,12,40,0,0,1720.000122,1720,2131.875244,0.000105,0,246.889969,64.628098,0.069042,-2.499879,-72.494072,0
0,0,0,0,0,0,0,0,0,0,0,0,0,0,30.76933407,34.65314724,2131.875244,-0.550767,3.999505,66.846214,83.129807,2.914112,-0.208797,0,0.825934,1718.537842,1719.731323,12,40,0,0,1720.000122,1720,2131.875244,0.000103,0,246.889969,64.885132,0.069036,-2.499885,-72.578011,0
0,0,0,0,0,0,0,0,0,0,0,0,0,0,30.76933407,34.65314724,2131.875244,-0.550766,3.999506,66.846214,83.129807,2.914034,-0.212199,0,0.826145,1718.414185,1719.607544,12,40,0,0,1720.000122,1720,2131.875244,0.000101,-0.000033,246.889969,65.12751,0.069031,-2.499891,-72.605164,0
0,0,0,0,0,0,0,0,0,0,0,0,0,0,30.76933407,34.65314724,2131.875244,-0.550765,3.999506,66.846214,83.129807,2.913956,-0.212571,0,0.826151,1718.290527,1719.483887,12,40,0,0,1720.000122,1720,2131.875244,0.000099,0,246.889969,65.355026,0.069026,-2.499896,-72.610023,0
0,0,0,0,0,0,0,0,0,0,0,0,0,0,30.76933407,34.65314724,2131.875244,-0.550764,3.999507,66.846214,83.129807,2.913877,-0.20802,0,0.826086,1718.16687,1719.360229,12,40,0,0,1720.000122,1720,2131.875244,0.000097,-0.000033,246.889969,65.567535,0.069022,-2.499901,-72.606514,0
0,0,0,0,0,0,0,0,0,0,0,0,0,0,30.76933407,34.65314724,2131.875244,-0.550764,3.999507,66.846214,83.129807,2.9138,-0.206745,0,0.825996,1718.043213,1719.236572,12,40,0,0,1720.000122,1720,2131.875244,0.000095,0,246.889969,65.764908,0.069018,-2.499906,-72.599945,0
0,0,0,0,0,0,0,0,0,0,0,0,0,0,30.76933407,34.65314724,2131.875244,-0.550763,3.999507,66.846214,83.129807,2.91376,-0.201286,0,0.825947,1717.981323,1719.174805,12,40,0,0,1720.000122,1720,2131.875244,0.000094,0,246.889969,65.857887,0.069017,-2.499908,-72.596184,0
0,0,0,0,0,0,0,0,0,0,0,0,0,0,30.76933407,34.65314724,2131.875244,-0.550762,3.999508,66.846214,83.129807,2.913643,-0.203403,0,0.764898,1717.792725,1718.986206,12,40,0,0,1720.000122,1720,2131.875244,0.000091,0.000033,246.889969,66.113914,0.069012,-2.499915,-70.698799,0
0,0,0,0,0,0,0,0,0,0,0,0,0,0,30.76933407,34.65314724,2131.875244,-0.550761,3.999509,66.846214,83.129807,2.913565,-0.204985,0,0.808073,1717.671143,1718.864624,12,40,0,0,1720.000122,1720,2131.875244,0.000089,0,246.889969,66.265457,0.069009,-2.499919,-71.333153,0
0,0,0,0,0,0,0,0,0,0,0,0,0,0,30.76933407,34.65314724,2131.875244,-0.55076,3.999509,66.846214,83.129807,2.913487,-0.198642,0,0.819454,1717.54834,1718.741699,12,40,0,0,1720.000122,1720,2131.875244,0.000087,0,246.889969,66.401688,0.069006,-2.499923,-72.003761,0
0,0,0,0,0,0,0,0,0,0,0,0,0,0,30.76933407,34.65314724,2131.875244,-0.55076,3.99951,66.846214,83.129807,2.913409,-0.203906,0,0.82333,1717.424927,1718.618408,12,40,0,0,1720.000122,1720,2131.875244,0.000086,-0.000033,246.889969,66.522652,0.069004,-2.499927,-72.332573,0
0,0,0,0,0,0,0,0,0,0,0,0,0,0,30.76933407,34.65314724,2131.875244,-0.550759,3.99951,66.846214,83.129807,2.913344,-0.187611,0,0.824495,1717.322021,1718.515503,12,40,0,0,1720.000122,1720,2131.875244,0.000084,-0.000033,246.889969,66.611824,0.069003,-2.49993,-72.450981,0
0,0,0,0,0,0,0,0,0,0,0,0,0,0,30.76933407,34.65314724,2131.875244,-0.550758,3.999511,66.846214,83.129807,2.913253,-0.159287,0,0.794436,1717.17749,1718.370972,12,40,0,0,1720.000122,1720,2131.875244,0.000082,-0.000067,246.889969,66.719017,0.069,-2.499934,-71.821243,0
0,0,0,0,0,0,0,0,0,0,0,0,0,0,30.76933407,34.65314724,2131.875244,-0.550757,3.999511,66.846214,83.129807,2.913175,-0.177394,0,0.822291,1717.054321,1718.247681,12,40,0,0,1720.000122,1720,2131.875244,0.000081,0,246.889969,66.794632,0.068998,-2.499937,-72.246269,0
0,0,0,0,0,0,0,0,0,0,0,0,0,0,30.76933407,34.65314724,2131.875244,-0.550757,3.999512,66.846214,83.129807,2.913097,-0.204105,0,0.824108,1716.930908,1718.124268,12,40,0,0,1720.000122,1720,2131.875244,0.000079,0,246.889969,66.8554,0.068996,-2.49994,-72.417091,0
0,0,0,0,0,0,0,0,0,0,0,0,0,0,30.76933407,34.65314724,2131.875244,-0.550756,3.999512,66.846214,83.129807,2.913019,-0.192366,0,0.824625,1716.807373,1718.000854,12,40,0,0,1720.000122,1720,2131.875244,0.000078,0,246.889969,66.901489,0.068995,-2.499943,-72.477913,0
0,0,0,0,0,0,0,0,0,0,0,0,0,0,30.76933407,34.65314724,2131.875244,-0.550756,3.999513,66.846214,83.129807,2.91298,-0.193739,0,0.824711,1716.745605,1717.939087,12,40,0,0,1720.000122,1720,2131.875244,0.000077,0,246.889969,66.919083,0.068995,-2.499944,-72.489784,0
0,0,0,0,0,0,0,0,0,0,0,0,0,0,30.76933407,34.65314724,2131.875244,-0.550754,3.999513,66.846214,83.129807,2.912863,-0.19862,0,0.768432,1716.557129,1717.75061,12,40,0,0,1720.000122,1720,2131.875244,0.000075,0,246.889969,66.950439,0.068992,-2.499949,-70.699989,0
0,0,0,0,0,0,0,0,0,0,0,0,0,0,30.76933407,34.65314724,2131.875244,-0.550754,3.999514,66.846214,83.129807,2.912785,-0.202852,0,0.806745,1716.435791,1717.629272,12,40,0,0,1720.000122,1720,2131.875244,0.000073,0.000033,246.889969,66.953781,0.068991,-2.499951,-71.254326,0
0,0,0,0,0,0,0,0,0,0,0,0,0,0,30.76933407,34.65314724,2131.875244,-0.550753,3.999514,66.846214,83.129807,2.912745,-0.203112,0,0.814041,1716.374512,1717.567993,12,40,0,0,1720.000122,1720,2131.875244,0.000072,-0.000067,246.889969,66.950279,0.068991,-2.499952,-71.630447,0
0,0,0,0,0,0,0,0,0,0,0,0,0,0,30.76933407,34.65314724,2131.875244,-0.550752,3.999515,66.846214,83.129807,2.912635,-0.184493,0,0.168457,1716.156372,1717.349854,12,40,0,0,1720.000122,1720,2131.875244,0.00007,-0.000067,246.889969,66.922035,0.06899,-2.499955,-72.295776,0
0,0,0,0,0,0,0,0,0,0,0,0,0,0,30.76933407,34.65314724,2131.875244,-0.550751,3.999516,66.846214,83.129807,2.91255,-0.206667,0,0.50254,1716.050049,1717.243408,12,40,0,0,1720.000122,1720,2131.875244,0.000069,-0.000033,246.889969,66.882568,0.068988,-2.499958,-60.406887,0
0,0,0,0,0,0,0,0,0,0,0,0,0,0,30.76933407,34.65314724,2131.875244,-0.55075,3.999516,66.846214,83.129807,2.912479,-0.202097,0,0.706683,1715.947021,1717.140503,12,40,0,0,1720.000122,1720,2131.875244,0.000068,0,246.889969,66.837433,0.068988,-2.49996,-65.126884,0
0,0,0,0,0,0,0,0,0,0,0,0,0,0,30.76933407,34.65314724,2131.875244,-0.55075,3.999516,66.846214,83.129807,2.912395,-0.186208,0,0.793709,1715.817871,1717.011353,12,40,0,0,1720.000122,1720,2131.875244,0.000066,0,246.889969,66.770584,0.068987,-2.499962,-69.545624,0
0,0,0,0,0,0,0,0,0,0,0,0,0,0,30.76933407,34.65314724,2131.875244,-0.550749,3.999517,66.846214,83.129807,2.912317,-0.184189,0,0.813596,1715.695679,1716.88916,12,40,0,0,1720.000122,1720,2131.875244,0.000065,0,246.889969,66.696297,0.068986,-2.499964,-71.328903,0
0,0,0,0,0,0,0,0,0,0,0,0,0,0,30.76933407,34.65314724,2131.875244,-0.550748,3.999517,66.846214,83.129807,2.912239,-0.18258,0,0.820268,1715.572754,1716.766235,12,40,0,0,1720.000122,1720,2131.875244,0.000064,0,246.889969,66.610321,0.068986,-2.499965,-72.018593,0
0,0,0,0,0,0,0,0,0,0,0,0,0,0,30.76933407,34.65314724,2131.875244,-0.550748,3.999518,66.846214,83.129807,2.912199,-0.170201,0,0.821705,1715.51123,1716.70459,12,40,0,0,1720.000122,1720,2131.875244,0.000063,-0.000067,246.889969,66.563072,0.068985,-2.499966,-72.178474,0
0,0,0,0,0,0,0,0,0,0,0,0,0,0,30.76933407,34.65314724,2131.875244,-0.550747,3.999518,66.846214,83.129807,2.912089,-0.18251,0,0.759248,1715.332764,1716.526245,12,40,0,0,1720.000122,1720,2131.875244,0.000061,0,246.889969,66.414337,0.068985,-2.499969,-70.655441,0
0,0,0,0,0,0,0,0,0,0,0,0,0,0,30.76933407,34.65314724,2131.875244,-0.550746,3.999519,66.846214,83.129807,2.912005,-0.19647,0,0.80675,1715.201904,1716.395386,12,40,0,0,1720.000122,1720,2131.875244,0.00006,0.000033,246.889969,66.286346,0.068984,-2.49997,-71.127579,0
0,0,0,0,0,0,0,0,0,0,0,0,0,0,30.76933407,34.65314724,2131.875244,-0.550745,3.999519,66.846214,83.129807,2.911927,-0.19676,0,0.817737,1715.079224,1716.272705,12,40,0,0,1720.000122,1720,2131.875244,0.000059,-0.000033,246.889969,66.157776,0.068984,-2.499972,-71.848938,0
0,0,0,0,0,0,0,0,0,0,0,0,0,0,30.76933407,34.65314724,2131.875244,-0.550744,3.99952,66.846214,83.129807,2.911849,-0.196214,0,0.821378,1714.956177,1716.149658,12,40,0,0,1720.000122,1720,2131.875244,0.000057,0,246.889969,66.019653,0.068983,-2.499973,-72.176422,0
0,0,0,0,0,0,0,0,0,0,0,0,0,0,30.76933407,34.65314724,2131.875244,-0.550744,3.99952,66.846214,83.129807,2.911771,-0.197993,0,0.822587,1714.833008,1716.026367,12,40,0,0,1720.000122,1720,2131.875244,0.000056,-0.000033,246.889969,65.872452,0.068983,-2.499974,-72.304184,0
0,0,0,0,0,0,0,0,0,0,0,0,0,0,30.76933407,34.65314724,2131.875244,-0.550743,3.999521,66.846214,83.129807,2.911693,-0.195817,0,0.822945,1714.709717,1715.903198,12,40,0,0,1720.000122,1720,2131.875244,0.000055,0,246.889969,65.716637,0.068982,-2.499976,-72.347855,0
0,0,0,0,0,0,0,0,0,0,0,0,0,0,30.76933407,34.65314724,2131.875244,-0.550742,3.999521,66.846214,83.129807,2.911621,-0.169501,0,0.788593,1714.595337,1715.788818,12,40,0,0,1720.000122,1720,2131.875244,0.000054,-0.000033,246.889969,65.56665,0.068982,-2.499977,-72.262314,0
0,0,0,0,0,0,0,0,0,0,0,0,0,0,30.76933407,34.65314724,2131.875244,-0.550741,3.999522,66.846214,83.129807,2.911537,-0.195047,0,0.818329,1714.462891,1715.656372,12,40,0,0,1720.000122,1720,2131.875244,0.000053,-0.000033,246.889969,65.381104,0.068982,-2.499978,-72.007126,0
0,0,0,0,0,0,0,0,0,0,0,0,0,0,30.76933407,34.65314724,2131.875244,-0.550741,3.999522,66.846214,83.129807,2.911459,-0.193468,0,0.821381,1714.339844,1715.533325,12,40,0,0,1720.000122,1720,2131.875244,0.000052,-0.000067,246.889969,65.202354,0.068981,-2.499979,-72.203812,0
0,0,0,0,0,0,0,0,0,0,0,0,0,0,30.76933407,34.65314724,2131.875244,-0.55074,3.999523,66.846214,83.129807,2.91142,-0.202173,0,0.821942,1714.27832,1715.47168,12,40,0,0,1720.000122,1720,2131.875244,0.000051,-0.000033,246.889969,65.110451,0.068981,-2.499979,-72.255302,0
0,0,0,0,0,0,0,0,0,0,0,0,0,0,30.76933407,34.65314724,2131.875244,-0.550739,3.999523,66.846214,83.129807,2.91131,-0.20351,0,0.752895,1714.100098,1715.293579,12,40,0,0,1720.000122,1720,2131.875244,0.00005,-0.000033,246.889969,64.841576,0.068981,-2.499981,-70.470703,0
0,0,0,0,0,0,0,0,0,0,0,0,0,0,30.76933407,34.65314724,2131.875244,-0.550736,3.999525,66.846214,83.129822,2.911227,-0.415637,-0.000001,0.80627,1713.96936,1715.16272,12,40,0,0,1720.000122,1720,2131.875244,0.000049,-0.0001,246.889969,64.628166,0.068982,-2.499982,-71.057777,0
0,0,0,0,0,0,0,0,0,0,0,0,0,0,30.76933407,34.65314724,2131.875244,-0.550732,3.999527,66.846214,83.129829,2.911148,-0.356194,-0.000001,0.816904,1713.846802,1715.040161,12,40,0,0,1720.000122,1720,2131.875244,0.000048,-0.000067,246.889969,64.425789,0.068981,-2.499983,-71.779854,0
0,0,0,0,0,0,0,0,0,0,0,0,0,0,30.76933407,34.65314724,2131.875244,-0.550729,3.99953,66.846214,83.129822,2.91107,-0.338893,-0.000001,0.820412,1713.723877,1714.917236,12,40,0,0,1720.000122,1720,2131.875244,0.000047,-0.0001,246.889969,64.218765,0.068981,-2.499984,-72.100731,0
0,0,0,0,0,0,0,0,0,0,0,0,0,0,30.76933407,34.65314724,2131.875244,-0.550727,3.999531,66.846214,83.129822,2.910992,-0.330186,-0.000001,0.821574,1713.600708,1714.794189,12,40,0,0,1710.000122,1710,2131.875244,0.000046,-0.000067,246.889969,64.007591,0.06898,-2.499985,-72.224648,0
