aileron,elevator,rudder,flaps,slats,speedbrake,throttle,throttle,engine-pump,engine-pump,electric-pump,electric-pump,external-power,APU-generator,latitude-deg,longitude-deg,altitude-ft,roll-deg,pitch-deg,heading-deg,side-slip-deg,airspeed-kt,glideslope,vertical-speed-fps,airspeed-indicator_indicated-speed-kt,altimeter_indicated-altitude-ft,altimeter_pressure-alt-ft,attitude-indicator_indicated-pitch-deg,attitude-indicator_indicated-roll-deg,attitude-indicator_internal-pitch-deg,attitude-indicator_internal-roll-deg,encoder_indicated-altitude-ft,encoder_pressure-alt-ft,gps_indicated-altitude-ft,gps_indicated-ground-speed-kt,gps_indicated-vertical-speed,indicated-heading-deg,magnetic-compass_indicated-heading-deg,slip-skid-ball_indicated-slip-skid,turn-indicator_indicated-turn-rate,vertical-speed-indicator_indicated-speed-fpm,engine_rpm
0.000000,0.000000,0.000000,1.000000,0.000000,0.000000,0.000000,0.000000,0,0,0,0,0,0,32.0177231700,34.8926918800,-9999.000000,0.000000,0.424000,260.000000,0.000000,0.000000,0.000000,0.000000,0.000000,0.000000,0.000000,0.000000,0.000000,0.000000,0.000000,0.000000,0.000000,0.000000,0.000000,0.000000,0.000000,0.000000,0.000000,0.000000,0.000000,0.000000
0.000000,0.000000,0.000000,1.000000,0.000000,0.000000,0.000000,0.000000,0,0,0,0,0,0,32.0177231700,34.8926918800,-9999.000000,0.000000,0.424000,260.000000,0.000000,0.000000,0.000000,0.000000,0.000000,390.226257,1.193444,12.000000,40.000000,0.000000,0.000000,0.000000,0.000000,0.000000,0.000000,0.000000,254.951645,0.000000,0.000000,0.000000,0.000000,0.000000
0.000000,0.000000,0.000000,1.000000,0.000000,0.000000,0.000000,0.000000,0,0,0,0,0,0,32.0141825072,34.8668671716,-9999.000000,0.000000,0.424000,121.400002,0.000000,0.000000,0.000000,0.000000,0.000000,390.226257,1.193444,12.000000,40.000000,0.000000,0.000000,0.000000,0.000000,0.000000,0.000000,0.000000,254.951645,0.000000,0.000000,0.000000,0.000000,0.000000
0.000000,0.000000,0.000000,1.000000,0.000000,0.000000,0.000000,0.000000,0,0,0,0,0,0,32.0141825072,34.8668671716,-9999.000000,0.000000,0.424000,121.400002,0.000000,0.000000,0.000000,0.000000,0.000000,390.226257,1.193444,12.000000,40.000000,0.000000,0.000000,0.000000,0.000000,0.000000,0.000000,0.000000,254.951645,0.000000,0.000000,0.000000,0.000000,0.000000
0.000000,0.000000,0.000000,1.000000,0.000000,0.000000,0.000000,0.000000,0,0,0,0,0,0,32.0141825072,34.8668671716,-9999.000000,0.000000,0.424000,121.400002,0.000000,0.000000,0.000000,0.000000,0.000000,390.226257,1.193444,12.000000,40.000000,0.000000,0.000000,0.000000,0.000000,0.000000,0.000000,0.000000,254.951645,0.000000,0.000000,0.000000,0.000000,0.000000
0.000000,0.000000,0.000000,1.000000,0.000000,0.000000,0.000000,0.000000,0,0,0,0,0,0,32.0141825072,34.8668671716,-9999.000000,0.000000,0.424000,121.400002,0.000000,0.000000,0.000000,0.000000,0.000000,390.226257,1.193444,12.000000,40.000000,0.000000,0.000000,0.000000,0.000000,0.000000,0.000000,0.000000,254.951645,0.000000,0.000000,0.000000,0.000000,0.000000
0.000000,0.000000,0.000000,1.000000,0.000000,0.000000,0.000000,0.000000,0,0,0,0,0,0,32.0141825072,34.8668671716,-9999.000000,0.000000,0.424000,121.400002,0.000000,0.000000,0.000000,0.000000,0.000000,390.226257,1.193444,12.000000,40.000000,0.000000,0.000000,0.000000,0.000000,0.000000,0.000000,0.000000,254.951645,0.000000,0.000000,0.000000,0.000000,0.000000
0.000000,0.000000,0.000000,1.000000,0.000000,0.000000,0.000000,0.000000,0,0,0,0,0,0,32.0141825072,34.8668671716,-9999.000000,0.000000,0.424000,121.400002,0.000000,0.000000,0.000000,0.000000,0.000000,390.226257,1.193444,12.000000,40.000000,0.000000,0.000000,0.000000,0.000000,0.000000,0.000000,0.000000,254.951645,0.000000,0.000000,0.000000,0.000000,0.000000
0.000000,0.000000,0.000000,1.000000,0.000000,0.000000,0.000000,0.000000,0,0,0,0,0,0,32.0141825072,34.8668671716,-9999.000000,0.000000,0.424000,121.400002,0.000000,0.000000,0.000000,0.000000,0.000000,390.226257,1.193444,12.000000,40.000000,0.000000,0.000000,0.000000,0.000000,0.000000,0.000000,0.000000,254.951645,0.000000,0.000000,0.000000,0.000000,0.000000
0.000000,0.000000,0.000000,1.000000,0.000000,0.000000,0.000000,0.000000,0,0,0,0,0,0,32.0141825072,34.8668671716,-9999.000000,0.000000,0.424000,121.400002,0.000000,0.000000,0.000000,0.000000,0.000000,390.226257,1.193444,12.000000,40.000000,0.000000,0.000000,0.000000,0.000000,0.000000,0.000000,0.000000,254.951645,0.000000,0.000000,0.000000,0.000000,0.000000
0.000000,0.000000,0.000000,1.000000,0.000000,0.000000,0.000000,0.000000,0,0,0,0,0,0,32.0141825072,34.8668671716,-9999.000000,0.000000,0.424000,121.400002,0.000000,0.000000,0.000000,0.000000,0.000000,390.226257,1.193444,12.000000,40.000000,0.000000,0.000000,0.000000,0.000000,0.000000,0.000000,0.000000,254.951645,0.000000,0.000000,0.000000,0.000000,0.000000
0.000000,0.000000,0.000000,1.000000,0.000000,0.000000,0.000000,0.000000,0,0,0,0,0,0,32.0141825072,34.8668671716,-9999.000000,0.000000,0.424000,121.400002,0.000000,0.000000,0.000000,0.000000,0.000000,390.226257,1.193444,12.000000,40.000000,0.000000,0.000000,0.000000,0.000000,0.000000,0.000000,0.000000,254.951645,0.000000,0.000000,0.000000,0.000000,0.000000
0.000000,0.000000,0.000000,1.000000,0.000000,0.000000,0.000000,0.000000,0,0,0,0,0,0,32.0141825072,34.8668671716,-9999.000000,0.000000,0.424000,121.400002,0.000000,0.000000,0.000000,0.000000,0.000000,390.226257,1.193444,12.000000,40.000000,0.000000,0.000000,0.000000,0.000000,0.000000,0.000000,0.000000,254.951645,0.000000,0.000000,0.000000,0.000000,0.000000
0.000000,0.000000,0.000000,1.000000,0.000000,0.000000,0.000000,0.000000,0,0,0,0,0,0,32.0141825072,34.8668671716,-9999.000000,0.000000,0.424000,121.400002,0.000000,0.000000,0.000000,0.000000,0.000000,390.226257,1.193444,12.000000,40.000000,0.000000,0.000000,0.000000,0.000000,0.000000,0.000000,0.000000,254.951645,0.000000,0.000000,0.000000,0.000000,0.000000
0.000000,0.000000,0.000000,1.000000,0.000000,0.000000,0.000000,0.000000,0,0,0,0,0,0,32.0141825072,34.8668671716,-9999.000000,0.000000,0.424000,121.400002,0.000000,0.000000,0.000000,0.000000,0.000000,390.226257,1.193444,12.000000,40.000000,0.000000,0.000000,0.000000,0.000000,0.000000,0.000000,0.000000,254.951645,0.000000,0.000000,0.000000,0.000000,0.000000
0.000000,0.000000,0.000000,1.000000,0.000000,0.000000,0.000000,0.000000,0,0,0,0,0,0,32.0141825072,34.8668671716,-9999.000000,0.000000,0.424000,121.400002,0.000000,0.000000,0.000000,0.000000,0.000000,390.226257,1.193444,12.000000,40.000000,0.000000,0.000000,0.000000,0.000000,0.000000,0.000000,0.000000,254.951645,0.000000,0.000000,0.000000,0.000000,0.000000
0.000000,0.000000,0.000000,1.000000,0.000000,0.000000,0.000000,0.000000,0,0,0,0,0,0,32.0141825072,34.8668671716,-9999.000000,0.000000,0.424000,121.400002,0.000000,0.000000,0.000000,0.000000,0.000000,390.226257,1.193444,12.000000,40.000000,0.000000,0.000000,0.000000,0.000000,0.000000,0.000000,0.000000,254.951645,0.000000,0.000000,0.000000,0.000000,0.000000
0.000000,0.000000,0.000000,1.000000,0.000000,0.000000,0.000000,0.000000,0,0,0,0,0,0,32.0141825072,34.8668671716,-9999.000000,0.000000,0.424000,121.400002,0.000000,0.000000,0.000000,0.000000,0.000000,390.226257,1.193444,12.000000,40.000000,0.000000,0.000000,0.000000,0.000000,0.000000,0.000000,0.000000,254.951645,0.000000,0.000000,0.000000,0.000000,0.000000
0.000000,0.000000,0.000000,1.000000,0.000000,0.000000,0.000000,0.000000,0,0,0,0,0,0,32.0141825072,34.8668671716,-9999.000000,0.000000,0.424000,121.400002,0.000000,0.000000,0.000000,0.000000,0.000000,390.226257,1.193444,12.000000,40.000000,0.000000,0.000000,0.000000,0.000000,0.000000,0.000000,0.000000,254.951645,0.000000,0.000000,0.000000,0.000000,0.000000
0.000000,0.000000,0.000000,1.000000,0.000000,0.000000,0.000000,0.000000,0,0,0,0,0,0,32.0141825072,34.8668671716,-9999.000000,0.000000,0.424000,121.400002,0.000000,0.000000,0.000000,0.000000,0.000000,390.226257,1.193444,12.000000,40.000000,0.000000,0.000000,0.000000,0.000000,0.000000,0.000000,0.000000,254.951645,0.000000,0.000000,0.000000,0.000000,0.000000
0.000000,0.000000,0.000000,1.000000,0.000000,0.000000,0.000000,0.000000,0,0,0,0,0,0,32.0141825072,34.8668671716,-9999.000000,0.000000,0.424000,121.400002,0.000000,0.000000,0.000000,0.000000,0.000000,390.226257,1.193444,12.000000,40.000000,0.000000,0.000000,0.000000,0.000000,0.000000,0.000000,0.000000,254.951645,0.000000,0.000000,0.000000,0.000000,0.000000
0.000000,0.000000,0.000000,1.000000,0.000000,0.000000,0.000000,0.000000,0,0,0,0,0,0,32.0141825072,34.8668671716,-9999.000000,0.000000,0.424000,121.400002,0.000000,0.000000,0.000000,0.000000,0.000000,390.226257,1.193444,12.000000,40.000000,0.000000,0.000000,0.000000,0.000000,0.000000,0.000000,0.000000,254.951645,0.000000,0.000000,0.000000,0.000000,0.000000
0.000000,0.000000,0.000000,1.000000,0.000000,0.000000,0.000000,0.000000,0,0,0,0,0,0,32.0141825072,34.8668671716,-9999.000000,0.000000,0.424000,121.400002,0.000000,0.000000,0.000000,0.000000,0.000000,390.226257,1.193444,12.000000,40.000000,0.000000,0.000000,0.000000,0.000000,0.000000,0.000000,0.000000,254.951645,0.000000,0.000000,0.000000,0.000000,0.000000
0.000000,0.000000,0.000000,1.000000,0.000000,0.000000,0.000000,0.000000,0,0,0,0,0,0,32.0141825072,34.8668671716,-9999.000000,0.000000,0.424000,121.400002,0.000000,0.000000,0.000000,0.000000,0.000000,390.226257,1.193444,12.000000,40.000000,0.000000,0.000000,0.000000,0.000000,0.000000,0.000000,0.000000,254.951645,0.000000,0.000000,0.000000,0.000000,0.000000
0.000000,0.000000,0.000000,1.000000,0.000000,0.000000,0.000000,0.000000,0,0,0,0,0,0,32.0141825072,34.8668671716,-9999.000000,0.000000,0.424000,121.400002,0.000000,0.000000,0.000000,0.000000,0.000000,390.226257,1.193444,12.000000,40.000000,0.000000,0.000000,0.000000,0.000000,0.000000,0.000000,0.000000,254.951645,0.000000,0.000000,0.000000,0.000000,0.000000
0.000000,0.000000,0.000000,1.000000,0.000000,0.000000,0.000000,0.000000,0,0,0,0,0,0,32.0141825072,34.8668671716,-9999.000000,0.000000,0.424000,121.400002,0.000000,0.000000,0.000000,0.000000,0.000000,390.226257,1.193444,12.000000,40.000000,0.000000,0.000000,0.000000,0.000000,0.000000,0.000000,0.000000,254.951645,0.000000,0.000000,0.000000,0.000000,0.000000
0.000000,0.000000,0.000000,1.000000,0.000000,0.000000,0.000000,0.000000,0,0,0,0,0,0,32.0141825072,34.8668671716,-9999.000000,0.000000,0.424000,121.400002,0.000000,0.000000,0.000000,0.000000,0.000000,390.226257,1.193444,12.000000,40.000000,0.000000,0.000000,0.000000,0.000000,0.000000,0.000000,0.000000,254.951645,0.000000,0.000000,0.000000,0.000000,0.000000
0.000000,0.000000,0.000000,1.000000,0.000000,0.000000,0.000000,0.000000,0,0,0,0,0,0,32.0141825072,34.8668671716,-9999.000000,0.000000,0.424000,121.400002,0.000000,0.000000,0.000000,0.000000,0.000000,390.226257,1.193444,12.000000,40.000000,0.000000,0.000000,0.000000,0.000000,0.000000,0.000000,0.000000,254.951645,0.000000,0.000000,0.000000,0.000000,0.000000
0.000000,0.000000,0.000000,1.000000,0.000000,0.000000,0.000000,0.000000,0,0,0,0,0,0,32.0141825072,34.8668671716,-9999.000000,0.000000,0.424000,121.400002,0.000000,0.000000,0.000000,0.000000,0.000000,390.226257,1.193444,12.000000,40.000000,0.000000,0.000000,0.000000,0.000000,0.000000,0.000000,0.000000,254.951645,0.000000,0.000000,0.000000,0.000000,0.000000
0.000000,0.000000,0.000000,1.000000,0.000000,0.000000,0.000000,0.000000,0,0,0,0,0,0,32.0141825072,34.8668671716,-9999.000000,0.000000,0.424000,121.400002,0.000000,0.000000,0.000000,0.000000,0.000000,390.226257,1.193444,12.000000,40.000000,0.000000,0.000000,0.000000,0.000000,0.000000,0.000000,0.000000,254.951645,0.000000,0.000000,0.000000,0.000000,0.000000
0.000000,0.000000,0.000000,1.000000,0.000000,0.000000,0.000000,0.000000,0,0,0,0,0,0,32.0141825072,34.8668671716,-9999.000000,0.000000,0.424000,121.400002,0.000000,0.000000,0.000000,0.000000,0.000000,390.226257,1.193444,12.000000,40.000000,0.000000,0.000000,0.000000,0.000000,0.000000,0.000000,0.000000,254.951645,0.000000,0.000000,0.000000,0.000000,0.000000
0.000000,0.000000,0.000000,1.000000,0.000000,0.000000,0.000000,0.000000,0,0,0,0,0,0,32.0141825072,34.8668671716,-9999.000000,0.000000,0.424000,121.400002,0.000000,0.000000,0.000000,0.000000,0.000000,390.226257,1.193444,12.000000,40.000000,0.000000,0.000000,0.000000,0.000000,0.000000,0.000000,0.000000,254.951645,0.000000,0.000000,0.000000,0.000000,0.000000
0.000000,0.000000,0.000000,1.000000,0.000000,0.000000,0.000000,0.000000,0,0,0,0,0,0,32.0141825072,34.8668671716,-9999.000000,0.000000,0.424000,121.400002,0.000000,0.000000,0.000000,0.000000,0.000000,390.226257,1.193444,12.000000,40.000000,0.000000,0.000000,0.000000,0.000000,0.000000,0.000000,0.000000,254.951645,0.000000,0.000000,0.000000,0.000000,0.000000
0.000000,0.000000,0.000000,1.000000,0.000000,0.000000,0.000000,0.000000,0,0,0,0,0,0,32.0141825072,34.8668671716,-9999.000000,0.000000,0.424000,121.400002,0.000000,0.000000,0.000000,0.000000,0.000000,390.226257,1.193444,12.000000,40.000000,0.000000,0.000000,0.000000,0.000000,0.000000,0.000000,0.000000,254.951645,0.000000,0.000000,0.000000,0.000000,0.000000
0.000000,0.000000,0.000000,1.000000,0.000000,0.000000,0.000000,0.000000,0,0,0,0,0,0,32.0141825072,34.8668671716,-9999.000000,0.000000,0.424000,121.400002,0.000000,0.000000,0.000000,0.000000,0.000000,390.226257,1.193444,12.000000,40.000000,0.000000,0.000000,0.000000,0.000000,0.000000,0.000000,0.000000,254.951645,0.000000,0.000000,0.000000,0.000000,0.000000
0.000000,0.000000,0.000000,1.000000,0.000000,0.000000,0.000000,0.000000,0,0,0,0,0,0,32.0141825072,34.8668671716,-9999.000000,0.000000,0.424000,121.400002,0.000000,0.000000,0.000000,0.000000,0.000000,390.226257,1.193444,12.000000,40.000000,0.000000,0.000000,0.000000,0.000000,0.000000,0.000000,0.000000,254.951645,0.000000,0.000000,0.000000,0.000000,0.000000
0.000000,0.000000,0.000000,1.000000,0.000000,0.000000,0.000000,0.000000,0,0,0,0,0,0,32.0141825072,34.8668671716,-9999.000000,0.000000,0.424000,121.400002,0.000000,0.000000,0.000000,0.000000,0.000000,390.226257,1.193444,12.000000,40.000000,0.000000,0.000000,0.000000,0.000000,0.000000,0.000000,0.000000,254.951645,0.000000,0.000000,0.000000,0.000000,0.000000
0.000000,0.000000,0.000000,1.000000,0.000000,0.000000,0.000000,0.000000,0,0,0,0,0,0,32.0141825072,34.8668671716,-9999.000000,0.000000,0.424000,121.400002,0.000000,0.000000,0.000000,0.000000,0.000000,390.226257,1.193444,12.000000,40.000000,0.000000,0.000000,0.000000,0.000000,0.000000,0.000000,0.000000,254.951645,0.000000,0.000000,0.000000,0.000000,0.000000
0.000000,0.000000,0.000000,1.000000,0.000000,0.000000,0.000000,0.000000,0,0,0,0,0,0,32.0141825072,34.8668671716,-9999.000000,0.000000,0.424000,121.400002,0.000000,0.000000,0.000000,0.000000,0.000000,390.226257,1.193444,12.000000,40.000000,0.000000,0.000000,0.000000,0.000000,0.000000,0.000000,0.000000,254.951645,0.000000,0.000000,0.000000,0.000000,0.000000
0.000000,0.000000,0.000000,1.000000,0.000000,0.000000,0.000000,0.000000,0,0,0,0,0,0,32.0141825072,34.8668671716,-9999.000000,0.000000,0.424000,121.400002,0.000000,0.000000,0.000000,0.000000,0.000000,390.226257,1.193444,12.000000,40.000000,0.000000,0.000000,0.000000,0.000000,0.000000,0.000000,0.000000,254.951645,0.000000,0.000000,0.000000,0.000000,0.000000
0.000000,0.000000,0.000000,1.000000,0.000000,0.000000,0.000000,0.000000,0,0,0,0,0,0,32.0141825072,34.8668671716,-9999.000000,0.000000,0.424000,121.400002,0.000000,0.000000,0.000000,0.000000,0.000000,390.226257,1.193444,12.000000,40.000000,0.000000,0.000000,0.000000,0.000000,0.000000,0.000000,0.000000,254.951645,0.000000,0.000000,0.000000,0.000000,0.000000
0.000000,0.000000,0.000000,1.000000,0.000000,0.000000,0.000000,0.000000,0,0,0,0,0,0,32.0141825072,34.8668671716,-9999.000000,0.000000,0.424000,121.400002,0.000000,0.000000,0.000000,0.000000,0.000000,390.226257,1.193444,12.000000,40.000000,0.000000,0.000000,0.000000,0.000000,0.000000,0.000000,0.000000,254.951645,0.000000,0.000000,0.000000,0.000000,0.000000
0.000000,0.000000,0.000000,1.000000,0.000000,0.000000,0.000000,0.000000,0,0,0,0,0,0,32.0141825072,34.8668671716,-9999.000000,0.000000,0.424000,121.400002,0.000000,0.000000,0.000000,0.000000,0.000000,390.226257,1.193444,12.000000,40.000000,0.000000,0.000000,0.000000,0.000000,0.000000,0.000000,0.000000,254.951645,0.000000,0.000000,0.000000,0.000000,0.000000
0.000000,0.000000,0.000000,1.000000,0.000000,0.000000,0.000000,0.000000,0,0,0,0,0,0,32.0141825072,34.8668671716,-9999.000000,0.000000,0.424000,121.400002,0.000000,0.000000,0.000000,0.000000,0.000000,390.226257,1.193444,12.000000,40.000000,0.000000,0.000000,0.000000,0.000000,0.000000,0.000000,0.000000,254.951645,0.000000,0.000000,0.000000,0.000000,0.000000
0.000000,0.000000,0.000000,1.000000,0.000000,0.000000,0.000000,0.000000,0,0,0,0,0,0,32.0141825072,34.8668671716,-9999.000000,0.000000,0.424000,121.400002,0.000000,0.000000,0.000000,0.000000,0.000000,390.226257,1.193444,12.000000,40.000000,0.000000,0.000000,0.000000,0.000000,0.000000,0.000000,0.000000,254.951645,0.000000,0.000000,0.000000,0.000000,0.000000
0.000000,0.000000,0.000000,1.000000,0.000000,0.000000,0.000000,0.000000,0,0,0,0,0,0,32.0141825072,34.8668671716,-9999.000000,0.000000,0.424000,121.400002,0.000000,0.000000,0.000000,0.000000,0.000000,390.226257,1.193444,12.000000,40.000000,0.000000,0.000000,0.000000,0.000000,0.000000,0.000000,0.000000,254.951645,0.000000,0.000000,0.000000,0.000000,0.000000
0.000000,0.000000,0.000000,1.000000,0.000000,0.000000,0.000000,0.000000,0,0,0,0,0,0,32.0141825072,34.8668671716,-9999.000000,0.000000,0.424000,121.400002,0.000000,0.000000,0.000000,0.000000,0.000000,390.226257,1.193444,12.000000,40.000000,0.000000,0.000000,0.000000,0.000000,0.000000,0.000000,0.000000,254.951645,0.000000,0.000000,0.000000,0.000000,0.000000
0.000000,0.000000,0.000000,1.000000,0.000000,0.000000,0.000000,0.000000,0,0,0,0,0,0,32.0141825072,34.8668671716,-9999.000000,0.000000,0.424000,121.400002,0.000000,0.000000,0.000000,0.000000,0.000000,390.226257,1.193444,12.000000,40.000000,0.000000,0.000000,0.000000,0.000000,0.000000,0.000000,0.000000,254.951645,0.000000,0.000000,0.000000,0.000000,0.000000
0.000000,0.000000,0.000000,1.000000,0.000000,0.000000,0.000000,0.000000,0,0,0,0,0,0,32.0141825072,34.8668671716,-9999.000000,0.000000,0.424000,121.400002,0.000000,0.000000,0.000000,0.000000,0.000000,390.226257,1.193444,12.000000,40.000000,0.000000,0.000000,0.000000,0.000000,0.000000,0.000000,0.000000,254.951645,0.000000,0.000000,0.000000,0.000000,0.000000
0.000000,0.000000,0.000000,1.000000,0.000000,0.000000,0.000000,0.000000,0,0,0,0,0,0,32.0141825072,34.8668671716,-9999.000000,0.000000,0.424000,121.400002,0.000000,0.000000,0.000000,0.000000,0.000000,390.226257,1.193444,12.000000,40.000000,0.000000,0.000000,0.000000,0.000000,0.000000,0.000000,0.000000,254.951645,0.000000,0.000000,0.000000,0.000000,0.000000
0.000000,0.000000,0.000000,1.000000,0.000000,0.000000,0.000000,0.000000,0,0,0,0,0,0,32.0141825072,34.8668671716,-9999.000000,0.000000,0.424000,121.400002,0.000000,0.000000,0.000000,0.000000,0.000000,390.226257,1.193444,12.000000,40.000000,0.000000,0.000000,0.000000,0.000000,0.000000,0.000000,0.000000,254.951645,0.000000,0.000000,0.000000,0.000000,0.000000
0.000000,0.000000,0.000000,1.000000,0.000000,0.000000,0.000000,0.000000,0,0,0,0,0,0,32.0141825072,34.8668671716,-9999.000000,0.000000,0.424000,121.400002,0.000000,0.000000,0.000000,0.000000,0.000000,390.226257,1.193444,12.000000,40.000000,0.000000,0.000000,0.000000,0.000000,0.000000,0.000000,0.000000,254.951645,0.000000,0.000000,0.000000,0.000000,0.000000
0.000000,0.000000,0.000000,1.000000,0.000000,0.000000,0.000000,0.000000,0,0,0,0,0,0,32.0141825072,34.8668671716,-9999.000000,0.000000,0.424000,121.400002,0.000000,0.000000,0.000000,0.000000,0.000000,390.226257,1.193444,12.000000,40.000000,0.000000,0.000000,0.000000,0.000000,0.000000,0.000000,0.000000,254.951645,0.000000,0.000000,0.000000,0.000000,0.000000
0.000000,0.000000,0.000000,1.000000,0.000000,0.000000,0.000000,0.000000,0,0,0,0,0,0,32.0141825072,34.8668671716,-9999.000000,0.000000,0.424000,121.400002,0.000000,0.000000,0.000000,0.000000,0.000000,390.226257,1.193444,12.000000,40.000000,0.000000,0.000000,0.000000,0.000000,0.000000,0.000000,0.000000,254.951645,0.000000,0.000000,0.000000,0.000000,0.000000
0.000000,0.000000,0.000000,1.000000,0.000000,0.000000,0.000000,0.000000,0,0,0,0,0,0,32.0141825072,34.8668671716,-9999.000000,0.000000,0.424000,121.400002,0.000000,0.000000,0.000000,0.000000,0.000000,390.226257,1.193444,12.000000,40.000000,0.000000,0.000000,0.000000,0.000000,0.000000,0.000000,0.000000,254.951645,0.000000,0.000000,0.000000,0.000000,0.000000
0.000000,0.000000,0.000000,1.000000,0.000000,0.000000,0.000000,0.000000,0,0,0,0,0,0,32.0141825072,34.8668671716,-9999.000000,0.000000,0.424000,121.400002,0.000000,0.000000,0.000000,0.000000,0.000000,390.226257,1.193444,12.000000,40.000000,0.000000,0.000000,0.000000,0.000000,0.000000,0.000000,0.000000,254.951645,0.000000,0.000000,0.000000,0.000000,0.000000
0.000000,0.000000,0.000000,1.000000,0.000000,0.000000,0.000000,0.000000,0,0,0,0,0,0,32.0141825072,34.8668671716,-9999.000000,0.000000,0.424000,121.400002,0.000000,0.000000,0.000000,0.000000,0.000000,390.226257,1.193444,12.000000,40.000000,0.000000,0.000000,0.000000,0.000000,0.000000,0.000000,0.000000,254.951645,0.000000,0.000000,0.000000,0.000000,0.000000
0.000000,0.000000,0.000000,1.000000,0.000000,0.000000,0.000000,0.000000,0,0,0,0,0,0,32.0141825072,34.8668671716,-9999.000000,0.000000,0.424000,121.400002,0.000000,0.000000,0.000000,0.000000,0.000000,390.226257,1.193444,12.000000,40.000000,0.000000,0.000000,0.000000,0.000000,0.000000,0.000000,0.000000,254.951645,0.000000,0.000000,0.000000,0.000000,0.000000
0.000000,0.000000,0.000000,1.000000,0.000000,0.000000,0.000000,0.000000,0,0,0,0,0,0,32.0141825072,34.8668671716,-9999.000000,0.000000,0.424000,121.400002,0.000000,0.000000,0.000000,0.000000,0.000000,390.226257,1.193444,12.000000,40.000000,0.000000,0.000000,0.000000,0.000000,0.000000,0.000000,0.000000,254.951645,0.000000,0.000000,0.000000,0.000000,0.000000
0.000000,0.000000,0.000000,0.000000,0.000000,0.000000,0.000000,0.000000,0,0,0,0,0,0,32.0141827131,34.8668660992,107.687912,-0.159268,-0.729272,121.399879,0.000000,0.000000,0.000000,0.000000,0.000000,390.226257,1.193444,12.000000,40.000000,0.000000,0.000000,0.000000,0.000000,0.000000,0.000000,0.000000,254.951645,0.000000,0.000000,0.000000,0.000000,0.000000
0.000000,0.000000,0.000000,0.000000,0.000000,0.000000,0.000000,0.000000,0,0,0,0,0,0,32.0141827140,34.8668661024,107.687698,-0.168711,-0.737100,121.400063,31.309732,3.016499,-0.836149,-0.000044,0.000000,500.325531,111.292717,12.000000,40.000000,0.000000,0.000000,110.000145,110.000000,107.687698,0.000007,-0.002746,254.951614,10.175226,0.002483,-0.985256,2747.019531,0.000000
0.000000,0.000000,0.000000,0.000000,0.000000,0.000000,0.000000,0.000000,0,0,0,0,0,0,32.0141827141,34.8668661019,107.687737,-0.168402,-0.735368,121.400055,37.493694,2.737261,0.826880,0.000009,0.000000,471.954346,82.921539,12.000000,40.000000,0.000000,0.000000,80.000145,80.000000,107.687737,0.000006,0.000603,254.951614,36.224121,0.003245,-1.582221,848.530151,0.000000
0.000000,0.000000,0.000000,0.000000,0.000000,0.000000,0.000000,0.000000,0,0,0,0,0,0,32.0141827143,34.8668661015,107.687782,-0.168205,-0.733733,121.400047,44.975079,2.496702,0.856596,0.000009,0.000000,443.579163,54.546349,12.000000,40.000000,0.000000,0.000000,50.000141,50.000000,107.687782,0.000005,0.000536,254.951614,70.620682,0.003499,-1.943920,-730.909180,0.000000
0.000000,0.000000,0.000000,0.000000,0.000000,0.000000,0.000000,0.000000,0,0,0,0,0,0,32.0141827143,34.8668661014,107.687790,-0.168182,-0.733336,121.400047,47.708862,2.428858,0.542704,0.000029,2.743330,434.666199,45.633385,12.000000,40.000000,0.000000,0.000000,50.000141,50.000000,107.687790,0.000004,0.001440,254.951614,82.295586,0.003537,-2.027483,-983.731506,0.000000
0.000000,0.000000,0.000000,0.000000,0.000000,0.000000,0.000000,0.000000,0,0,0,0,0,0,32.0141827144,34.8668661014,107.687798,-0.168176,-0.733207,121.400047,48.947624,2.401083,0.392856,0.000030,5.030913,431.322906,42.290112,12.000000,40.000000,0.000000,0.000000,40.000141,40.000000,107.687798,0.000004,0.002043,254.951614,87.342155,0.003553,-2.059861,-1039.128662,0.000000
0.000000,0.000000,0.000000,0.000000,0.000000,0.000000,0.000000,0.000000,0,0,0,0,0,0,32.0141827144,34.8668661013,107.687798,-0.168174,-0.733079,121.400047,49.989208,2.379065,0.401431,0.000035,5.717679,428.296967,39.264153,12.000000,40.000000,0.000000,0.000000,40.000141,40.000000,107.687798,0.000004,0.001775,254.951614,91.458916,0.003561,-2.084852,-1093.196045,0.000000
0.000000,0.000000,0.000000,0.000000,0.000000,0.000000,0.000000,0.000000,0,0,0,0,0,0,32.0141827144,34.8668661013,107.687798,-0.168176,-0.732959,121.400047,50.897297,2.360827,0.407131,0.000039,6.092174,425.634674,36.601864,12.000000,40.000000,0.000000,0.000000,40.000141,40.000000,107.687798,0.000004,0.002076,254.951614,94.950989,0.003568,-2.105140,-1137.189087,0.000000
0.000000,0.000000,0.000000,0.000000,0.000000,0.000000,0.000000,0.000000,0,0,0,0,0,0,32.0141827144,34.8668661013,107.687805,-0.168182,-0.732807,121.400047,51.974377,2.340310,0.398456,0.000040,6.022774,422.284912,33.252121,12.000000,40.000000,0.000000,0.000000,40.000141,40.000000,107.687805,0.000004,0.001909,254.951614,98.973625,0.003574,-2.127560,-1193.709106,0.000000
0.000000,0.000000,0.000000,0.000000,0.000000,0.000000,0.000000,0.000000,0,0,0,0,0,0,32.0141827144,34.8668661012,107.687813,-0.168193,-0.732640,121.400047,53.149193,2.319260,0.414006,0.000042,5.885415,418.674194,29.641407,12.000000,40.000000,0.000000,0.000000,30.000143,30.000000,107.687813,0.000004,0.001741,254.951614,103.211777,0.003580,-2.150170,-1246.451904,0.000000
0.000000,0.000000,0.000000,0.000000,0.000000,0.000000,0.000000,0.000000,0,0,0,0,0,0,32.0141827145,34.8668661012,107.687813,-0.168206,-0.732489,121.400047,54.264740,2.300505,0.436733,0.000043,5.954035,415.397034,26.364227,12.000000,40.000000,0.000000,0.000000,30.000143,30.000000,107.687813,0.000004,0.002277,254.951614,107.090645,0.003588,-2.170034,-1285.022705,0.000000
0.000000,0.000000,0.000000,0.000000,0.000000,0.000000,0.000000,0.000000,0,0,0,0,0,0,32.0141827145,34.8668661011,107.687828,-0.168293,-0.731931,121.400047,57.717617,2.249633,0.637575,0.000038,2.644282,404.381744,15.348941,12.000000,40.000000,0.000000,0.000000,20.000143,20.000000,107.687828,0.000003,0.002244,254.951614,118.196297,0.003607,-2.223109,-1398.186035,0.000000
0.000000,0.000000,0.000000,0.000000,0.000000,0.000000,0.000000,0.000000,0,0,0,0,0,0,32.0141827148,34.8668661008,107.687866,-0.168842,-0.730630,121.400055,68.314842,2.152923,0.742206,0.000007,0.000000,376.338409,-12.694389,12.000000,40.000000,0.000000,0.000000,-9.999858,-10.000000,107.687866,0.000003,0.000469,254.951614,144.085541,0.003713,-2.332232,-1334.693970,0.000000
0.000000,0.000000,0.000000,0.000000,0.000000,0.000000,0.000000,0.000000,0,0,0,0,0,0,32.0141827149,34.8668661008,107.687874,-0.168962,-0.730486,121.400055,70.620010,2.142493,0.322264,0.000020,4.110737,371.343109,-17.689699,12.000000,40.000000,0.000000,0.000000,-19.999857,-20.000000,107.687874,0.000003,0.001005,254.951614,148.171768,0.003726,-2.348861,-1352.972290,0.000000
0.000000,0.000000,0.000000,0.000000,0.000000,0.000000,0.000000,0.000000,0,0,0,0,0,0,32.0141827150,34.8668661008,107.687881,-0.169405,-0.729996,121.400063,75.094330,2.132330,0.634305,0.000028,2.003001,360.060516,-28.972279,12.000000,40.000000,0.000000,0.000000,-29.999857,-30.000000,107.687881,0.000002,0.001574,254.951614,154.618973,0.003780,-2.376310,-1423.815186,0.000000
0.000000,0.000000,0.000000,0.000000,0.000000,0.000000,0.000000,0.000000,0,0,0,0,0,0,32.0141827150,34.8668661008,107.687889,-0.169510,-0.729903,121.400063,76.684982,2.131849,0.286345,0.000023,4.934201,356.966064,-32.066734,12.000000,40.000000,0.000000,0.000000,-29.999857,-30.000000,107.687889,0.000002,0.001674,254.951614,156.452377,0.003783,-2.384785,-1415.628540,0.000000
0.000000,0.000000,0.000000,0.000000,0.000000,0.000000,0.000000,0.000000,0,0,0,0,0,0,32.0141827152,34.8668661007,107.687897,-0.170136,-0.729376,121.400070,81.167480,2.139411,0.583986,0.000029,2.020599,345.414703,-43.618107,12.000000,40.000000,0.000000,0.000000,-39.999859,-40.000000,107.687897,0.000002,0.001272,254.951614,160.350632,0.003856,-2.405710,-1479.046265,0.000000
0.000000,0.000000,0.000000,0.000000,0.000000,0.000000,0.000000,0.000000,0,0,0,0,0,0,32.0141827154,34.8668661007,107.687912,-0.170807,-0.728908,121.400085,85.499588,2.159361,0.494064,0.000027,2.014526,334.821899,-54.210911,12.000000,40.000000,0.000000,0.000000,-49.999859,-50.000000,107.687912,0.000002,0.001507,254.951614,162.364319,0.003934,-2.422511,-1499.708618,0.000000
0.000000,0.000000,0.000000,0.000000,0.000000,0.000000,0.000000,0.000000,0,0,0,0,0,0,32.0141827137,34.8668660995,107.687958,-0.162201,-0.729179,121.399933,83.987236,2.263934,0.530682,0.000004,0.000000,307.595795,-81.437004,12.000000,40.000000,0.000000,0.000000,-79.999855,-80.000000,107.687958,0.000002,0.000167,254.951614,160.048462,0.003016,-2.453050,-1389.256592,0.000000
0.000000,0.000000,0.000000,0.000000,0.000000,0.000000,0.000000,0.200000,0,0,0,0,0,0,32.0141827137,34.8668660995,107.687958,-0.162205,-0.729133,121.399933,82.262688,2.289605,0.091321,0.000002,4.475906,303.623383,-85.409431,12.000000,40.000000,0.000000,0.000000,-79.999855,-80.000000,107.687958,0.000002,0.000100,254.951614,158.669754,0.002949,-2.456991,-1388.734985,0.000000
0.000000,0.000000,0.000000,0.000000,0.000000,0.000000,0.200000,0.200000,0,0,0,0,0,0,32.0141827137,34.8668660995,107.687950,-0.162216,-0.729090,121.399933,80.895248,2.311879,-0.054672,-0.000001,5.279087,102.449814,-88.956116,12.000000,40.000000,0.000000,0.000000,-89.999855,-90.000000,107.687950,0.000002,-0.000301,254.945740,157.370804,0.002902,-2.459938,-1404.208740,0.000000
0.000000,0.000000,0.000000,0.000000,0.000000,0.000000,0.200000,0.200000,0,0,0,0,0,0,32.0141827137,34.8668660995,107.687950,-0.162231,-0.729059,121.399933,79.789177,2.331194,-0.060500,-0.000001,5.759610,99.490761,-91.915169,12.000000,40.000000,0.000000,0.000000,-89.999855,-90.000000,107.687950,0.000002,0.000000,254.945740,156.185623,0.002861,-2.462213,-1417.893555,0.000000
0.000000,0.000000,0.000000,0.000000,0.000000,0.000000,0.200000,0.200000,0,0,0,0,0,0,32.0141827137,34.8668660995,107.687950,-0.162249,-0.729030,121.399933,78.701630,2.351367,0.033945,0.000001,5.897022,96.393402,-95.012527,12.000000,40.000000,0.000000,0.000000,-89.999855,-90.000000,107.687950,0.000002,0.000402,254.945740,154.902145,0.002836,-2.464358,-1436.466431,0.000000
0.000000,0.000000,0.000000,0.000000,0.000000,0.000000,0.200000,0.200000,0,0,0,0,0,0,32.0141827137,34.8668660995,107.687950,-0.162269,-0.728998,121.399933,77.632866,2.372373,0.111773,0.000002,5.936416,93.255135,-98.150795,12.000000,40.000000,0.000000,0.000000,-99.999855,-100.000000,107.687950,0.000001,0.000301,254.945740,153.526077,0.002805,-2.466382,-1455.074707,0.000000
0.000000,0.000000,0.000000,0.000000,0.000000,0.000000,0.200000,0.200000,0,0,0,0,0,0,32.0141827137,34.8668660995,107.687950,-0.162292,-0.728969,121.399933,76.583168,2.394190,0.218079,0.000005,5.947377,90.104759,-101.301163,12.000000,40.000000,0.000000,0.000000,-99.999855,-100.000000,107.687950,0.000001,0.000167,254.945740,152.063278,0.002786,-2.468291,-1472.463135,0.000000
0.000000,0.000000,0.000000,0.000000,0.000000,0.000000,0.200000,0.200000,0,0,0,0,0,0,32.0141827137,34.8668660995,107.687950,-0.162318,-0.728937,121.399933,75.552734,2.416799,0.305483,0.000008,5.949972,86.950813,-104.455116,12.000000,40.000000,0.000000,0.000000,-99.999855,-100.000000,107.687950,0.000001,0.000435,254.945740,150.519669,0.002762,-2.470091,-1488.403931,0.000000
0.000000,0.000000,0.000000,0.000000,0.000000,0.000000,0.200000,0.200000,0,0,0,0,0,0,32.0141827137,34.8668660995,107.687958,-0.162342,-0.728906,121.399933,74.613235,2.438480,0.275851,0.000008,6.053463,84.068924,-107.336998,12.000000,40.000000,0.000000,0.000000,-109.999855,-110.000000,107.687958,0.000001,0.000603,254.945740,149.019241,0.002749,-2.471671,-1500.049194,0.000000
0.000000,0.000000,0.000000,0.000000,0.000000,0.000000,0.200000,0.200000,0,0,0,0,0,0,32.0141827137,34.8668660995,107.687958,-0.162370,-0.728872,121.399933,73.690521,2.460806,0.288209,0.000009,6.088157,81.154404,-110.251526,12.000000,40.000000,0.000000,0.000000,-109.999855,-110.000000,107.687958,0.000001,0.000335,254.945740,147.459213,0.002736,-2.473168,-1512.128296,0.000000
0.000000,0.000000,0.000000,0.000000,0.000000,0.000000,0.200000,0.200000,0,0,0,0,0,0,32.0141827137,34.8668660995,107.687958,-0.162397,-0.728837,121.399933,72.784538,2.483761,0.330712,0.000010,6.098750,78.229347,-113.176582,12.000000,40.000000,0.000000,0.000000,-109.999855,-110.000000,107.687958,0.000001,0.000502,254.945740,145.844482,0.002723,-2.474586,-1523.666138,0.000000
0.000000,0.000000,0.000000,0.000000,0.000000,0.000000,0.200000,0.200000,0,0,0,0,0,0,32.0141827137,34.8668660995,107.687958,-0.162431,-0.728800,121.399940,71.827606,2.509163,0.319050,0.000010,5.994751,75.025909,-116.380013,12.000000,40.000000,0.000000,0.000000,-109.999855,-110.000000,107.687958,0.000001,0.000536,254.945740,144.050003,0.002713,-2.476029,-1537.134888,0.000000
0.000000,0.000000,0.000000,0.000000,0.000000,0.000000,0.200000,0.200000,0,0,0,0,0,0,32.0141827138,34.8668660995,107.687958,-0.162463,-0.728764,121.399940,70.956451,2.533366,0.350427,0.000012,6.065386,72.129944,-119.275986,12.000000,40.000000,0.000000,0.000000,-119.999855,-120.000000,107.687958,0.000001,0.000536,254.945740,142.337402,0.002705,-2.477295,-1545.458740,0.000000
0.000000,0.000000,0.000000,0.000000,0.000000,0.000000,0.200000,0.200000,0,0,0,0,0,0,32.0141827138,34.8668660995,107.687958,-0.162495,-0.728729,121.399940,70.101883,2.558146,0.343825,0.000011,6.089650,69.210869,-122.195061,12.000000,40.000000,0.000000,0.000000,-119.999855,-120.000000,107.687958,0.000001,0.000603,254.945740,140.585266,0.002696,-2.478495,-1554.089966,0.000000
0.000000,0.000000,0.000000,0.000000,0.000000,0.000000,0.200000,0.200000,0,0,0,0,0,0,32.0141827138,34.8668660995,107.687958,-0.162530,-0.728694,121.399940,69.263878,2.583483,0.365087,0.000013,6.096889,66.284340,-125.121590,12.000000,40.000000,0.000000,0.000000,-119.999855,-120.000000,107.687958,0.000001,0.000670,254.945740,138.798523,0.002693,-2.479631,-1562.356567,0.000000
0.000000,0.000000,0.000000,0.000000,0.000000,0.000000,0.200000,0.200000,0,0,0,0,0,0,32.0141827138,34.8668660995,107.687965,-0.162576,-0.728652,121.399940,68.317345,2.613394,0.347108,0.000012,5.877339,62.803982,-128.601944,12.000000,40.000000,0.000000,0.000000,-129.999863,-130.000000,107.687965,0.000001,0.001005,254.945740,136.700272,0.002689,-2.480868,-1575.009644,0.000000
0.000000,0.000000,0.000000,0.000000,0.000000,0.000000,0.200000,0.200000,0,0,0,0,0,0,32.0141827138,34.8668660995,107.687965,-0.162607,-0.728617,121.399940,67.534851,2.633928,0.410120,0.000013,6.024415,59.942574,-131.463348,12.000000,40.000000,0.000000,0.000000,-129.999863,-130.000000,107.687965,0.000001,0.000971,254.945740,134.855560,0.002691,-2.481878,-1579.018677,0.000000
0.000000,0.000000,0.000000,0.000000,0.000000,0.000000,0.200000,0.200000,0,0,0,0,0,0,32.0141827138,34.8668660995,107.687965,-0.162603,-0.728580,121.399940,66.738785,2.628520,0.424342,0.000010,5.857749,56.485790,-134.920135,12.000000,40.000000,0.000000,0.000000,-129.999863,-130.000000,107.687965,0.000001,0.000636,254.945740,132.703339,0.002698,-2.482979,-1589.234253,0.000000
0.000000,0.000000,0.000000,0.000000,0.000000,0.000000,0.200000,0.200000,0,0,0,0,0,0,32.0141827138,34.8668660994,107.687965,-0.162569,-0.728552,121.399940,65.939461,2.623610,0.327747,0.000009,5.809590,53.085293,-138.320633,12.000000,40.000000,0.000000,0.000000,-139.999863,-140.000000,107.687965,0.000001,0.000201,254.945740,130.532700,0.002693,-2.484012,-1596.303223,0.000000
0.000000,0.000000,0.000000,0.000000,0.000000,0.000000,0.200000,0.200000,0,0,0,0,0,0,32.0141827138,34.8668660994,107.687965,-0.162528,-0.728528,121.399940,65.190826,2.619488,0.296626,0.000009,5.905828,49.973198,-141.432724,12.000000,40.000000,0.000000,0.000000,-139.999863,-140.000000,107.687965,0.000001,0.000301,254.945740,128.496445,0.002694,-2.484920,-1600.020752,0.000000
0.000000,0.000000,0.000000,0.000000,0.000000,0.000000,0.200000,0.200000,0,0,0,0,0,0,32.0141827138,34.8668660994,107.687965,-0.162356,-0.728454,121.399933,62.932125,2.609805,0.212148,0.000003,2.573894,39.481976,-151.923950,12.000000,40.000000,0.000000,0.000000,-149.999863,-150.000000,107.687965,0.000001,0.000268,254.945740,122.385254,0.002667,-2.487345,-1633.073242,0.000000
0.000000,0.000000,0.000000,0.000000,0.000000,0.000000,0.200000,0.200000,0,0,0,0,0,0,32.0141827137,34.8668660993,107.687973,-0.161980,-0.728304,121.399925,56.428455,2.604720,0.736164,0.000001,1.074696,12.167177,-179.238754,12.000000,40.000000,0.000000,0.000000,-179.999863,-180.000000,107.687973,0.000001,0.000134,254.945740,105.974602,0.002605,-2.492332,-1471.046509,0.000000
0.000000,0.000000,0.000000,0.000000,0.000000,0.000000,0.200000,0.200000,0,0,0,0,0,0,32.0141827137,34.8668660993,107.687973,-0.161845,-0.728248,121.399925,53.240963,2.614528,0.635536,0.000003,1.936966,-1.048574,-192.454498,12.000000,40.000000,0.000000,0.000000,-189.999863,-190.000000,107.687973,0.000001,0.000201,254.945740,99.098793,0.002585,-2.494007,-1479.314941,0.000000
0.000000,0.000000,0.000000,0.000000,0.000000,0.000000,0.200000,0.200000,0,0,0,0,0,0,32.0141827137,34.8668660992,107.687981,-0.161605,-0.728101,121.399918,46.878761,2.659050,0.480463,0.000001,1.603862,-28.163757,-219.569687,12.000000,40.000000,0.000000,0.000000,-219.999863,-220.000000,107.687981,0.000001,0.000033,254.945740,88.745415,0.002528,-2.496369,-1370.586670,0.000000
0.000000,0.000000,0.000000,0.000000,0.000000,0.000000,0.200000,0.200000,0,0,0,0,0,0,32.0141827137,34.8668660992,107.687981,-0.161579,-0.728087,121.399918,45.635868,2.671811,0.297340,0.000003,4.619792,-32.902020,-224.307953,12.000000,40.000000,0.000000,0.000000,-219.999863,-220.000000,107.687981,0.000001,0.000100,254.945740,87.333931,0.002523,-2.496715,-1379.625122,0.000000
0.000000,0.000000,0.000000,0.000000,0.000000,0.000000,0.200000,0.200000,0,0,0,0,0,0,32.0141827137,34.8668660992,107.687981,-0.161486,-0.728017,121.399918,42.935768,2.704395,0.778960,0.000004,2.594597,-45.388607,-236.794540,12.000000,40.000000,0.000000,0.000000,-239.999863,-240.000000,107.687981,0.000001,0.000301,254.945740,85.029625,0.002504,-2.497367,-1441.201660,0.000000
0.000000,0.000000,0.000000,0.000000,0.000000,0.000000,0.200000,0.200000,0,0,0,0,0,0,32.0141827137,34.8668660992,107.687981,-0.161473,-0.728009,121.399918,42.084072,2.716099,0.408686,0.000004,5.321893,-48.443127,-239.849045,12.000000,40.000000,0.000000,0.000000,-239.999863,-240.000000,107.687981,0.000001,0.000134,254.945740,84.526566,0.002503,-2.497548,-1428.880493,0.000000
0.000000,0.000000,0.000000,0.000000,0.000000,0.000000,0.200000,0.200000,0,0,0,0,0,0,32.0141827136,34.8668660992,107.687981,-0.161457,-0.727993,121.399918,41.338757,2.726921,0.388893,0.000006,5.966050,-51.563416,-242.969345,12.000000,40.000000,0.000000,0.000000,-239.999863,-240.000000,107.687981,0.000001,0.000301,254.945740,84.176582,0.002498,-2.497696,-1438.214233,0.000000
0.000000,0.000000,0.000000,0.000000,0.000000,0.000000,0.200000,0.200000,0,0,0,0,0,0,32.0141827136,34.8668660991,107.687981,-0.161438,-0.727974,121.399918,40.599380,2.738201,0.339122,0.000005,6.139371,-54.872845,-246.278763,12.000000,40.000000,0.000000,0.000000,-239.999863,-240.000000,107.687981,0.000000,0.000067,254.945740,83.913483,0.002495,-2.497836,-1454.952881,0.000000
0.000000,0.000000,0.000000,0.000000,0.000000,0.000000,0.200000,0.200000,0,0,0,0,0,0,32.0141827136,34.8668660991,107.687981,-0.161422,-0.727954,121.399918,39.914791,2.749137,0.462528,0.000007,6.292991,-57.961235,-249.367157,12.000000,40.000000,0.000000,0.000000,-249.999863,-250.000000,107.687981,0.000000,0.000469,254.945740,83.745148,0.002491,-2.497959,-1469.230347,0.000000
0.000000,0.000000,0.000000,0.000000,0.000000,0.000000,0.200000,0.200000,0,0,0,0,0,0,32.0141827136,34.8668660991,107.687981,-0.161408,-0.727937,121.399918,39.235729,2.760465,0.463943,0.000007,6.346912,-61.096169,-252.502090,12.000000,40.000000,0.000000,0.000000,-249.999863,-250.000000,107.687981,0.000000,0.000368,254.945740,83.650070,0.002486,-2.498075,-1484.218506,0.000000
0.000000,0.000000,0.000000,0.000000,0.000000,0.000000,0.200000,0.200000,0,0,0,0,0,0,32.0141827136,34.8668660991,107.687988,-0.161394,-0.727920,121.399918,38.610188,2.771329,0.443053,0.000007,6.465802,-63.972027,-255.377960,12.000000,40.000000,0.000000,0.000000,-249.999863,-250.000000,107.687988,0.000000,0.000301,254.945740,83.626129,0.002484,-2.498177,-1495.551270,0.000000
0.000000,0.000000,0.000000,0.000000,0.000000,0.000000,0.200000,0.200000,0,0,0,0,0,0,32.0141827136,34.8668660991,107.687988,-0.161379,-0.727904,121.399918,37.942024,2.783394,0.557003,0.000008,6.415147,-67.158272,-258.564209,12.000000,40.000000,0.000000,0.000000,-259.999847,-260.000000,107.687988,0.000000,0.000469,254.945740,83.668152,0.002480,-2.498280,-1510.352417,0.000000
0.000000,0.000000,0.000000,0.000000,0.000000,0.000000,0.200000,0.200000,0,0,0,0,0,0,32.0141827136,34.8668660991,107.687988,-0.161367,-0.727888,121.399918,37.326824,2.794933,0.420838,0.000006,6.501966,-70.048737,-261.454651,12.000000,40.000000,0.000000,0.000000,-259.999847,-260.000000,107.687988,0.000000,0.000335,254.945740,83.768646,0.002476,-2.498371,-1520.172485,0.000000
0.000000,0.000000,0.000000,0.000000,0.000000,0.000000,0.200000,0.200000,0,0,0,0,0,0,32.0141827136,34.8668660991,107.687988,-0.161355,-0.727870,121.399918,36.716743,2.806795,0.429774,0.000007,6.538888,-72.965424,-264.371338,12.000000,40.000000,0.000000,0.000000,-259.999847,-260.000000,107.687988,0.000000,0.000268,254.945740,83.926804,0.002475,-2.498457,-1530.306763,0.000000
0.000000,0.000000,0.000000,0.000000,0.000000,0.000000,0.200000,0.200000,0,0,0,0,0,0,32.0141827136,34.8668660991,107.687988,-0.161337,-0.727853,121.399918,36.065460,2.819920,0.567152,0.000008,6.459826,-76.165375,-267.571289,12.000000,40.000000,0.000000,0.000000,-269.999847,-270.000000,107.687988,0.000000,0.000335,254.945740,84.159767,0.002470,-2.498545,-1542.622681,0.000000
0.000000,0.000000,0.000000,0.000000,0.000000,0.000000,0.200000,0.200000,0,0,0,0,0,0,32.0141827136,34.8668660991,107.687988,-0.161325,-0.727835,121.399918,35.466190,2.832433,0.517437,0.000008,6.538116,-79.059753,-270.465668,12.000000,40.000000,0.000000,0.000000,-269.999847,-270.000000,107.687988,0.000000,0.000502,254.945740,84.432442,0.002467,-2.498622,-1550.049438,0.000000
0.000000,0.000000,0.000000,0.000000,0.000000,0.000000,0.200000,0.200000,0,0,0,0,0,0,32.0141827136,34.8668660991,107.687988,-0.161310,-0.727812,121.399918,34.781330,2.847251,0.406542,0.000007,6.371546,-82.528198,-273.934113,12.000000,40.000000,0.000000,0.000000,-269.999847,-270.000000,107.687988,0.000000,0.000435,254.945740,84.812096,0.002464,-2.498705,-1562.870361,0.000000
0.000000,0.000000,0.000000,0.000000,0.000000,0.000000,0.200000,0.200000,0,0,0,0,0,0,32.0141827136,34.8668660991,107.687996,-0.161266,-0.727742,121.399918,32.945919,2.889746,0.795768,0.000007,3.587059,-91.780663,-283.186584,12.000000,40.000000,0.000000,0.000000,-279.999847,-280.000000,107.687996,0.000000,0.000167,254.945740,86.182137,0.002454,-2.498909,-1567.258423,0.000000
0.000000,0.000000,0.000000,0.000000,0.000000,0.000000,0.200000,0.200000,0,0,0,0,0,0,32.0141827136,34.8668660991,107.687996,-0.161257,-0.727726,121.399918,32.244572,2.906946,0.502346,0.000007,2.735465,-91.988258,-283.394196,12.000000,40.000000,0.000000,0.000000,-279.999847,-280.000000,107.687996,0.000000,0.000368,254.945740,86.838608,0.002453,-2.498980,-1431.621094,0.000000
0.000000,0.000000,0.000000,0.000000,0.000000,0.000000,0.200000,0.200000,0,0,0,0,0,0,32.0141827136,34.8668660991,107.687996,-0.161247,-0.727709,121.399918,31.637711,2.922349,0.617052,0.000008,2.518519,-92.041245,-283.447174,12.000000,40.000000,0.000000,0.000000,-279.999847,-280.000000,107.687996,0.000000,0.000201,254.945740,87.464279,0.002451,-2.499038,-1307.391724,0.000000
0.000000,0.000000,0.000000,0.000000,0.000000,0.000000,0.200000,0.200000,0,0,0,0,0,0,32.0141827136,34.8668660990,107.687996,-0.161238,-0.727691,121.399910,31.037344,2.938073,0.574230,0.000008,2.473177,-92.061546,-283.467468,12.000000,40.000000,0.000000,0.000000,-279.999847,-280.000000,107.687996,0.000000,0.000402,254.945740,88.134872,0.002447,-2.499092,-1181.607056,0.000000
0.000000,0.000000,0.000000,0.000000,0.000000,0.000000,0.200000,0.200000,0,0,0,0,0,0,32.0141827136,34.8668660990,107.687996,-0.161228,-0.727670,121.399910,30.401306,2.955275,0.625987,0.000010,2.483426,-92.072906,-283.478821,12.000000,40.000000,0.000000,0.000000,-279.999847,-280.000000,107.687996,0.000000,0.000402,254.945740,88.899986,0.002444,-2.499147,-1046.272705,0.000000
0.000000,0.000000,0.000000,0.000000,0.000000,0.000000,0.200000,0.200000,0,0,0,0,0,0,32.0141827136,34.8668660990,107.687996,-0.161220,-0.727646,121.399910,29.772726,2.972836,0.593238,0.000009,2.511521,-92.081131,-283.487061,12.000000,40.000000,0.000000,0.000000,-279.999847,-280.000000,107.687996,0.000000,0.000469,254.945740,89.709854,0.002442,-2.499199,-910.723877,0.000000
0.000000,0.000000,0.000000,0.000000,0.000000,0.000000,0.200000,0.200000,0,0,0,0,0,0,32.0141827136,34.8668660990,107.687996,-0.161211,-0.727624,121.399910,29.151672,2.990749,0.497157,0.000008,2.544360,-92.088509,-283.494446,12.000000,40.000000,0.000000,0.000000,-279.999847,-280.000000,107.687996,0.000000,0.000469,254.945740,90.560860,0.002440,-2.499248,-775.079895,0.000000
0.000000,0.000000,0.000000,0.000000,0.000000,0.000000,0.200000,0.200000,0,0,0,0,0,0,32.0141827136,34.8668660990,107.687996,-0.161203,-0.727604,121.399910,28.646255,3.005738,0.405807,0.000007,2.572875,-92.095123,-283.501038,12.000000,40.000000,0.000000,0.000000,-279.999847,-280.000000,107.687996,0.000000,0.000703,254.945740,91.389030,0.002441,-2.499290,-648.415100,0.000000
0.000000,0.000000,0.000000,0.000000,0.000000,0.000000,0.200000,0.200000,0,0,0,0,0,0,32.0141827136,34.8668660990,107.687996,-0.161196,-0.727587,121.399910,28.646172,3.005646,0.655054,0.000006,2.574080,-92.101440,-283.507355,12.000000,40.000000,0.000000,0.000000,-279.999847,-280.000000,107.687996,0.000000,0.000234,254.945740,92.184692,0.002437,-2.499328,-530.770508,0.000000
0.000000,0.000000,0.000000,0.000000,0.000000,0.000000,0.200000,0.200000,0,0,0,0,0,0,32.0141827136,34.8668660990,107.688004,-0.161195,-0.727578,121.399910,28.646139,3.005547,0.727079,0.000004,2.573857,105.518356,-283.514435,12.000000,40.000000,0.000000,0.000000,-279.999847,-280.000000,107.688004,0.000000,0.000234,254.945740,93.067436,0.002435,-2.499366,-404.043396,0.000000
0.000000,0.000000,0.000000,0.000000,0.000000,0.000000,0.200000,0.200000,0,0,0,0,0,0,32.0141827136,34.8668660990,107.688004,-0.161195,-0.727573,121.399910,28.646128,3.005449,1.064845,0.000003,2.573718,105.511299,-283.521515,12.000000,40.000000,0.000000,0.000000,-279.999847,-280.000000,107.688004,0.000000,0.000067,254.945740,93.974075,0.002433,-2.499402,-277.199554,0.000000
0.000000,0.000000,0.000000,0.000000,0.000000,0.000000,0.200000,0.200000,0,0,0,0,0,0,32.0141827136,34.8668660990,107.688004,-0.161193,-0.727562,121.399910,28.646166,3.005346,0.497007,0.000004,2.573610,105.504250,-283.528564,12.000000,40.000000,0.000000,0.000000,-279.999847,-280.000000,107.688004,0.000000,0.000201,254.945740,94.901627,0.002433,-2.486281,-150.073425,0.000000
0.000000,0.000000,0.000000,0.000000,0.000000,0.000000,0.200000,0.200000,0,0,0,0,0,0,32.0141827136,34.8668660990,107.688004,-0.161206,-0.727657,121.399910,28.644911,3.005337,-0.154779,-0.000029,2.573615,105.497200,-283.535583,12.000000,40.000000,0.000000,0.000000,-279.999847,-280.000000,107.688004,0.000000,-0.001976,254.945740,95.847107,0.002422,-2.451568,-20.510595,0.000000
0.000000,0.000000,0.000000,0.000000,0.000000,0.000000,0.200000,0.200000,0,0,0,0,0,0,32.0141827136,34.8668660992,107.687996,-0.161262,-0.728185,121.399918,28.642967,3.005384,-0.237617,-0.000120,2.573142,105.489540,-283.543243,12.000000,40.000000,0.000000,0.000000,-279.999847,-280.000000,107.687996,0.000000,-0.005023,254.945740,96.876663,0.002411,-2.394922,-19.060026,0.000000
0.000000,0.000000,0.000000,0.000000,0.000000,0.000000,0.200000,0.200000,0,0,0,0,0,0,32.0141827135,34.8668660995,107.687981,-0.161366,-0.729288,121.399918,28.641150,3.005413,-0.281944,-0.000227,2.572494,105.481354,-283.551453,12.000000,40.000000,0.000000,0.000000,-279.999847,-280.000000,107.687981,0.000000,-0.010381,254.945740,97.989731,0.002405,-2.317116,-19.695185,0.000000
0.000000,0.000000,0.000000,0.000000,0.000000,0.000000,0.200000,0.200000,0,0,0,0,0,0,32.0141827133,34.8668660998,107.687950,-0.161491,-0.730609,121.399925,28.639944,3.005406,-0.312512,-0.000315,2.573452,105.474472,-283.558319,11.941958,39.806530,-0.000000,-0.000000,-279.999847,-280.000000,107.687950,0.000000,-0.014432,254.945740,98.972946,0.002405,-2.237918,-15.365134,0.000000
0.000000,0.000000,0.000000,0.000000,0.000000,0.000000,0.200000,0.200000,0,0,0,0,0,0,32.0141827132,34.8668661002,107.687920,-0.161641,-0.732187,121.399933,28.639000,3.005377,-0.337878,-0.000394,2.573759,105.467461,-283.565338,11.740661,39.135536,-0.000000,-0.000000,-279.999847,-280.000000,107.687920,0.000000,-0.018685,254.945740,99.961830,0.002408,-2.151235,-9.567380,0.000000
0.000000,0.000000,0.000000,0.000000,0.000000,0.000000,0.200000,0.200000,0,0,0,0,0,0,32.0141827130,34.8668661006,107.687881,-0.161813,-0.733958,121.399940,28.638300,3.005330,-0.358208,-0.000461,2.573844,105.460411,-283.572388,11.502319,38.341064,-0.000000,-0.000000,-279.999847,-280.000000,107.687881,0.000000,-0.022067,254.945740,100.953598,0.002415,-2.059478,-17.697222,0.000000
0.000000,0.000000,0.000000,0.000000,0.000000,0.000000,0.200000,0.200000,0,0,0,0,0,0,32.0141827128,34.8668661011,107.687836,-0.161995,-0.735872,121.399940,28.637836,3.005269,-0.370843,-0.000509,2.573848,105.453339,-283.579468,11.237218,37.457394,-0.000000,-0.000000,-279.999847,-280.000000,107.687836,0.000000,-0.024679,254.945740,101.945496,0.002429,-1.964740,-12.587397,0.000000
0.000000,0.000000,0.000000,0.000000,0.000000,0.000000,0.200000,0.200000,0,0,0,0,0,0,32.0141827126,34.8668661016,107.687782,-0.162183,-0.737876,121.399948,28.637590,3.005188,-0.385802,-0.000548,2.573809,105.446259,-283.586548,10.949098,36.496990,-0.000000,-0.000000,-279.999847,-280.000000,107.687782,0.000000,-0.026186,254.945740,102.934853,0.002443,-1.868815,-19.663427,0.000000
0.000000,0.000000,0.000000,0.000000,0.000000,0.000000,0.200000,0.200000,0,0,0,0,0,0,32.0141827124,34.8668661021,107.687729,-0.162373,-0.739920,121.399956,28.637537,3.005094,-0.395803,-0.000568,2.573744,105.439178,-283.593628,10.641474,35.471581,-0.000000,-0.000000,-279.999847,-280.000000,107.687729,0.000000,-0.028362,254.945724,103.919060,0.002463,-1.773216,-15.839890,0.000000
0.000000,0.000000,0.000000,0.000000,0.000000,0.000000,0.200000,0.200000,0,0,0,0,0,0,32.0141827121,34.8668661026,107.687675,-0.162562,-0.741961,121.399963,28.637636,3.004987,-0.404880,-0.000576,2.573658,105.432091,-283.600708,10.317621,34.392075,-0.000000,-0.000000,-279.999847,-280.000000,107.687675,0.000000,-0.028932,254.945694,104.895569,0.002483,-1.679187,-12.220777,0.000000
0.000000,0.000000,0.000000,0.000000,0.000000,0.000000,0.200000,0.200000,0,0,0,0,0,0,32.0141827119,34.8668661031,107.687622,-0.162733,-0.743824,121.399971,28.637842,3.004879,-0.413288,-0.000576,2.574110,105.425613,-283.607178,10.004452,33.348175,-0.000001,-0.000000,-279.999847,-280.000000,107.687622,0.000000,-0.028798,254.945587,105.793289,0.002501,-1.594154,-16.457539,0.000000
0.000000,0.000000,0.000000,0.000000,0.000000,0.000000,0.200000,0.200000,0,0,0,0,0,0,32.0141827117,34.8668661036,107.687569,-0.162911,-0.745771,121.399979,28.638168,3.004755,-0.423371,-0.000570,2.573620,105.418449,-283.614349,9.657623,32.192089,-0.000003,-0.000001,-279.999847,-280.000000,107.687569,0.000000,-0.027760,254.945251,106.748108,0.002532,-1.505760,-12.535302,0.000000
0.000000,0.000000,0.000000,0.000000,0.000000,0.000000,0.200000,0.200000,0,0,0,0,0,0,32.0141827115,34.8668661041,107.687515,-0.163080,-0.747637,121.399986,28.638546,3.004625,-0.427760,-0.000549,2.573377,105.411339,-283.621460,9.302705,31.009045,-0.000009,-0.000002,-279.999847,-280.000000,107.687515,0.000000,-0.027894,254.944397,107.688271,0.002554,-1.421196,-8.113163,0.000000
0.000000,0.000000,0.000000,0.000000,0.000000,0.000000,0.200000,0.200000,0,0,0,0,0,0,32.0141827113,34.8668661048,107.687431,-0.163324,-0.750361,121.400002,28.639280,3.004412,-0.440921,-0.000514,2.568321,105.399323,-283.633484,8.739069,29.130339,-0.000035,-0.000008,-279.999847,-280.000000,107.687431,0.000000,-0.025717,254.940399,109.130829,0.002599,-1.296801,-16.253763,0.000000
0.000000,0.000000,0.000000,0.000000,0.000000,0.000000,0.200000,0.200000,0,0,0,0,0,0,32.0141827111,34.8668661052,107.687370,-0.163495,-0.752280,121.400002,28.639830,3.004246,-0.442657,-0.000474,2.570090,105.391068,-283.641724,8.295858,27.653135,-0.000088,-0.000019,-279.999847,-280.000000,107.687370,0.000000,-0.024445,254.932129,110.211952,0.002628,-1.207955,-17.304377,0.000000
0.000000,0.000000,0.000000,0.000000,0.000000,0.000000,0.200000,0.200000,0,0,0,0,0,0,32.0141827109,34.8668661056,107.687325,-0.163624,-0.753732,121.400009,28.640335,3.004107,-0.450002,-0.000445,2.571959,105.384361,-283.648438,7.929085,26.430841,-0.000179,-0.000039,-279.999847,-280.000000,107.687325,0.000000,-0.022770,254.918243,111.077576,0.002657,-1.139370,-11.566041,0.000000
0.000000,0.000000,0.000000,0.000000,0.000000,0.000000,0.200000,0.200000,0,0,0,0,0,0,32.0141827106,34.8668661063,107.687286,-0.163806,-0.754827,121.400002,28.607517,3.006926,-0.052028,-0.000346,2.575417,105.377998,-283.654785,7.589068,25.297918,-0.000329,-0.000071,-279.999847,-280.000000,107.687286,0.000011,-0.018819,254.895279,111.859680,0.002619,-1.079181,-16.017994,0.000000
0.000000,0.000000,0.000000,0.000000,0.000000,0.000000,0.200000,0.200000,0,0,0,0,0,0,32.0141827076,34.8668661125,107.687263,-0.164470,-0.755100,121.399971,28.452660,3.021419,-0.001772,-0.000062,2.590293,105.370895,-283.661896,7.179273,23.932831,-0.000617,-0.000134,-279.999847,-280.000000,107.687263,0.000268,-0.006697,254.851242,112.676918,0.002494,-1.017928,-12.300119,0.000000
0.000000,0.000000,0.000000,0.000000,0.000000,0.000000,0.200000,0.200000,0,0,0,0,0,0,32.0141826979,34.8668661316,107.687263,-0.165521,-0.754722,121.399895,28.173323,3.048406,0.003579,0.000312,2.619750,105.363831,-283.668976,6.720694,22.405901,-0.001152,-0.000251,-279.999847,-280.000000,107.687263,0.001069,0.011519,254.769379,113.466568,0.002489,-0.960176,-19.577147,0.000000
0.000000,0.000000,0.000000,0.000000,0.000000,0.000000,0.200000,0.200000,0,0,0,0,0,0,32.0141826777,34.8668661712,107.687302,-0.166743,-0.754016,121.399696,27.784212,3.087546,0.004735,0.000768,2.663202,105.356796,-283.675995,6.228441,20.768181,-0.002155,-0.000472,-279.999847,-280.000000,107.687302,0.002721,0.030539,254.615738,114.227058,0.002598,-0.905714,-15.706271,0.000000
0.000000,0.000000,0.000000,0.000000,0.000000,0.000000,0.200000,0.200000,0,0,0,0,0,0,32.0141826461,34.8668662325,107.687378,-0.167902,-0.753225,121.399391,27.340605,3.133880,0.005093,0.001276,2.715482,105.350403,-283.682404,5.751995,19.185278,-0.003843,-0.000847,-279.999847,-280.000000,107.687378,0.005265,0.045808,254.356857,114.905861,0.002903,-0.857939,-19.234514,0.000000
0.000000,0.000000,0.000000,0.000000,0.000000,0.000000,0.200000,0.200000,0,0,0,0,0,0,32.0141825953,34.8668663308,107.687500,-0.169076,-0.752335,121.398949,26.795771,3.193240,0.005109,0.001856,2.781627,105.343353,-283.689453,5.248151,17.515762,-0.007047,-0.001565,-279.999847,-280.000000,107.687500,0.009317,0.067340,253.864517,115.606148,0.003288,-0.809335,-15.661945,0.000000
0.000000,0.000000,0.000000,0.000000,0.000000,0.000000,0.200000,0.200000,0,0,0,0,0,0,32.0141825243,34.8668664678,107.687668,-0.170142,-0.751478,121.398216,26.198324,3.260697,0.005088,0.002498,2.857204,105.336411,-283.696381,4.758900,15.902016,-0.012547,-0.002807,-279.999847,-280.000000,107.687668,0.014920,0.090411,253.017792,116.273392,0.004042,-0.763524,-8.468181,0.000000
0.000000,0.000000,0.000000,0.000000,0.000000,0.000000,0.200000,0.200000,0,0,0,0,0,0,32.0141824384,34.8668666333,107.687874,-0.171015,-0.750756,121.397240,25.612289,3.329061,0.004866,0.003017,2.934400,105.330124,-283.702667,4.318717,14.460312,-0.020780,-0.004678,-279.999847,-280.000000,107.687874,0.021640,0.134479,251.746994,116.862457,0.004823,-0.723377,-13.760276,0.000000
0.000000,0.000000,0.000000,0.000000,0.000000,0.000000,0.200000,0.200000,0,0,0,0,0,0,32.0141823042,34.8668668918,107.688179,-0.171867,-0.749989,121.395302,24.888922,3.419278,0.004785,0.003775,3.033954,105.321991,-283.710815,3.796203,12.769106,-0.037048,-0.008398,-279.999847,-280.000000,107.688179,0.032036,0.170945,249.226303,117.545944,0.006460,-0.676971,-13.619211,0.000000
0.000000,0.000000,0.000000,0.000000,0.000000,0.000000,0.200000,0.200000,0,0,0,0,0,0,32.0141821597,34.8668671699,107.688515,-0.172454,-0.749443,121.392929,24.263685,3.501906,0.004741,0.004470,3.126388,105.315369,-283.717438,3.355106,11.367275,-0.059117,-0.013470,-279.999847,-280.000000,107.688515,0.043117,0.202488,245.788559,118.105522,0.007886,-0.638938,-18.840029,0.000000
0.000000,0.000000,0.000000,0.000000,0.000000,0.000000,0.200000,0.200000,0,0,0,0,0,0,32.0141819892,34.8668674981,107.688896,-0.172900,-0.749016,121.390152,23.656544,3.586581,0.004705,0.005174,3.220441,105.308685,-283.724121,2.927585,10.041150,-0.091008,-0.020828,-279.999847,-280.000000,107.688896,0.056066,0.234366,240.785034,118.628456,0.009931,-0.603124,-11.881003,0.000000
0.000000,0.000000,0.000000,0.000000,0.000000,0.000000,0.200000,0.200000,0,0,0,0,0,0,32.0141818074,34.8668678481,107.689301,-0.173104,-0.748717,121.387245,23.133427,3.666531,0.004856,0.006053,3.308589,105.302628,-283.730164,2.541179,8.878777,-0.131514,-0.030200,-279.999847,-280.000000,107.689301,0.069749,0.213706,234.368179,119.080719,0.011517,-0.571739,-15.366136,0.000000
0.000000,0.000000,0.000000,0.000000,0.000000,0.000000,0.200000,0.238500,0,0,0,0,0,0,32.0141815861,34.8668682739,107.689789,-0.173296,-0.748496,121.383858,22.579670,3.752107,0.004831,0.006780,3.402542,105.295921,-283.736877,2.135094,7.702214,-0.188601,-0.043436,-279.999847,-280.000000,107.689789,0.086233,0.239624,225.200470,119.531456,0.013637,-0.539834,-7.586958,0.000000
0.000000,0.000000,0.000000,0.000000,0.000000,0.000000,0.238500,0.238500,0,0,0,0,0,0,32.0141813387,34.8668687499,107.690338,-0.173393,-0.748361,121.380226,22.057112,3.836925,0.004811,0.007499,3.495414,105.289330,-283.743469,1.739212,6.604352,-0.260104,-0.060036,-279.999847,-280.000000,107.690338,0.104471,0.264303,213.491257,119.944199,0.015193,-0.509777,-14.928466,0.000000
0.000000,0.000000,0.000000,0.000000,0.000000,0.000000,0.238500,0.238500,0,0,0,0,0,0,32.0141810656,34.8668692754,107.690941,-0.173416,-0.748294,121.376404,21.565937,3.920507,0.004792,0.008200,3.586679,105.282814,-283.749969,1.355523,5.585998,-0.344144,-0.079561,-279.999847,-280.000000,107.690941,0.124389,0.291058,199.352890,120.318710,0.017178,-0.481454,-18.894777,0.000000
0.000000,0.000000,0.000000,0.000000,0.000000,0.000000,0.238500,0.238500,0,0,0,0,0,0,32.0141807894,34.8668698067,107.691551,-0.173501,-0.748278,121.372749,21.116238,3.996161,0.004630,0.008565,3.669942,105.276947,-283.755859,1.014504,4.712655,-0.429082,-0.099297,-279.999847,-280.000000,107.691551,0.144319,0.377652,184.552658,120.632126,0.018577,-0.456614,-7.596187,0.000000
0.000000,0.000000,0.000000,0.000000,0.000000,0.000000,0.238500,0.238500,0,0,0,0,0,0,32.0141804683,34.8668704247,107.692253,-0.173446,-0.748298,121.368706,20.682732,4.076522,0.004624,0.009227,3.757011,105.270447,-283.762360,0.671091,3.851448,-0.520501,-0.120525,-279.999847,-280.000000,107.692253,0.167246,0.404809,167.856323,120.932632,0.019891,-0.431344,-14.691531,0.000000
