aileron,elevator,rudder,flaps,slats,speedbrake,throttle,throttle,engine-pump,engine-pump,electric-pump,electric-pump,external-power,APU-generator,latitude-deg,longitude-deg,altitude-ft,roll-deg,pitch-deg,heading-deg,side-slip-deg,airspeed-kt,glideslope,vertical-speed-fps,airspeed-indicator_indicated-speed-kt,altimeter_indicated-altitude-ft,altimeter_pressure-alt-ft,attitude-indicator_indicated-pitch-deg,attitude-indicator_indicated-roll-deg,attitude-indicator_internal-pitch-deg,attitude-indicator_internal-roll-deg,encoder_indicated-altitude-ft,encoder_pressure-alt-ft,gps_indicated-altitude-ft,gps_indicated-ground-speed-kt,gps_indicated-vertical-speed,indicated-heading-deg,magnetic-compass_indicated-heading-deg,slip-skid-ball_indicated-slip-skid,turn-indicator_indicated-turn-rate,vertical-speed-indicator_indicated-speed-fpm,engine_rpm
0.000000,0.000000,0.000000,1.000000,0.000000,0.000000,0.000000,0.000000,0,0,0,0,0,0,32.0177231700,34.8926918800,-9999.000000,0.000000,0.424000,260.000000,0.000000,0.000000,0.000000,0.000000,0.000000,0.000000,0.000000,0.000000,0.000000,0.000000,0.000000,0.000000,0.000000,0.000000,0.000000,0.000000,0.000000,0.000000,0.000000,0.000000,0.000000,0.000000
0.000000,0.000000,0.000000,1.000000,0.000000,0.000000,0.000000,0.000000,0,0,0,0,0,0,32.0177231700,34.8926918800,-9999.000000,0.000000,0.424000,260.000000,0.000000,0.000000,0.000000,0.000000,0.000000,390.226257,1.193444,12.000000,40.000000,0.000000,0.000000,0.000000,0.000000,0.000000,0.000000,0.000000,254.951645,0.000000,0.000000,0.000000,0.000000,0.000000
0.000000,0.000000,0.000000,1.000000,0.000000,0.000000,0.000000,0.000000,0,0,0,0,0,0,32.0141825072,34.8668671716,-9999.000000,0.000000,0.424000,121.400002,0.000000,0.000000,0.000000,0.000000,0.000000,390.226257,1.193444,12.000000,40.000000,0.000000,0.000000,0.000000,0.000000,0.000000,0.000000,0.000000,254.951645,0.000000,0.000000,0.000000,0.000000,0.000000
0.000000,0.000000,0.000000,1.000000,0.000000,0.000000,0.000000,0.000000,0,0,0,0,0,0,32.0141825072,34.8668671716,-9999.000000,0.000000,0.424000,121.400002,0.000000,0.000000,0.000000,0.000000,0.000000,390.226257,1.193444,12.000000,40.000000,0.000000,0.000000,0.000000,0.000000,0.000000,0.000000,0.000000,254.951645,0.000000,0.000000,0.000000,0.000000,0.000000
0.000000,0.000000,0.000000,1.000000,0.000000,0.000000,0.000000,0.000000,0,0,0,0,0,0,32.0141825072,34.8668671716,-9999.000000,0.000000,0.424000,121.400002,0.000000,0.000000,0.000000,0.000000,0.000000,390.226257,1.193444,12.000000,40.000000,0.000000,0.000000,0.000000,0.000000,0.000000,0.000000,0.000000,254.951645,0.000000,0.000000,0.000000,0.000000,0.000000
0.000000,0.000000,0.000000,1.000000,0.000000,0.000000,0.000000,0.000000,0,0,0,0,0,0,32.0141825072,34.8668671716,-9999.000000,0.000000,0.424000,121.400002,0.000000,0.000000,0.000000,0.000000,0.000000,390.226257,1.193444,12.000000,40.000000,0.000000,0.000000,0.000000,0.000000,0.000000,0.000000,0.000000,254.951645,0.000000,0.000000,0.000000,0.000000,0.000000
0.000000,0.000000,0.000000,1.000000,0.000000,0.000000,0.000000,0.000000,0,0,0,0,0,0,32.0141825072,34.8668671716,-9999.000000,0.000000,0.424000,121.400002,0.000000,0.000000,0.000000,0.000000,0.000000,390.226257,1.193444,12.000000,40.000000,0.000000,0.000000,0.000000,0.000000,0.000000,0.000000,0.000000,254.951645,0.000000,0.000000,0.000000,0.000000,0.000000
0.000000,0.000000,0.000000,1.000000,0.000000,0.000000,0.000000,0.000000,0,0,0,0,0,0,32.0141825072,34.8668671716,-9999.000000,0.000000,0.424000,121.400002,0.000000,0.000000,0.000000,0.000000,0.000000,390.226257,1.193444,12.000000,40.000000,0.000000,0.000000,0.000000,0.000000,0.000000,0.000000,0.000000,254.951645,0.000000,0.000000,0.000000,0.000000,0.000000
0.000000,0.000000,0.000000,1.000000,0.000000,0.000000,0.000000,0.000000,0,0,0,0,0,0,32.0141825072,34.8668671716,-9999.000000,0.000000,0.424000,121.400002,0.000000,0.000000,0.000000,0.000000,0.000000,390.226257,1.193444,12.000000,40.000000,0.000000,0.000000,0.000000,0.000000,0.000000,0.000000,0.000000,254.951645,0.000000,0.000000,0.000000,0.000000,0.000000
0.000000,0.000000,0.000000,1.000000,0.000000,0.000000,0.000000,0.000000,0,0,0,0,0,0,32.0141825072,34.8668671716,-9999.000000,0.000000,0.424000,121.400002,0.000000,0.000000,0.000000,0.000000,0.000000,390.226257,1.193444,12.000000,40.000000,0.000000,0.000000,0.000000,0.000000,0.000000,0.000000,0.000000,254.951645,0.000000,0.000000,0.000000,0.000000,0.000000
0.000000,0.000000,0.000000,1.000000,0.000000,0.000000,0.000000,0.000000,0,0,0,0,0,0,32.0141825072,34.8668671716,-9999.000000,0.000000,0.424000,121.400002,0.000000,0.000000,0.000000,0.000000,0.000000,390.226257,1.193444,12.000000,40.000000,0.000000,0.000000,0.000000,0.000000,0.000000,0.000000,0.000000,254.951645,0.000000,0.000000,0.000000,0.000000,0.000000
0.000000,0.000000,0.000000,1.000000,0.000000,0.000000,0.000000,0.000000,0,0,0,0,0,0,32.0141825072,34.8668671716,-9999.000000,0.000000,0.424000,121.400002,0.000000,0.000000,0.000000,0.000000,0.000000,390.226257,1.193444,12.000000,40.000000,0.000000,0.000000,0.000000,0.000000,0.000000,0.000000,0.000000,254.951645,0.000000,0.000000,0.000000,0.000000,0.000000
0.000000,0.000000,0.000000,1.000000,0.000000,0.000000,0.000000,0.000000,0,0,0,0,0,0,32.0141825072,34.8668671716,-9999.000000,0.000000,0.424000,121.400002,0.000000,0.000000,0.000000,0.000000,0.000000,390.226257,1.193444,12.000000,40.000000,0.000000,0.000000,0.000000,0.000000,0.000000,0.000000,0.000000,254.951645,0.000000,0.000000,0.000000,0.000000,0.000000
0.000000,0.000000,0.000000,1.000000,0.000000,0.000000,0.000000,0.000000,0,0,0,0,0,0,32.0141825072,34.8668671716,-9999.000000,0.000000,0.424000,121.400002,0.000000,0.000000,0.000000,0.000000,0.000000,390.226257,1.193444,12.000000,40.000000,0.000000,0.000000,0.000000,0.000000,0.000000,0.000000,0.000000,254.951645,0.000000,0.000000,0.000000,0.000000,0.000000
0.000000,0.000000,0.000000,1.000000,0.000000,0.000000,0.000000,0.000000,0,0,0,0,0,0,32.0141825072,34.8668671716,-9999.000000,0.000000,0.424000,121.400002,0.000000,0.000000,0.000000,0.000000,0.000000,390.226257,1.193444,12.000000,40.000000,0.000000,0.000000,0.000000,0.000000,0.000000,0.000000,0.000000,254.951645,0.000000,0.000000,0.000000,0.000000,0.000000
0.000000,0.000000,0.000000,1.000000,0.000000,0.000000,0.000000,0.000000,0,0,0,0,0,0,32.0141825072,34.8668671716,-9999.000000,0.000000,0.424000,121.400002,0.000000,0.000000,0.000000,0.000000,0.000000,390.226257,1.193444,12.000000,40.000000,0.000000,0.000000,0.000000,0.000000,0.000000,0.000000,0.000000,254.951645,0.000000,0.000000,0.000000,0.000000,0.000000
0.000000,0.000000,0.000000,1.000000,0.000000,0.000000,0.000000,0.000000,0,0,0,0,0,0,32.0141825072,34.8668671716,-9999.000000,0.000000,0.424000,121.400002,0.000000,0.000000,0.000000,0.000000,0.000000,390.226257,1.193444,12.000000,40.000000,0.000000,0.000000,0.000000,0.000000,0.000000,0.000000,0.000000,254.951645,0.000000,0.000000,0.000000,0.000000,0.000000
0.000000,0.000000,0.000000,1.000000,0.000000,0.000000,0.000000,0.000000,0,0,0,0,0,0,32.0141825072,34.8668671716,-9999.000000,0.000000,0.424000,121.400002,0.000000,0.000000,0.000000,0.000000,0.000000,390.226257,1.193444,12.000000,40.000000,0.000000,0.000000,0.000000,0.000000,0.000000,0.000000,0.000000,254.951645,0.000000,0.000000,0.000000,0.000000,0.000000
0.000000,0.000000,0.000000,1.000000,0.000000,0.000000,0.000000,0.000000,0,0,0,0,0,0,32.0141825072,34.8668671716,-9999.000000,0.000000,0.424000,121.400002,0.000000,0.000000,0.000000,0.000000,0.000000,390.226257,1.193444,12.000000,40.000000,0.000000,0.000000,0.000000,0.000000,0.000000,0.000000,0.000000,254.951645,0.000000,0.000000,0.000000,0.000000,0.000000
0.000000,0.000000,0.000000,1.000000,0.000000,0.000000,0.000000,0.000000,0,0,0,0,0,0,32.0141825072,34.8668671716,-9999.000000,0.000000,0.424000,121.400002,0.000000,0.000000,0.000000,0.000000,0.000000,390.226257,1.193444,12.000000,40.000000,0.000000,0.000000,0.000000,0.000000,0.000000,0.000000,0.000000,254.951645,0.000000,0.000000,0.000000,0.000000,0.000000
0.000000,0.000000,0.000000,1.000000,0.000000,0.000000,0.000000,0.000000,0,0,0,0,0,0,32.0141825072,34.8668671716,-9999.000000,0.000000,0.424000,121.400002,0.000000,0.000000,0.000000,0.000000,0.000000,390.226257,1.193444,12.000000,40.000000,0.000000,0.000000,0.000000,0.000000,0.000000,0.000000,0.000000,254.951645,0.000000,0.000000,0.000000,0.000000,0.000000
0.000000,0.000000,0.000000,1.000000,0.000000,0.000000,0.000000,0.000000,0,0,0,0,0,0,32.0141825072,34.8668671716,-9999.000000,0.000000,0.424000,121.400002,0.000000,0.000000,0.000000,0.000000,0.000000,390.226257,1.193444,12.000000,40.000000,0.000000,0.000000,0.000000,0.000000,0.000000,0.000000,0.000000,254.951645,0.000000,0.000000,0.000000,0.000000,0.000000
0.000000,0.000000,0.000000,1.000000,0.000000,0.000000,0.000000,0.000000,0,0,0,0,0,0,32.0141825072,34.8668671716,-9999.000000,0.000000,0.424000,121.400002,0.000000,0.000000,0.000000,0.000000,0.000000,390.226257,1.193444,12.000000,40.000000,0.000000,0.000000,0.000000,0.000000,0.000000,0.000000,0.000000,254.951645,0.000000,0.000000,0.000000,0.000000,0.000000
0.000000,0.000000,0.000000,1.000000,0.000000,0.000000,0.000000,0.000000,0,0,0,0,0,0,32.0141825072,34.8668671716,-9999.000000,0.000000,0.424000,121.400002,0.000000,0.000000,0.000000,0.000000,0.000000,390.226257,1.193444,12.000000,40.000000,0.000000,0.000000,0.000000,0.000000,0.000000,0.000000,0.000000,254.951645,0.000000,0.000000,0.000000,0.000000,0.000000
0.000000,0.000000,0.000000,1.000000,0.000000,0.000000,0.000000,0.000000,0,0,0,0,0,0,32.0141825072,34.8668671716,-9999.000000,0.000000,0.424000,121.400002,0.000000,0.000000,0.000000,0.000000,0.000000,390.226257,1.193444,12.000000,40.000000,0.000000,0.000000,0.000000,0.000000,0.000000,0.000000,0.000000,254.951645,0.000000,0.000000,0.000000,0.000000,0.000000
0.000000,0.000000,0.000000,1.000000,0.000000,0.000000,0.000000,0.000000,0,0,0,0,0,0,32.0141825072,34.8668671716,-9999.000000,0.000000,0.424000,121.400002,0.000000,0.000000,0.000000,0.000000,0.000000,390.226257,1.193444,12.000000,40.000000,0.000000,0.000000,0.000000,0.000000,0.000000,0.000000,0.000000,254.951645,0.000000,0.000000,0.000000,0.000000,0.000000
0.000000,0.000000,0.000000,1.000000,0.000000,0.000000,0.000000,0.000000,0,0,0,0,0,0,32.0141825072,34.8668671716,-9999.000000,0.000000,0.424000,121.400002,0.000000,0.000000,0.000000,0.000000,0.000000,390.226257,1.193444,12.000000,40.000000,0.000000,0.000000,0.000000,0.000000,0.000000,0.000000,0.000000,254.951645,0.000000,0.000000,0.000000,0.000000,0.000000
0.000000,0.000000,0.000000,1.000000,0.000000,0.000000,0.000000,0.000000,0,0,0,0,0,0,32.0141825072,34.8668671716,-9999.000000,0.000000,0.424000,121.400002,0.000000,0.000000,0.000000,0.000000,0.000000,390.226257,1.193444,12.000000,40.000000,0.000000,0.000000,0.000000,0.000000,0.000000,0.000000,0.000000,254.951645,0.000000,0.000000,0.000000,0.000000,0.000000
0.000000,0.000000,0.000000,1.000000,0.000000,0.000000,0.000000,0.000000,0,0,0,0,0,0,32.0141825072,34.8668671716,-9999.000000,0.000000,0.424000,121.400002,0.000000,0.000000,0.000000,0.000000,0.000000,390.226257,1.193444,12.000000,40.000000,0.000000,0.000000,0.000000,0.000000,0.000000,0.000000,0.000000,254.951645,0.000000,0.000000,0.000000,0.000000,0.000000
0.000000,0.000000,0.000000,1.000000,0.000000,0.000000,0.000000,0.000000,0,0,0,0,0,0,32.0141825072,34.8668671716,-9999.000000,0.000000,0.424000,121.400002,0.000000,0.000000,0.000000,0.000000,0.000000,390.226257,1.193444,12.000000,40.000000,0.000000,0.000000,0.000000,0.000000,0.000000,0.000000,0.000000,254.951645,0.000000,0.000000,0.000000,0.000000,0.000000
0.000000,0.000000,0.000000,1.000000,0.000000,0.000000,0.000000,0.000000,0,0,0,0,0,0,32.0141825072,34.8668671716,-9999.000000,0.000000,0.424000,121.400002,0.000000,0.000000,0.000000,0.000000,0.000000,390.226257,1.193444,12.000000,40.000000,0.000000,0.000000,0.000000,0.000000,0.000000,0.000000,0.000000,254.951645,0.000000,0.000000,0.000000,0.000000,0.000000
0.000000,0.000000,0.000000,1.000000,0.000000,0.000000,0.000000,0.000000,0,0,0,0,0,0,32.0141825072,34.8668671716,-9999.000000,0.000000,0.424000,121.400002,0.000000,0.000000,0.000000,0.000000,0.000000,390.226257,1.193444,12.000000,40.000000,0.000000,0.000000,0.000000,0.000000,0.000000,0.000000,0.000000,254.951645,0.000000,0.000000,0.000000,0.000000,0.000000
0.000000,0.000000,0.000000,1.000000,0.000000,0.000000,0.000000,0.000000,0,0,0,0,0,0,32.0141825072,34.8668671716,-9999.000000,0.000000,0.424000,121.400002,0.000000,0.000000,0.000000,0.000000,0.000000,390.226257,1.193444,12.000000,40.000000,0.000000,0.000000,0.000000,0.000000,0.000000,0.000000,0.000000,254.951645,0.000000,0.000000,0.000000,0.000000,0.000000
0.000000,0.000000,0.000000,1.000000,0.000000,0.000000,0.000000,0.000000,0,0,0,0,0,0,32.0141825072,34.8668671716,-9999.000000,0.000000,0.424000,121.400002,0.000000,0.000000,0.000000,0.000000,0.000000,390.226257,1.193444,12.000000,40.000000,0.000000,0.000000,0.000000,0.000000,0.000000,0.000000,0.000000,254.951645,0.000000,0.000000,0.000000,0.000000,0.000000
0.000000,0.000000,0.000000,1.000000,0.000000,0.000000,0.000000,0.000000,0,0,0,0,0,0,32.0141825072,34.8668671716,-9999.000000,0.000000,0.424000,121.400002,0.000000,0.000000,0.000000,0.000000,0.000000,390.226257,1.193444,12.000000,40.000000,0.000000,0.000000,0.000000,0.000000,0.000000,0.000000,0.000000,254.951645,0.000000,0.000000,0.000000,0.000000,0.000000
0.000000,0.000000,0.000000,1.000000,0.000000,0.000000,0.000000,0.000000,0,0,0,0,0,0,32.0141825072,34.8668671716,-9999.000000,0.000000,0.424000,121.400002,0.000000,0.000000,0.000000,0.000000,0.000000,390.226257,1.193444,12.000000,40.000000,0.000000,0.000000,0.000000,0.000000,0.000000,0.000000,0.000000,254.951645,0.000000,0.000000,0.000000,0.000000,0.000000
0.000000,0.000000,0.000000,1.000000,0.000000,0.000000,0.000000,0.000000,0,0,0,0,0,0,32.0141825072,34.8668671716,-9999.000000,0.000000,0.424000,121.400002,0.000000,0.000000,0.000000,0.000000,0.000000,390.226257,1.193444,12.000000,40.000000,0.000000,0.000000,0.000000,0.000000,0.000000,0.000000,0.000000,254.951645,0.000000,0.000000,0.000000,0.000000,0.000000
0.000000,0.000000,0.000000,1.000000,0.000000,0.000000,0.000000,0.000000,0,0,0,0,0,0,32.0141825072,34.8668671716,-9999.000000,0.000000,0.424000,121.400002,0.000000,0.000000,0.000000,0.000000,0.000000,390.226257,1.193444,12.000000,40.000000,0.000000,0.000000,0.000000,0.000000,0.000000,0.000000,0.000000,254.951645,0.000000,0.000000,0.000000,0.000000,0.000000
0.000000,0.000000,0.000000,1.000000,0.000000,0.000000,0.000000,0.000000,0,0,0,0,0,0,32.0141825072,34.8668671716,-9999.000000,0.000000,0.424000,121.400002,0.000000,0.000000,0.000000,0.000000,0.000000,390.226257,1.193444,12.000000,40.000000,0.000000,0.000000,0.000000,0.000000,0.000000,0.000000,0.000000,254.951645,0.000000,0.000000,0.000000,0.000000,0.000000
0.000000,0.000000,0.000000,1.000000,0.000000,0.000000,0.000000,0.000000,0,0,0,0,0,0,32.0141825072,34.8668671716,-9999.000000,0.000000,0.424000,121.400002,0.000000,0.000000,0.000000,0.000000,0.000000,390.226257,1.193444,12.000000,40.000000,0.000000,0.000000,0.000000,0.000000,0.000000,0.000000,0.000000,254.951645,0.000000,0.000000,0.000000,0.000000,0.000000
0.000000,0.000000,0.000000,1.000000,0.000000,0.000000,0.000000,0.000000,0,0,0,0,0,0,32.0141825072,34.8668671716,-9999.000000,0.000000,0.424000,121.400002,0.000000,0.000000,0.000000,0.000000,0.000000,390.226257,1.193444,12.000000,40.000000,0.000000,0.000000,0.000000,0.000000,0.000000,0.000000,0.000000,254.951645,0.000000,0.000000,0.000000,0.000000,0.000000
0.000000,0.000000,0.000000,1.000000,0.000000,0.000000,0.000000,0.000000,0,0,0,0,0,0,32.0141825072,34.8668671716,-9999.000000,0.000000,0.424000,121.400002,0.000000,0.000000,0.000000,0.000000,0.000000,390.226257,1.193444,12.000000,40.000000,0.000000,0.000000,0.000000,0.000000,0.000000,0.000000,0.000000,254.951645,0.000000,0.000000,0.000000,0.000000,0.000000
0.000000,0.000000,0.000000,1.000000,0.000000,0.000000,0.000000,0.000000,0,0,0,0,0,0,32.0141825072,34.8668671716,-9999.000000,0.000000,0.424000,121.400002,0.000000,0.000000,0.000000,0.000000,0.000000,390.226257,1.193444,12.000000,40.000000,0.000000,0.000000,0.000000,0.000000,0.000000,0.000000,0.000000,254.951645,0.000000,0.000000,0.000000,0.000000,0.000000
0.000000,0.000000,0.000000,1.000000,0.000000,0.000000,0.000000,0.000000,0,0,0,0,0,0,32.0141825072,34.8668671716,-9999.000000,0.000000,0.424000,121.400002,0.000000,0.000000,0.000000,0.000000,0.000000,390.226257,1.193444,12.000000,40.000000,0.000000,0.000000,0.000000,0.000000,0.000000,0.000000,0.000000,254.951645,0.000000,0.000000,0.000000,0.000000,0.000000
0.000000,0.000000,0.000000,1.000000,0.000000,0.000000,0.000000,0.000000,0,0,0,0,0,0,32.0141825072,34.8668671716,-9999.000000,0.000000,0.424000,121.400002,0.000000,0.000000,0.000000,0.000000,0.000000,390.226257,1.193444,12.000000,40.000000,0.000000,0.000000,0.000000,0.000000,0.000000,0.000000,0.000000,254.951645,0.000000,0.000000,0.000000,0.000000,0.000000
0.000000,0.000000,0.000000,1.000000,0.000000,0.000000,0.000000,0.000000,0,0,0,0,0,0,32.0141825072,34.8668671716,-9999.000000,0.000000,0.424000,121.400002,0.000000,0.000000,0.000000,0.000000,0.000000,390.226257,1.193444,12.000000,40.000000,0.000000,0.000000,0.000000,0.000000,0.000000,0.000000,0.000000,254.951645,0.000000,0.000000,0.000000,0.000000,0.000000
0.000000,0.000000,0.000000,1.000000,0.000000,0.000000,0.000000,0.000000,0,0,0,0,0,0,32.0141825072,34.8668671716,-9999.000000,0.000000,0.424000,121.400002,0.000000,0.000000,0.000000,0.000000,0.000000,390.226257,1.193444,12.000000,40.000000,0.000000,0.000000,0.000000,0.000000,0.000000,0.000000,0.000000,254.951645,0.000000,0.000000,0.000000,0.000000,0.000000
0.000000,0.000000,0.000000,1.000000,0.000000,0.000000,0.000000,0.000000,0,0,0,0,0,0,32.0141825072,34.8668671716,-9999.000000,0.000000,0.424000,121.400002,0.000000,0.000000,0.000000,0.000000,0.000000,390.226257,1.193444,12.000000,40.000000,0.000000,0.000000,0.000000,0.000000,0.000000,0.000000,0.000000,254.951645,0.000000,0.000000,0.000000,0.000000,0.000000
0.000000,0.000000,0.000000,1.000000,0.000000,0.000000,0.000000,0.000000,0,0,0,0,0,0,32.0141825072,34.8668671716,-9999.000000,0.000000,0.424000,121.400002,0.000000,0.000000,0.000000,0.000000,0.000000,390.226257,1.193444,12.000000,40.000000,0.000000,0.000000,0.000000,0.000000,0.000000,0.000000,0.000000,254.951645,0.000000,0.000000,0.000000,0.000000,0.000000
0.000000,0.000000,0.000000,1.000000,0.000000,0.000000,0.000000,0.000000,0,0,0,0,0,0,32.0141825072,34.8668671716,-9999.000000,0.000000,0.424000,121.400002,0.000000,0.000000,0.000000,0.000000,0.000000,390.226257,1.193444,12.000000,40.000000,0.000000,0.000000,0.000000,0.000000,0.000000,0.000000,0.000000,254.951645,0.000000,0.000000,0.000000,0.000000,0.000000
0.000000,0.000000,0.000000,1.000000,0.000000,0.000000,0.000000,0.000000,0,0,0,0,0,0,32.0141825072,34.8668671716,-9999.000000,0.000000,0.424000,121.400002,0.000000,0.000000,0.000000,0.000000,0.000000,390.226257,1.193444,12.000000,40.000000,0.000000,0.000000,0.000000,0.000000,0.000000,0.000000,0.000000,254.951645,0.000000,0.000000,0.000000,0.000000,0.000000
0.000000,0.000000,0.000000,1.000000,0.000000,0.000000,0.000000,0.000000,0,0,0,0,0,0,32.0141825072,34.8668671716,-9999.000000,0.000000,0.424000,121.400002,0.000000,0.000000,0.000000,0.000000,0.000000,390.226257,1.193444,12.000000,40.000000,0.000000,0.000000,0.000000,0.000000,0.000000,0.000000,0.000000,254.951645,0.000000,0.000000,0.000000,0.000000,0.000000
0.000000,0.000000,0.000000,1.000000,0.000000,0.000000,0.000000,0.000000,0,0,0,0,0,0,32.0141825072,34.8668671716,-9999.000000,0.000000,0.424000,121.400002,0.000000,0.000000,0.000000,0.000000,0.000000,390.226257,1.193444,12.000000,40.000000,0.000000,0.000000,0.000000,0.000000,0.000000,0.000000,0.000000,254.951645,0.000000,0.000000,0.000000,0.000000,0.000000
0.000000,0.000000,0.000000,1.000000,0.000000,0.000000,0.000000,0.000000,0,0,0,0,0,0,32.0141825072,34.8668671716,-9999.000000,0.000000,0.424000,121.400002,0.000000,0.000000,0.000000,0.000000,0.000000,390.226257,1.193444,12.000000,40.000000,0.000000,0.000000,0.000000,0.000000,0.000000,0.000000,0.000000,254.951645,0.000000,0.000000,0.000000,0.000000,0.000000
0.000000,0.000000,0.000000,1.000000,0.000000,0.000000,0.000000,0.000000,0,0,0,0,0,0,32.0141825072,34.8668671716,-9999.000000,0.000000,0.424000,121.400002,0.000000,0.000000,0.000000,0.000000,0.000000,390.226257,1.193444,12.000000,40.000000,0.000000,0.000000,0.000000,0.000000,0.000000,0.000000,0.000000,254.951645,0.000000,0.000000,0.000000,0.000000,0.000000
0.000000,0.000000,0.000000,1.000000,0.000000,0.000000,0.000000,0.000000,0,0,0,0,0,0,32.0141825072,34.8668671716,-9999.000000,0.000000,0.424000,121.400002,0.000000,0.000000,0.000000,0.000000,0.000000,390.226257,1.193444,12.000000,40.000000,0.000000,0.000000,0.000000,0.000000,0.000000,0.000000,0.000000,254.951645,0.000000,0.000000,0.000000,0.000000,0.000000
0.000000,0.000000,0.000000,0.000000,0.000000,0.000000,0.000000,0.000000,0,0,0,0,0,0,32.0141827131,34.8668660992,107.687912,-0.159268,-0.729272,121.399879,0.000000,0.000000,0.000000,0.000000,0.000000,390.226257,1.193444,12.000000,40.000000,0.000000,0.000000,0.000000,0.000000,0.000000,0.000000,0.000000,254.951645,0.000000,0.000000,0.000000,0.000000,0.000000
0.000000,0.000000,0.000000,0.000000,0.000000,0.000000,0.000000,0.000000,0,0,0,0,0,0,32.0141827140,34.8668661024,107.687698,-0.168711,-0.737100,121.400063,31.309732,3.016499,-0.836149,-0.000044,0.000000,500.325531,111.292717,12.000000,40.000000,0.000000,0.000000,110.000145,110.000000,107.687698,0.000007,-0.002746,254.951614,10.175203,0.002483,-0.985256,2747.019531,0.000000
0.000000,0.000000,0.000000,0.000000,0.000000,0.000000,0.000000,0.000000,0,0,0,0,0,0,32.0141827141,34.8668661019,107.687737,-0.168402,-0.735368,121.400055,37.493694,2.737261,0.826880,0.000009,0.000000,471.954346,82.921539,12.000000,40.000000,0.000000,0.000000,80.000145,80.000000,107.687737,0.000006,0.000603,254.951614,36.224037,0.003245,-1.582221,848.530151,0.000000
0.000000,0.000000,0.000000,0.000000,0.000000,0.000000,0.000000,0.000000,0,0,0,0,0,0,32.0141827143,34.8668661015,107.687782,-0.168205,-0.733733,121.400047,44.975079,2.496702,0.856596,0.000009,0.000000,443.579163,54.546349,12.000000,40.000000,0.000000,0.000000,50.000141,50.000000,107.687782,0.000005,0.000536,254.951614,70.620522,0.003499,-1.943920,-730.909180,0.000000
0.000000,0.000000,0.000000,0.000000,0.000000,0.000000,0.000000,0.000000,0,0,0,0,0,0,32.0141827144,34.8668661013,107.687798,-0.168176,-0.733045,121.400047,49.243782,2.394693,0.720234,0.000023,1.164431,429.467346,40.434532,12.000000,40.000000,0.000000,0.000000,40.000141,40.000000,107.687798,0.000004,0.001473,254.951614,88.522324,0.003555,-2.067151,-1041.255493,0.000000
0.000000,0.000000,0.000000,0.000000,0.000000,0.000000,0.000000,0.000000,0,0,0,0,0,0,32.0141827145,34.8668661012,107.687813,-0.168197,-0.732543,121.400047,52.834564,2.324758,0.721423,0.000031,2.062155,418.464355,29.431547,12.000000,40.000000,0.000000,0.000000,30.000143,30.000000,107.687813,0.000004,0.001674,254.951614,102.089264,0.003581,-2.144279,-1190.211670,0.000000
0.000000,0.000000,0.000000,0.000000,0.000000,0.000000,0.000000,0.000000,0,0,0,0,0,0,32.0141827145,34.8668661012,107.687820,-0.168210,-0.732422,121.400047,54.265068,2.300497,0.425824,0.000030,4.873039,414.948639,25.915831,12.000000,40.000000,0.000000,0.000000,30.000143,30.000000,107.687820,0.000004,0.001942,254.951614,107.090416,0.003591,-2.170034,-1212.907593,0.000000
0.000000,0.000000,0.000000,0.000000,0.000000,0.000000,0.000000,0.000000,0,0,0,0,0,0,32.0141827145,34.8668661012,107.687820,-0.168224,-0.732314,121.400047,55.316837,2.283879,0.385888,0.000032,5.753351,412.237915,23.205105,12.000000,40.000000,0.000000,0.000000,30.000143,30.000000,107.687820,0.000004,0.001808,254.951614,110.618057,0.003596,-2.187467,-1236.732056,0.000000
0.000000,0.000000,0.000000,0.000000,0.000000,0.000000,0.000000,0.000000,0,0,0,0,0,0,32.0141827145,34.8668661011,107.687820,-0.168242,-0.732191,121.400047,56.383774,2.268039,0.401139,0.000036,6.016442,409.281097,20.248304,12.000000,40.000000,0.000000,0.000000,20.000143,20.000000,107.687820,0.000004,0.002009,254.951614,114.067436,0.003598,-2.203979,-1269.863770,0.000000
0.000000,0.000000,0.000000,0.000000,0.000000,0.000000,0.000000,0.000000,0,0,0,0,0,0,32.0141827145,34.8668661011,107.687828,-0.168268,-0.732051,121.400047,57.549202,2.251872,0.378579,0.000036,5.994749,405.957855,16.925051,12.000000,40.000000,0.000000,0.000000,20.000143,20.000000,107.687828,0.000003,0.002143,254.951614,117.687370,0.003606,-2.220787,-1307.764893,0.000000
0.000000,0.000000,0.000000,0.000000,0.000000,0.000000,0.000000,0.000000,0,0,0,0,0,0,32.0141827145,34.8668661011,107.687828,-0.168295,-0.731929,121.400047,58.561260,2.238765,0.375923,0.000036,6.182273,403.214630,14.181835,12.000000,40.000000,0.000000,0.000000,20.000143,20.000000,107.687828,0.000003,0.001842,254.951614,120.706406,0.003612,-2.234432,-1332.227661,0.000000
0.000000,0.000000,0.000000,0.000000,0.000000,0.000000,0.000000,0.000000,0,0,0,0,0,0,32.0141827146,34.8668661010,107.687836,-0.168350,-0.731719,121.400047,60.187386,2.219460,0.442383,0.000042,5.427775,398.377045,9.344237,12.000000,40.000000,0.000000,0.000000,10.000142,10.000000,107.687836,0.000003,0.001641,254.951614,125.317123,0.003620,-2.254686,-1385.888184,0.000000
0.000000,0.000000,0.000000,0.000000,0.000000,0.000000,0.000000,0.000000,0,0,0,0,0,0,32.0141827146,34.8668661010,107.687836,-0.168392,-0.731582,121.400047,61.403145,2.206393,0.397088,0.000036,5.818019,395.239136,6.206327,12.000000,40.000000,0.000000,0.000000,10.000142,10.000000,107.687836,0.000003,0.001708,254.951614,128.573349,0.003623,-2.268615,-1403.035034,0.000000
0.000000,0.000000,0.000000,0.000000,0.000000,0.000000,0.000000,0.000000,0,0,0,0,0,0,32.0141827146,34.8668661010,107.687843,-0.168437,-0.731459,121.400047,62.544571,2.195161,0.376251,0.000035,6.031552,392.264282,3.231492,12.000000,40.000000,0.000000,0.000000,10.000142,10.000000,107.687843,0.000003,0.002880,254.951614,131.483856,0.003623,-2.280839,-1420.258057,0.000000
0.000000,0.000000,0.000000,0.000000,0.000000,0.000000,0.000000,0.000000,0,0,0,0,0,0,32.0141827147,34.8668661009,107.687859,-0.168656,-0.730986,121.400047,66.034218,2.166794,0.585123,0.000035,2.939718,382.312866,-6.719937,12.000000,40.000000,0.000000,0.000000,-9.999858,-10.000000,107.687859,0.000003,0.001574,254.951614,139.518463,0.003664,-2.313773,-1496.546753,0.000000
0.000000,0.000000,0.000000,0.000000,0.000000,0.000000,0.000000,0.000000,0,0,0,0,0,0,32.0141827151,34.8668661008,107.687897,-0.169664,-0.729719,121.400063,77.153923,2.132050,0.878299,0.000009,0.000000,354.926941,-34.105865,12.000000,40.000000,0.000000,0.000000,-29.999857,-30.000000,107.687897,0.000002,0.000502,254.951614,156.946106,0.003788,-2.387166,-1393.066162,0.000000
0.000000,0.000000,0.000000,0.000000,0.000000,0.000000,0.000000,0.000000,0,0,0,0,0,0,32.0141827151,34.8668661007,107.687897,-0.169803,-0.729614,121.400070,79.116814,2.134314,0.207505,0.000016,4.492890,350.954559,-38.078239,12.000000,40.000000,0.000000,0.000000,-39.999859,-40.000000,107.687897,0.000002,0.001306,254.951614,158.797409,0.003769,-2.396638,-1392.272095,0.000000
0.000000,0.000000,0.000000,0.000000,0.000000,0.000000,0.000000,0.000000,0,0,0,0,0,0,32.0141827152,34.8668661007,107.687897,-0.169915,-0.729529,121.400070,80.329330,2.136976,0.202886,0.000020,5.640291,348.454193,-40.578621,12.000000,40.000000,0.000000,0.000000,-39.999859,-40.000000,107.687897,0.000002,0.000703,254.951614,159.762619,0.003795,-2.402099,-1395.040771,0.000000
0.000000,0.000000,0.000000,0.000000,0.000000,0.000000,0.000000,0.000000,0,0,0,0,0,0,32.0141827152,34.8668661007,107.687904,-0.170055,-0.729427,121.400070,81.538322,2.140595,0.206403,0.000024,5.971382,345.662811,-43.370003,12.000000,40.000000,0.000000,0.000000,-39.999859,-40.000000,107.687904,0.000002,0.001239,254.951614,160.590347,0.003808,-2.407271,-1410.861938,0.000000
0.000000,0.000000,0.000000,0.000000,0.000000,0.000000,0.000000,0.000000,0,0,0,0,0,0,32.0141827153,34.8668661007,107.687904,-0.170214,-0.729314,121.400070,82.742729,2.145167,0.188860,0.000025,6.073782,342.777527,-46.255287,12.000000,40.000000,0.000000,0.000000,-39.999859,-40.000000,107.687904,0.000002,0.001909,254.951614,161.281647,0.003819,-2.412170,-1429.492310,0.000000
0.000000,0.000000,0.000000,0.000000,0.000000,0.000000,0.000000,0.000000,0,0,0,0,0,0,32.0141827153,34.8668661007,107.687904,-0.170386,-0.729195,121.400078,83.941475,2.150685,0.186246,0.000026,6.105937,339.861938,-49.170868,12.000000,40.000000,0.000000,0.000000,-49.999859,-50.000000,107.687904,0.000002,0.001875,254.951614,161.837814,0.003819,-2.416811,-1447.795166,0.000000
0.000000,0.000000,0.000000,0.000000,0.000000,0.000000,0.000000,0.000000,0,0,0,0,0,0,32.0141827154,34.8668661007,107.687912,-0.170552,-0.729082,121.400078,85.042053,2.156610,0.202964,0.000030,6.212718,337.209320,-51.823490,12.000000,40.000000,0.000000,0.000000,-49.999859,-50.000000,107.687912,0.000002,0.001373,254.951614,162.232651,0.003846,-2.420876,-1461.670532,0.000000
0.000000,0.000000,0.000000,0.000000,0.000000,0.000000,0.000000,0.000000,0,0,0,0,0,0,32.0141827154,34.8668661007,107.687912,-0.170746,-0.728956,121.400085,86.226791,2.163924,0.199321,0.000030,6.153003,334.248718,-54.784081,12.000000,40.000000,0.000000,0.000000,-49.999859,-50.000000,107.687912,0.000002,0.001540,254.951614,162.533722,0.003891,-2.425056,-1479.106201,0.000000
0.000000,0.000000,0.000000,0.000000,0.000000,0.000000,0.000000,0.000000,0,0,0,0,0,0,32.0141827155,34.8668661007,107.687912,-0.170933,-0.728842,121.400085,87.312309,2.171492,0.203630,0.000032,6.228139,331.582214,-57.450600,12.000000,40.000000,0.000000,0.000000,-59.999859,-60.000000,107.687912,0.000002,0.001574,254.951614,162.696503,0.003916,-2.428719,-1491.118652,0.000000
0.000000,0.000000,0.000000,0.000000,0.000000,0.000000,0.000000,0.000000,0,0,0,0,0,0,32.0141827155,34.8668661007,107.687920,-0.171148,-0.728725,121.400085,88.477112,2.180567,0.178006,0.000028,6.157037,328.616486,-60.416306,12.000000,40.000000,0.000000,0.000000,-59.999859,-60.000000,107.687920,0.000002,0.001741,254.951614,162.750336,0.003940,-2.432485,-1506.250610,0.000000
0.000000,0.000000,0.000000,0.000000,0.000000,0.000000,0.000000,0.000000,0,0,0,0,0,0,32.0141827156,34.8668661008,107.687920,-0.171372,-0.728683,121.400093,89.608940,2.190540,-0.013213,-0.000002,6.130297,325.674957,-63.357845,12.000000,40.000000,0.000000,0.000000,-59.999859,-60.000000,107.687920,0.000002,0.000067,254.951614,162.679306,0.003957,-2.436052,-1519.096191,0.000000
0.000000,0.000000,0.000000,0.000000,0.000000,0.000000,0.000000,0.000000,0,0,0,0,0,0,32.0141827149,34.8668661005,107.687950,-0.168805,-0.729348,121.400047,89.265404,2.202324,0.084721,0.000252,6.218739,323.014282,-66.018524,12.000000,40.000000,0.000000,0.000000,-59.999859,-60.000000,107.687950,0.000002,0.010615,254.951614,162.505371,0.005798,-2.439177,-1527.832397,0.000000
0.000000,0.000000,0.000000,0.000000,0.000000,0.000000,0.000000,0.000000,0,0,0,0,0,0,32.0141827142,34.8668661002,107.687958,-0.165438,-0.729937,121.399994,88.150787,2.213321,0.059674,0.000103,6.152357,320.050720,-68.982071,12.000000,40.000000,0.000000,0.000000,-69.999855,-70.000000,107.687958,0.000002,0.002612,254.951614,162.202408,0.005197,-2.442391,-1539.844238,0.000000
0.000000,0.000000,0.000000,0.000000,0.000000,0.000000,0.000000,0.000000,0,0,0,0,0,0,32.0141827139,34.8668660999,107.687958,-0.163756,-0.729831,121.399963,87.118546,2.224351,0.044361,0.000039,6.225484,317.383301,-71.649483,12.000000,40.000000,0.000000,0.000000,-69.999855,-70.000000,107.687958,0.000002,0.001205,254.951614,161.819778,0.004623,-2.445206,-1547.346802,0.000000
0.000000,0.000000,0.000000,0.000000,0.000000,0.000000,0.000000,0.000000,0,0,0,0,0,0,32.0141827137,34.8668660997,107.687958,-0.162884,-0.729559,121.399948,86.006950,2.237388,0.064486,0.000028,6.153610,314.417267,-74.615524,12.000000,40.000000,0.000000,0.000000,-69.999855,-70.000000,107.687958,0.000002,-0.000335,254.951614,161.296936,0.004160,-2.448101,-1557.902710,0.000000
0.000000,0.000000,0.000000,0.000000,0.000000,0.000000,0.000000,0.000000,0,0,0,0,0,0,32.0141827137,34.8668660996,107.687958,-0.162457,-0.729330,121.399940,84.739578,2.253650,0.064157,0.000012,5.904088,310.923248,-78.109558,12.000000,40.000000,0.000000,0.000000,-79.999855,-80.000000,107.687958,0.000002,-0.000167,254.951614,160.558334,0.003942,-2.451252,-1571.666016,0.000000
0.000000,0.000000,0.000000,0.000000,0.000000,0.000000,0.000000,0.000000,0,0,0,0,0,0,32.0141827137,34.8668660995,107.687958,-0.162238,-0.729066,121.399933,80.974800,2.310541,0.291742,0.000003,2.202078,299.468842,-89.563972,12.000000,40.000000,0.000000,0.000000,-89.999855,-90.000000,107.687958,0.000002,0.000201,254.951614,157.450882,0.003451,-2.459770,-1609.695923,0.000000
0.000000,0.000000,0.000000,0.000000,0.000000,0.000000,0.000000,0.000000,0,0,0,0,0,0,32.0141827137,34.8668660995,107.687958,-0.162246,-0.729032,121.399933,79.320770,2.339740,0.070142,0.000001,4.577603,295.318146,-93.714645,12.000000,40.000000,0.000000,0.000000,-89.999855,-90.000000,107.687958,0.000002,0.000201,254.951614,155.646561,0.003315,-2.463148,-1592.023804,0.000000
0.000000,0.000000,0.000000,0.000000,0.000000,0.000000,0.000000,0.000000,0,0,0,0,0,0,32.0141827137,34.8668660995,107.687958,-0.162261,-0.729001,121.399933,78.164886,2.361768,0.225324,0.000005,5.491124,292.274017,-96.758781,12.000000,40.000000,0.000000,0.000000,-89.999855,-90.000000,107.687958,0.000001,0.000134,254.951614,154.224579,0.003222,-2.465385,-1584.666138,0.000000
0.000000,0.000000,0.000000,0.000000,0.000000,0.000000,0.000000,0.000000,0,0,0,0,0,0,32.0141827137,34.8668660995,107.687958,-0.162284,-0.728959,121.399933,76.881134,2.387877,0.323819,0.000007,5.492902,288.440948,-100.591858,12.000000,40.000000,0.000000,0.000000,-99.999855,-100.000000,107.687958,0.000001,0.000469,254.951614,152.488953,0.003144,-2.467757,-1591.994019,0.000000
0.000000,0.000000,0.000000,0.000000,0.000000,0.000000,0.000000,0.000000,0,0,0,0,0,0,32.0141827137,34.8668660995,107.687958,-0.162314,-0.728919,121.399933,75.625702,2.415159,0.336873,0.000008,5.490870,284.608978,-104.423813,12.000000,40.000000,0.000000,0.000000,-99.999855,-100.000000,107.687958,0.000001,0.000402,254.951614,150.631683,0.003074,-2.469966,-1598.571289,0.000000
0.000000,0.000000,0.000000,0.000000,0.000000,0.000000,0.000000,0.000000,0,0,0,0,0,0,32.0141827137,34.8668660995,107.687958,-0.162430,-0.728776,121.399933,72.509041,2.490956,0.632410,0.000010,2.347272,273.801453,-115.231346,12.000000,40.000000,0.000000,0.000000,-109.999855,-110.000000,107.687958,0.000001,0.000536,254.951614,145.336533,0.002944,-2.475007,-1625.544922,0.000000
0.000000,0.000000,0.000000,0.000000,0.000000,0.000000,0.000000,0.000000,0,0,0,0,0,0,32.0141827138,34.8668660994,107.687973,-0.162483,-0.728482,121.399940,65.244102,2.619757,0.946002,0.000003,0.000000,246.519089,-142.513718,12.000000,40.000000,0.000000,0.000000,-139.999863,-140.000000,107.687973,0.000001,0.000100,254.951614,128.641205,0.002756,-2.484857,-1466.338013,0.000000
0.000000,0.000000,0.000000,0.000000,0.000000,0.000000,0.000000,0.000000,0,0,0,0,0,0,32.0141827138,34.8668660994,107.687973,-0.162409,-0.728453,121.399933,63.686840,2.612580,0.147343,0.000002,3.661141,240.508484,-148.524307,12.000000,40.000000,0.000000,0.000000,-149.999863,-150.000000,107.687973,0.000001,0.000134,254.951614,124.416328,0.002727,-2.486583,-1470.930298,0.000000
0.000000,0.000000,0.000000,0.000000,0.000000,0.000000,0.000000,0.000000,0,0,0,0,0,0,32.0141827138,34.8668660994,107.687973,-0.162361,-0.728438,121.399933,62.716270,2.609100,0.062893,0.000001,5.035800,236.885330,-152.147476,12.000000,40.000000,0.000000,0.000000,-149.999863,-150.000000,107.687973,0.000001,0.000335,254.951614,121.805855,0.002716,-2.487555,-1471.905273,0.000000
0.000000,0.000000,0.000000,0.000000,0.000000,0.000000,0.000000,0.000000,0,0,0,0,0,0,32.0141827138,34.8668660994,107.687973,-0.162299,-0.728416,121.399933,61.635056,2.606109,0.120872,0.000003,5.046624,232.381393,-156.651398,12.000000,40.000000,0.000000,0.000000,-149.999863,-150.000000,107.687973,0.000001,0.000335,254.951614,118.932411,0.002707,-2.488552,-1492.454102,0.000000
0.000000,0.000000,0.000000,0.000000,0.000000,0.000000,0.000000,0.000000,0,0,0,0,0,0,32.0141827138,34.8668660994,107.687973,-0.162241,-0.728397,121.399933,60.605907,2.604128,0.144961,0.000003,5.168446,228.145004,-160.887802,12.000000,40.000000,0.000000,0.000000,-159.999863,-160.000000,107.687973,0.000001,0.000167,254.951614,116.242058,0.002694,-2.489425,-1508.119507,0.000000
0.000000,0.000000,0.000000,0.000000,0.000000,0.000000,0.000000,0.000000,0,0,0,0,0,0,32.0141827137,34.8668660993,107.687973,-0.162176,-0.728372,121.399933,59.466904,2.602919,0.185892,0.000004,5.127170,223.332977,-165.699829,12.000000,40.000000,0.000000,0.000000,-159.999863,-160.000000,107.687973,0.000001,0.000335,254.951614,113.327972,0.002679,-2.490313,-1528.036377,0.000000
0.000000,0.000000,0.000000,0.000000,0.000000,0.000000,0.000000,0.000000,0,0,0,0,0,0,32.0141827137,34.8668660993,107.687973,-0.162103,-0.728341,121.399933,58.164417,2.602798,0.224468,0.000005,4.757652,217.787415,-171.245377,12.000000,40.000000,0.000000,0.000000,-169.999863,-170.000000,107.687973,0.000001,0.000234,254.951614,110.093140,0.002666,-2.491236,-1548.475830,0.000000
0.000000,0.000000,0.000000,0.000000,0.000000,0.000000,0.000000,0.000000,0,0,0,0,0,0,32.0141827137,34.8668660993,107.687973,-0.162020,-0.728306,121.399925,56.645451,2.604353,0.303749,0.000005,4.277970,211.315002,-177.717804,12.000000,40.000000,0.000000,0.000000,-179.999863,-180.000000,107.687973,0.000001,0.000134,254.951614,106.475250,0.002648,-2.492203,-1567.020142,0.000000
0.000000,0.000000,0.000000,0.000000,0.000000,0.000000,0.000000,0.000000,0,0,0,0,0,0,32.0141827137,34.8668660993,107.687973,-0.161980,-0.728290,121.399925,55.724464,2.606192,0.191950,0.000004,5.409390,207.878204,-181.154587,12.000000,40.000000,0.000000,0.000000,-179.999863,-180.000000,107.687973,0.000001,0.000167,254.951614,104.373161,0.002640,-2.492738,-1559.729858,0.000000
0.000000,0.000000,0.000000,0.000000,0.000000,0.000000,0.000000,0.000000,0,0,0,0,0,0,32.0141827137,34.8668660993,107.687973,-0.161939,-0.728276,121.399925,54.804989,2.608703,0.165684,0.000003,5.645721,204.137573,-184.895218,12.000000,40.000000,0.000000,0.000000,-179.999863,-180.000000,107.687973,0.000001,0.000335,254.951614,102.350189,0.002625,-2.493235,-1565.423218,0.000000
0.000000,0.000000,0.000000,0.000000,0.000000,0.000000,0.000000,0.000000,0,0,0,0,0,0,32.0141827137,34.8668660993,107.687973,-0.161892,-0.728257,121.399925,53.779610,2.612302,0.240905,0.000005,5.480250,199.783829,-189.248978,12.000000,40.000000,0.000000,0.000000,-189.999863,-190.000000,107.687973,0.000001,0.000402,254.951614,100.189964,0.002614,-2.493751,-1577.584473,0.000000
0.000000,0.000000,0.000000,0.000000,0.000000,0.000000,0.000000,0.000000,0,0,0,0,0,0,32.0141827137,34.8668660992,107.687973,-0.161757,-0.728185,121.399925,50.990871,2.626402,0.870077,0.000004,2.396117,187.174988,-201.857803,12.000000,40.000000,0.000000,0.000000,-199.999863,-200.000000,107.687973,0.000001,0.000268,254.951614,94.876755,0.002571,-2.494971,-1599.339844,0.000000
0.000000,0.000000,0.000000,0.000000,0.000000,0.000000,0.000000,0.000000,0,0,0,0,0,0,32.0141827137,34.8668660992,107.687981,-0.161537,-0.728033,121.399918,44.711552,2.682205,-0.229378,-0.000000,1.715624,159.999847,-229.032944,12.000000,40.000000,0.000000,0.000000,-229.999863,-230.000000,107.687981,0.000001,0.000134,254.951614,86.425377,0.002508,-2.496953,-1444.867920,0.000000
0.000000,0.000000,0.000000,0.000000,0.000000,0.000000,0.000000,0.200000,0,0,0,0,0,0,32.0141827137,34.8668660992,107.687981,-0.161509,-0.728014,121.399918,43.389706,2.698442,0.316404,0.000004,4.481163,154.750809,-234.281998,12.000000,40.000000,0.000000,0.000000,-229.999863,-230.000000,107.687981,0.000001,0.000368,254.951614,85.341774,0.002503,-2.497266,-1447.259033,0.000000
0.000000,0.000000,0.000000,0.000000,0.000000,0.000000,0.200000,0.200000,0,0,0,0,0,0,32.0141827137,34.8668660992,107.687981,-0.161487,-0.728001,121.399918,42.534130,2.709829,-0.019197,-0.000000,5.595014,102.673668,-237.710770,12.000000,40.000000,0.000000,0.000000,-239.999863,-240.000000,107.687981,0.000001,-0.000134,254.945511,84.778404,0.002501,-2.497454,-1450.756592,0.000000
0.000000,0.000000,0.000000,0.000000,0.000000,0.000000,0.200000,0.200000,0,0,0,0,0,0,32.0141827137,34.8668660992,107.687981,-0.161470,-0.727988,121.399918,41.835011,2.719655,0.105977,0.000001,6.117252,99.739815,-240.644623,12.000000,40.000000,0.000000,0.000000,-239.999863,-240.000000,107.687981,0.000001,0.000100,254.945511,84.399872,0.002498,-2.497598,-1458.683350,0.000000
0.000000,0.000000,0.000000,0.000000,0.000000,0.000000,0.200000,0.200000,0,0,0,0,0,0,32.0141827137,34.8668660991,107.687981,-0.161453,-0.727974,121.399918,41.091602,2.730632,0.304596,0.000004,6.175163,96.378250,-244.006180,12.000000,40.000000,0.000000,0.000000,-239.999863,-240.000000,107.687981,0.000000,0.000301,254.945511,84.079010,0.002495,-2.497744,-1475.681274,0.000000
0.000000,0.000000,0.000000,0.000000,0.000000,0.000000,0.200000,0.200000,0,0,0,0,0,0,32.0141827136,34.8668660991,107.687981,-0.161431,-0.727957,121.399918,40.305317,2.742840,0.265771,0.000004,6.092607,92.729469,-247.654968,12.000000,40.000000,0.000000,0.000000,-249.999863,-250.000000,107.687981,0.000000,0.000067,254.945511,83.832031,0.002490,-2.497890,-1494.480103,0.000000
0.000000,0.000000,0.000000,0.000000,0.000000,0.000000,0.200000,0.200000,0,0,0,0,0,0,32.0141827136,34.8668660991,107.687981,-0.161414,-0.727939,121.399918,39.526058,2.755564,0.527458,0.000007,6.080875,89.113503,-251.270935,12.000000,40.000000,0.000000,0.000000,-249.999863,-250.000000,107.687981,0.000000,0.000134,254.945511,83.681702,0.002484,-2.498026,-1509.971558,0.000000
0.000000,0.000000,0.000000,0.000000,0.000000,0.000000,0.200000,0.200000,0,0,0,0,0,0,32.0141827136,34.8668660991,107.687988,-0.161396,-0.727921,121.399918,38.754093,2.768793,0.489580,0.000007,6.087900,85.505684,-254.878754,12.000000,40.000000,0.000000,0.000000,-249.999863,-250.000000,107.687988,0.000000,0.000134,254.945511,83.626015,0.002481,-2.498154,-1523.576660,0.000000
0.000000,0.000000,0.000000,0.000000,0.000000,0.000000,0.200000,0.200000,0,0,0,0,0,0,32.0141827136,34.8668660991,107.687988,-0.161376,-0.727900,121.399918,37.894520,2.784270,0.454553,0.000006,5.882587,81.352875,-259.031555,12.000000,40.000000,0.000000,0.000000,-259.999847,-260.000000,107.687988,0.000000,0.000368,254.945511,83.673622,0.002475,-2.498287,-1540.699219,0.000000
0.000000,0.000000,0.000000,0.000000,0.000000,0.000000,0.200000,0.200000,0,0,0,0,0,0,32.0141827136,34.8668660991,107.687988,-0.161362,-0.727879,121.399918,37.138561,2.798549,0.346256,0.000005,6.059931,77.819992,-262.564453,12.000000,40.000000,0.000000,0.000000,-259.999847,-260.000000,107.687988,0.000000,0.000335,254.945511,83.811089,0.002473,-2.498398,-1548.246826,0.000000
0.000000,0.000000,0.000000,0.000000,0.000000,0.000000,0.200000,0.200000,0,0,0,0,0,0,32.0141827136,34.8668660991,107.687988,-0.161306,-0.727804,121.399918,35.054306,2.841277,0.875890,0.000007,3.339352,66.737427,-273.647003,12.000000,40.000000,0.000000,0.000000,-269.999847,-270.000000,107.687988,0.000000,0.000368,254.945511,84.651947,0.002461,-2.498672,-1585.898315,0.000000
0.000000,0.000000,0.000000,0.000000,0.000000,0.000000,0.200000,0.200000,0,0,0,0,0,0,32.0141827136,34.8668660990,107.687996,-0.161209,-0.727613,121.399910,29.814297,2.971659,1.205555,0.000002,2.493813,56.895077,-283.489349,12.000000,40.000000,0.000000,0.000000,-279.999847,-280.000000,107.687996,0.000000,0.000067,254.945511,89.654572,0.002440,-2.499196,-893.442810,0.000000
0.000000,0.000000,0.000000,0.000000,0.000000,0.000000,0.200000,0.200000,0,0,0,0,0,0,32.0141827136,34.8668660990,107.688004,-0.161195,-0.727572,121.399910,28.646132,3.005570,0.918636,0.000003,2.559049,56.868767,-283.515656,12.000000,40.000000,0.000000,0.000000,-279.999847,-280.000000,107.688004,0.000000,0.000268,254.945511,92.876228,0.002435,-2.499358,-404.280609,0.000000
0.000000,0.000000,0.000000,0.000000,0.000000,0.000000,0.200000,0.200000,0,0,0,0,0,0,32.0141827136,34.8668660990,107.688004,-0.161191,-0.727567,121.399910,28.646111,3.004713,-0.427092,-0.000000,2.557003,105.456520,-283.576263,12.000000,40.000000,0.000000,0.000000,-279.999847,-280.000000,107.688004,0.000000,-0.000067,254.945511,101.095535,0.002426,-2.499611,-10.705419,0.000000
0.000000,0.000000,0.000000,0.000000,0.000000,0.000000,0.200000,0.200000,0,0,0,0,0,0,32.0141827136,34.8668660990,107.688004,-0.161191,-0.727566,121.399910,28.646112,3.004541,-1.046552,-0.000000,2.565038,105.445946,-283.586853,12.000000,40.000000,0.000000,0.000000,-279.999847,-280.000000,107.688004,0.000000,0.000000,254.945511,102.794060,0.002425,-2.499648,-10.321026,0.000000
0.000000,0.000000,0.000000,0.000000,0.000000,0.000000,0.200000,0.200000,0,0,0,0,0,0,32.0141827136,34.8668660990,107.688004,-0.161192,-0.727564,121.399910,28.645834,3.004423,-0.099217,-0.000004,2.568306,105.437019,-283.595795,12.000000,40.000000,0.000000,0.000000,-279.999847,-280.000000,107.688004,0.000000,-0.000100,254.945511,104.129471,0.002423,-2.476374,-14.666269,0.000000
0.000000,0.000000,0.000000,0.000000,0.000000,0.000000,0.200000,0.200000,0,0,0,0,0,0,32.0141827136,34.8668660991,107.687996,-0.161229,-0.727875,121.399918,28.643890,3.004454,-0.218185,-0.000077,2.570071,105.428787,-283.604004,12.000000,40.000000,0.000000,0.000000,-279.999847,-280.000000,107.687996,0.000000,-0.002578,254.945511,105.311714,0.002412,-2.423796,-14.562239,0.000000
0.000000,0.000000,0.000000,0.000000,0.000000,0.000000,0.200000,0.200000,0,0,0,0,0,0,32.0141827135,34.8668660994,107.687981,-0.161356,-0.729205,121.399918,28.641247,3.004503,-0.278772,-0.000220,2.567831,105.417290,-283.615509,12.000000,40.000000,0.000000,0.000000,-279.999847,-280.000000,107.687981,0.000000,-0.009041,254.945511,106.816689,0.002405,-2.322608,-18.342583,0.000000
0.000000,0.000000,0.000000,0.000000,0.000000,0.000000,0.200000,0.200000,0,0,0,0,0,0,32.0141827133,34.8668660998,107.687950,-0.161499,-0.730714,121.399925,28.639872,3.004496,-0.316583,-0.000323,2.570599,105.409744,-283.623047,11.948535,39.828449,-0.000000,-0.000000,-279.999847,-280.000000,107.687950,0.000000,-0.015203,254.945511,107.888817,0.002405,-2.232122,-15.749542,0.000000
0.000000,0.000000,0.000000,0.000000,0.000000,0.000000,0.200000,0.200000,0,0,0,0,0,0,32.0141827131,34.8668661002,107.687920,-0.161651,-0.732308,121.399933,28.638948,3.004466,-0.340207,-0.000400,2.572349,105.403015,-283.629791,11.739064,39.130215,-0.000000,-0.000000,-279.999847,-280.000000,107.687920,0.000000,-0.018886,254.945511,108.808548,0.002411,-2.144990,-7.796691,0.000000
0.000000,0.000000,0.000000,0.000000,0.000000,0.000000,0.200000,0.200000,0,0,0,0,0,0,32.0141827129,34.8668661007,107.687874,-0.161837,-0.734223,121.399940,28.638237,3.004415,-0.359836,-0.000468,2.572315,105.395439,-283.637360,11.481432,38.271439,-0.000000,-0.000000,-279.999847,-280.000000,107.687874,0.000000,-0.022435,254.945511,109.772453,0.002419,-2.046239,-18.964230,0.000000
0.000000,0.000000,0.000000,0.000000,0.000000,0.000000,0.200000,0.200000,0,0,0,0,0,0,32.0141827127,34.8668661012,107.687820,-0.162034,-0.736293,121.399948,28.637775,3.004344,-0.373346,-0.000517,2.572273,105.387863,-283.644928,11.193540,37.311798,-0.000000,-0.000000,-279.999847,-280.000000,107.687820,0.000000,-0.025248,254.945511,110.711716,0.002434,-1.944378,-17.267801,0.000000
0.000000,0.000000,0.000000,0.000000,0.000000,0.000000,0.200000,0.200000,0,0,0,0,0,0,32.0141827126,34.8668661016,107.687775,-0.162176,-0.738027,121.399948,28.642904,3.003867,-0.632550,-0.000401,2.571814,105.380280,-283.652527,10.879951,36.266502,-0.000000,-0.000000,-279.999847,-280.000000,107.687775,0.000000,-0.022268,254.945511,111.624039,0.002491,-1.841548,-15.112719,0.000000
0.000000,0.000000,0.000000,0.000000,0.000000,0.000000,0.200000,0.200000,0,0,0,0,0,0,32.0141827125,34.8668661017,107.687744,-0.162144,-0.738127,121.399948,28.648849,3.003293,-0.292084,-0.000121,2.571118,105.372704,-283.660095,10.594215,35.314053,-0.000000,-0.000000,-279.999847,-280.000000,107.687744,0.000000,-0.009510,254.945496,112.507271,0.002537,-1.739524,-11.902449,0.000000
0.000000,0.000000,0.000000,0.000000,0.000000,0.000000,0.200000,0.200000,0,0,0,0,0,0,32.0141827127,34.8668661014,107.687737,-0.162010,-0.736998,121.399948,28.651657,3.002952,0.147112,0.000127,2.570097,105.364525,-283.668274,10.323984,34.413280,-0.000000,-0.000000,-279.999847,-280.000000,107.687737,0.000000,0.003047,254.945450,113.415054,0.002556,-1.633196,-13.434737,0.000000
0.000000,0.000000,0.000000,0.000000,0.000000,0.000000,0.200000,0.200000,0,0,0,0,0,0,32.0141827128,34.8668661010,107.687752,-0.161839,-0.735382,121.399940,28.652498,3.002767,0.269768,0.000276,2.569704,105.356453,-283.676331,10.092078,33.640266,-0.000001,-0.000000,-279.999847,-280.000000,107.687752,0.000000,0.011653,254.945343,114.285210,0.002559,-1.530745,-13.428172,0.000000
0.000000,0.000000,0.000000,0.000000,0.000000,0.000000,0.200000,0.200000,0,0,0,0,0,0,32.0141827130,34.8668661005,107.687790,-0.161653,-0.733513,121.399933,28.652679,3.002626,0.338473,0.000364,2.568924,105.347816,-283.684967,9.977175,33.257256,-0.000002,-0.000001,-279.999847,-280.000000,107.687790,0.000000,0.016140,254.945145,115.166206,0.002555,-1.427187,-15.918853,0.000000
0.000000,0.000000,0.000000,0.000000,0.000000,0.000000,0.200000,0.200000,0,0,0,0,0,0,32.0141827135,34.8668660993,107.687912,-0.161238,-0.728834,121.399918,28.648954,3.002564,0.584864,0.000309,2.557441,105.322166,-283.710632,10.030812,33.436062,-0.000006,-0.000001,-279.999847,-280.000000,107.687912,0.000000,0.016341,254.944519,117.351204,0.002493,-1.173218,-17.254694,0.000000
0.000000,0.000000,0.000000,0.000000,0.000000,0.000000,0.200000,0.200000,0,0,0,0,0,0,32.0141827136,34.8668660990,107.687996,-0.161185,-0.727609,121.399910,28.646179,3.001936,0.860614,0.000012,2.554637,105.261703,-283.771088,10.168416,33.894760,-0.000014,-0.000003,-279.999847,-280.000000,107.687996,0.000000,0.000670,254.943359,121.086014,0.002443,-0.710849,-9.984476,0.000000
0.000000,0.000000,0.000000,0.000000,0.000000,0.000000,0.200000,0.200000,0,0,0,0,0,0,32.0141827136,34.8668660990,107.687996,-0.161185,-0.727592,121.399910,28.646133,3.001775,0.893053,0.000006,2.562971,105.251808,-283.780975,10.194897,33.983036,-0.000015,-0.000003,-279.999847,-280.000000,107.687996,0.000000,0.000335,254.943192,121.485420,0.002439,-0.645759,-17.865721,0.000000
0.000000,0.000000,0.000000,0.000000,0.000000,0.000000,0.200000,0.200000,0,0,0,0,0,0,32.0141827136,34.8668660990,107.688004,-0.161183,-0.727585,121.399910,28.646143,3.001648,0.853337,0.000004,2.566445,105.243454,-283.789337,10.215646,34.052200,-0.000015,-0.000003,-279.999847,-280.000000,107.688004,0.000000,0.000402,254.943069,121.727234,0.002437,-0.599005,-18.112848,0.000000
0.000000,0.000000,0.000000,0.000000,0.000000,0.000000,0.200000,0.200000,0,0,0,0,0,0,32.0141827136,34.8668660990,107.688004,-0.161181,-0.727580,121.399910,28.646120,3.001520,0.819185,0.000002,2.567088,105.234581,-283.798218,10.236415,34.121433,-0.000016,-0.000004,-279.999847,-280.000000,107.688004,0.000000,0.000268,254.942963,121.907722,0.002435,-0.555636,-7.735677,0.000000
0.000000,0.000000,0.000000,0.000000,0.000000,0.000000,0.200000,0.200000,0,0,0,0,0,0,32.0141827136,34.8668660990,107.688004,-0.161181,-0.727577,121.399910,28.646124,3.001392,0.934833,0.000002,2.567135,105.225601,-283.807190,10.257206,34.190739,-0.000017,-0.000004,-279.999847,-280.000000,107.688004,0.000000,0.000134,254.942856,122.027908,0.002433,-0.515407,-13.982203,0.000000
0.000000,0.000000,0.000000,0.000000,0.000000,0.000000,0.200000,0.200000,0,0,0,0,0,0,32.0141827136,34.8668660990,107.688004,-0.161179,-0.727571,121.399910,28.646112,3.001057,1.467388,0.000000,2.556264,105.200142,-283.832672,10.311593,34.372032,-0.000018,-0.000004,-279.999847,-280.000000,107.688004,0.000000,-0.000100,254.942627,122.067101,0.002428,-0.423568,-17.054399,0.000000
0.000000,0.000000,0.000000,0.000000,0.000000,0.000000,0.200000,0.200000,0,0,0,0,0,0,32.0141827136,34.8668660990,107.688004,-0.161178,-0.727572,121.399910,28.646112,3.000203,0.769964,0.000000,2.553165,105.139694,-283.893097,10.451107,34.837090,-0.000021,-0.000005,-279.999847,-280.000000,107.688004,0.000000,0.000100,254.942200,120.567787,0.002423,-0.256639,-9.977238,0.000000
0.000000,0.000000,0.000000,0.000000,0.000000,0.000000,0.200000,0.200000,0,0,0,0,0,0,32.0141827136,34.8668660990,107.688004,-0.161178,-0.727571,121.399910,28.646111,3.000039,-1.113408,-0.000001,2.561539,105.129753,-283.903046,10.477954,34.926582,-0.000021,-0.000005,-279.999847,-280.000000,107.688004,0.000000,-0.000033,254.942139,120.060448,0.002422,-0.233139,-17.949896,0.000000
0.000000,0.000000,0.000000,0.000000,0.000000,0.000000,0.200000,0.200000,0,0,0,0,0,0,32.0141827136,34.8668660990,107.688004,-0.161178,-0.727571,121.399910,28.646112,2.999918,-1.023807,-0.000001,2.565428,105.121994,-283.910797,10.497820,34.992802,-0.000022,-0.000005,-279.999847,-280.000000,107.688004,0.000000,-0.000067,254.942093,119.648514,0.002422,-0.217164,-16.544483,0.000000
0.000000,0.000000,0.000000,0.000000,0.000000,0.000000,0.200000,0.200000,0,0,0,0,0,0,32.0141827136,34.8668660990,107.688004,-0.161181,-0.727585,121.399910,28.645576,2.999797,-0.150350,-0.000012,2.563548,105.110680,-283.922119,10.523557,35.078590,-0.000022,-0.000005,-279.999847,-280.000000,107.688004,0.000000,-0.000368,254.942047,119.073311,0.002417,-0.198105,-18.212873,0.000000
0.000000,0.000000,0.000000,0.000000,0.000000,0.000000,0.200000,0.200000,0,0,0,0,0,0,32.0141827136,34.8668660991,107.687996,-0.161220,-0.727913,121.399910,28.643774,2.999832,-0.221119,-0.000082,2.566856,105.103790,-283.929016,10.541122,35.137146,-0.000022,-0.000005,-279.999847,-280.000000,107.687996,0.000000,-0.002612,254.942017,118.656494,0.002409,-0.186079,-12.924221,0.000000
0.000000,0.000000,0.000000,0.000000,0.000000,0.000000,0.200000,0.200000,0,0,0,0,0,0,32.0141827135,34.8668660993,107.687988,-0.161302,-0.728736,121.399918,28.641909,2.999873,-0.262513,-0.000179,2.567849,105.096458,-283.936340,10.558703,35.195747,-0.000022,-0.000005,-279.999847,-280.000000,107.687988,0.000000,-0.008238,254.942001,118.221733,0.002401,-0.174784,-9.955969,0.000000
0.000000,0.000000,0.000000,0.000000,0.000000,0.000000,0.200000,0.200000,0,0,0,0,0,0,32.0141827134,34.8668660997,107.687965,-0.161431,-0.730084,121.399925,28.640364,2.999877,-0.305051,-0.000285,2.567598,105.088402,-283.944397,10.577472,35.258308,-0.000022,-0.000005,-279.999847,-280.000000,107.687965,0.000000,-0.013227,254.941971,117.740227,0.002400,-0.163491,-9.927382,0.000000
0.000000,0.000000,0.000000,0.000000,0.000000,0.000000,0.200000,0.200000,0,0,0,0,0,0,32.0141827131,34.8668661002,107.687912,-0.161652,-0.732395,121.399933,28.638941,2.999839,-0.345031,-0.000407,2.564671,105.077347,-283.955444,10.358437,34.528191,-0.000023,-0.000005,-279.999847,-280.000000,107.687912,0.000000,-0.018551,254.941910,117.084000,0.002405,-0.149770,-13.607669,0.000000
0.000000,0.000000,0.000000,0.000000,0.000000,0.000000,0.200000,0.200000,0,0,0,0,0,0,32.0141827129,34.8668661008,107.687866,-0.161849,-0.734446,121.399940,28.638214,2.999782,-0.361115,-0.000472,2.566811,105.069717,-283.963074,10.098687,33.662361,-0.000023,-0.000005,-279.999847,-280.000000,107.687866,0.000000,-0.023038,254.941803,116.568298,0.002417,-0.140095,-11.682726,0.000000
0.000000,0.000000,0.000000,0.000000,0.000000,0.000000,0.200000,0.200000,0,0,0,0,0,0,32.0141827127,34.8668661013,107.687820,-0.162045,-0.736519,121.399948,28.637781,2.999710,-0.376279,-0.000521,2.567852,105.062386,-283.970398,9.825423,32.751488,-0.000025,-0.000006,-279.999847,-280.000000,107.687820,0.000000,-0.024713,254.941574,116.074608,0.002433,-0.131593,-19.757206,0.000000
0.000000,0.000000,0.000000,0.000000,0.000000,0.000000,0.200000,0.200000,0,0,0,0,0,0,32.0141827125,34.8668661018,107.687759,-0.162247,-0.738676,121.399956,28.637596,2.999617,-0.390038,-0.000554,2.568086,105.054909,-283.977875,9.528828,31.762848,-0.000028,-0.000006,-279.999847,-280.000000,107.687759,0.000000,-0.026923,254.941040,115.572830,0.002447,-0.123608,-17.201534,0.000000
0.000000,0.000000,0.000000,0.000000,0.000000,0.000000,0.200000,0.200000,0,0,0,0,0,0,32.0141827122,34.8668661024,107.687698,-0.162463,-0.741002,121.399963,28.637621,2.999504,-0.401779,-0.000572,2.567506,105.046783,-283.986023,9.192049,30.640278,-0.000037,-0.000008,-279.999847,-280.000000,107.687698,0.000000,-0.027860,254.939743,115.030640,0.002471,-0.115624,-16.774317,0.000000
0.000000,0.000000,0.000000,0.000000,0.000000,0.000000,0.200000,0.200000,0,0,0,0,0,0,32.0141827119,34.8668661032,107.687614,-0.162739,-0.744006,121.399971,28.637922,2.999334,-0.413466,-0.000572,2.564329,105.035683,-283.997101,8.728343,29.094677,-0.000064,-0.000014,-279.999847,-280.000000,107.687614,0.000000,-0.028664,254.935501,114.311539,0.002510,-0.105922,-17.490507,0.000000
0.000000,0.000000,0.000000,0.000000,0.000000,0.000000,0.200000,0.200000,0,0,0,0,0,0,32.0141827117,34.8668661037,107.687553,-0.162940,-0.746206,121.399986,28.638292,2.999191,-0.427042,-0.000566,2.566366,105.028030,-284.004761,8.356893,27.856657,-0.000111,-0.000024,-279.999847,-280.000000,107.687553,0.000000,-0.027525,254.928146,113.760567,0.002539,-0.099081,-15.822178,0.000000
0.000000,0.000000,0.000000,0.000000,0.000000,0.000000,0.200000,0.200000,0,0,0,0,0,0,32.0141827114,34.8668661045,107.687462,-0.163216,-0.749286,121.399994,28.639019,2.998966,-0.433790,-0.000524,2.562220,105.015266,-284.017517,7.789832,25.966976,-0.000279,-0.000061,-279.999847,-280.000000,107.687462,0.000000,-0.026956,254.902237,112.933838,0.002583,-0.089638,-11.504599,0.000000
0.000000,0.000000,0.000000,0.000000,0.000000,0.000000,0.200000,0.200000,0,0,0,0,0,0,32.0141827112,34.8668661049,107.687408,-0.163374,-0.751052,121.400002,28.639511,2.998819,-0.443392,-0.000499,2.566036,105.008438,-284.024353,7.426016,24.754934,-0.000497,-0.000108,-279.999847,-280.000000,107.687408,0.000000,-0.025583,254.868744,112.419487,0.002604,-0.084199,-17.893618,0.000000
0.000000,0.000000,0.000000,0.000000,0.000000,0.000000,0.200000,0.200000,0,0,0,0,0,0,32.0141827109,34.8668661055,107.687340,-0.163585,-0.753406,121.400009,28.640265,2.998604,-0.449045,-0.000449,2.562939,104.996880,-284.035919,6.893279,22.981096,-0.001123,-0.000244,-279.999847,-280.000000,107.687340,0.000000,-0.022201,254.772598,111.672142,0.002652,-0.076813,-6.863202,0.000000
0.000000,0.000000,0.000000,0.000000,0.000000,0.000000,0.200000,0.200000,0,0,0,0,0,0,32.0141827105,34.8668661065,107.687286,-0.163811,-0.754790,121.400009,28.602083,3.001888,-0.045237,-0.000344,2.568413,104.989334,-284.043457,6.504977,21.689388,-0.001968,-0.000428,-279.999847,-280.000000,107.687286,0.000018,-0.019020,254.643097,111.136208,0.002587,-0.071855,-17.848213,0.000000
0.000000,0.000000,0.000000,0.000000,0.000000,0.000000,0.200000,0.200000,0,0,0,0,0,0,32.0141827068,34.8668661140,107.687263,-0.164571,-0.755044,121.399979,28.424772,3.018487,-0.000592,-0.000024,2.587013,104.982033,-284.050751,6.094098,20.323921,-0.003293,-0.000716,-279.999847,-280.000000,107.687263,0.000333,-0.005860,254.440277,110.641228,0.002511,-0.067519,-13.825784,0.000000
0.000000,0.000000,0.000000,0.000000,0.000000,0.000000,0.200000,0.200000,0,0,0,0,0,0,32.0141826950,34.8668661374,107.687271,-0.165726,-0.754592,121.399872,28.109974,3.049268,0.004031,0.000401,2.621093,104.974594,-284.058197,5.634086,18.797554,-0.005543,-0.001208,-279.999847,-280.000000,107.687271,0.001313,0.011385,254.095764,110.154739,0.002522,-0.063464,-11.297971,0.000000
0.000000,0.000000,0.000000,0.000000,0.000000,0.000000,0.200000,0.200000,0,0,0,0,0,0,32.0141826702,34.8668661857,107.687325,-0.167048,-0.753805,121.399681,27.671772,3.093527,0.004889,0.000902,2.670493,104.967133,-284.065674,5.141809,17.168699,-0.009420,-0.002065,-279.999847,-280.000000,107.687325,0.003327,0.033519,253.500931,109.677948,0.002586,-0.059676,-7.313527,0.000000
