aileron,elevator,rudder,flaps,slats,speedbrake,throttle,throttle,engine-pump,engine-pump,electric-pump,electric-pump,external-power,APU-generator,latitude-deg,longitude-deg,altitude-ft,roll-deg,pitch-deg,heading-deg,side-slip-deg,airspeed-kt,glideslope,vertical-speed-fps,airspeed-indicator_indicated-speed-kt,altimeter_indicated-altitude-ft,altimeter_pressure-alt-ft,attitude-indicator_indicated-pitch-deg,attitude-indicator_indicated-roll-deg,attitude-indicator_internal-pitch-deg,attitude-indicator_internal-roll-deg,encoder_indicated-altitude-ft,encoder_pressure-alt-ft,gps_indicated-altitude-ft,gps_indicated-ground-speed-kt,gps_indicated-vertical-speed,indicated-heading-deg,magnetic-compass_indicated-heading-deg,slip-skid-ball_indicated-slip-skid,turn-indicator_indicated-turn-rate,vertical-speed-indicator_indicated-speed-fpm,engine_rpm
0.000000,0.000000,0.000000,1.000000,0.000000,0.000000,0.000000,0.000000,0,0,0,0,0,0,32.0177231700,34.8926918800,-9999.000000,0.000000,0.424000,260.000000,0.000000,0.000000,0.000000,0.000000,0.000000,0.000000,0.000000,0.000000,0.000000,0.000000,0.000000,0.000000,0.000000,0.000000,0.000000,0.000000,0.000000,0.000000,0.000000,0.000000,0.000000,0.000000
0.000000,0.000000,0.000000,1.000000,0.000000,0.000000,0.000000,0.000000,0,0,0,0,0,0,32.0177231700,34.8926918800,-9999.000000,0.000000,0.424000,260.000000,0.000000,0.000000,0.000000,0.000000,0.000000,390.226257,1.193444,12.000000,40.000000,0.000000,0.000000,0.000000,0.000000,0.000000,0.000000,0.000000,254.951645,0.000000,0.000000,0.000000,0.000000,0.000000
0.000000,0.000000,0.000000,1.000000,0.000000,0.000000,0.000000,0.000000,0,0,0,0,0,0,32.0141825072,34.8668671716,-9999.000000,0.000000,0.424000,121.400002,0.000000,0.000000,0.000000,0.000000,0.000000,390.226257,1.193444,12.000000,40.000000,0.000000,0.000000,0.000000,0.000000,0.000000,0.000000,0.000000,254.951645,0.000000,0.000000,0.000000,0.000000,0.000000
0.000000,0.000000,0.000000,1.000000,0.000000,0.000000,0.000000,0.000000,0,0,0,0,0,0,32.0141825072,34.8668671716,-9999.000000,0.000000,0.424000,121.400002,0.000000,0.000000,0.000000,0.000000,0.000000,390.226257,1.193444,12.000000,40.000000,0.000000,0.000000,0.000000,0.000000,0.000000,0.000000,0.000000,254.951645,0.000000,0.000000,0.000000,0.000000,0.000000
0.000000,0.000000,0.000000,1.000000,0.000000,0.000000,0.000000,0.000000,0,0,0,0,0,0,32.0141825072,34.8668671716,-9999.000000,0.000000,0.424000,121.400002,0.000000,0.000000,0.000000,0.000000,0.000000,390.226257,1.193444,12.000000,40.000000,0.000000,0.000000,0.000000,0.000000,0.000000,0.000000,0.000000,254.951645,0.000000,0.000000,0.000000,0.000000,0.000000
0.000000,0.000000,0.000000,1.000000,0.000000,0.000000,0.000000,0.000000,0,0,0,0,0,0,32.0141825072,34.8668671716,-9999.000000,0.000000,0.424000,121.400002,0.000000,0.000000,0.000000,0.000000,0.000000,390.226257,1.193444,12.000000,40.000000,0.000000,0.000000,0.000000,0.000000,0.000000,0.000000,0.000000,254.951645,0.000000,0.000000,0.000000,0.000000,0.000000
0.000000,0.000000,0.000000,1.000000,0.000000,0.000000,0.000000,0.000000,0,0,0,0,0,0,32.0141825072,34.8668671716,-9999.000000,0.000000,0.424000,121.400002,0.000000,0.000000,0.000000,0.000000,0.000000,390.226257,1.193444,12.000000,40.000000,0.000000,0.000000,0.000000,0.000000,0.000000,0.000000,0.000000,254.951645,0.000000,0.000000,0.000000,0.000000,0.000000
0.000000,0.000000,0.000000,1.000000,0.000000,0.000000,0.000000,0.000000,0,0,0,0,0,0,32.0141825072,34.8668671716,-9999.000000,0.000000,0.424000,121.400002,0.000000,0.000000,0.000000,0.000000,0.000000,390.226257,1.193444,12.000000,40.000000,0.000000,0.000000,0.000000,0.000000,0.000000,0.000000,0.000000,254.951645,0.000000,0.000000,0.000000,0.000000,0.000000
0.000000,0.000000,0.000000,1.000000,0.000000,0.000000,0.000000,0.000000,0,0,0,0,0,0,32.0141825072,34.8668671716,-9999.000000,0.000000,0.424000,121.400002,0.000000,0.000000,0.000000,0.000000,0.000000,390.226257,1.193444,12.000000,40.000000,0.000000,0.000000,0.000000,0.000000,0.000000,0.000000,0.000000,254.951645,0.000000,0.000000,0.000000,0.000000,0.000000
0.000000,0.000000,0.000000,1.000000,0.000000,0.000000,0.000000,0.000000,0,0,0,0,0,0,32.0141825072,34.8668671716,-9999.000000,0.000000,0.424000,121.400002,0.000000,0.000000,0.000000,0.000000,0.000000,390.226257,1.193444,12.000000,40.000000,0.000000,0.000000,0.000000,0.000000,0.000000,0.000000,0.000000,254.951645,0.000000,0.000000,0.000000,0.000000,0.000000
0.000000,0.000000,0.000000,1.000000,0.000000,0.000000,0.000000,0.000000,0,0,0,0,0,0,32.0141825072,34.8668671716,-9999.000000,0.000000,0.424000,121.400002,0.000000,0.000000,0.000000,0.000000,0.000000,390.226257,1.193444,12.000000,40.000000,0.000000,0.000000,0.000000,0.000000,0.000000,0.000000,0.000000,254.951645,0.000000,0.000000,0.000000,0.000000,0.000000
0.000000,0.000000,0.000000,1.000000,0.000000,0.000000,0.000000,0.000000,0,0,0,0,0,0,32.0141825072,34.8668671716,-9999.000000,0.000000,0.424000,121.400002,0.000000,0.000000,0.000000,0.000000,0.000000,390.226257,1.193444,12.000000,40.000000,0.000000,0.000000,0.000000,0.000000,0.000000,0.000000,0.000000,254.951645,0.000000,0.000000,0.000000,0.000000,0.000000
0.000000,0.000000,0.000000,1.000000,0.000000,0.000000,0.000000,0.000000,0,0,0,0,0,0,32.0141825072,34.8668671716,-9999.000000,0.000000,0.424000,121.400002,0.000000,0.000000,0.000000,0.000000,0.000000,390.226257,1.193444,12.000000,40.000000,0.000000,0.000000,0.000000,0.000000,0.000000,0.000000,0.000000,254.951645,0.000000,0.000000,0.000000,0.000000,0.000000
0.000000,0.000000,0.000000,1.000000,0.000000,0.000000,0.000000,0.000000,0,0,0,0,0,0,32.0141825072,34.8668671716,-9999.000000,0.000000,0.424000,121.400002,0.000000,0.000000,0.000000,0.000000,0.000000,390.226257,1.193444,12.000000,40.000000,0.000000,0.000000,0.000000,0.000000,0.000000,0.000000,0.000000,254.951645,0.000000,0.000000,0.000000,0.000000,0.000000
0.000000,0.000000,0.000000,1.000000,0.000000,0.000000,0.000000,0.000000,0,0,0,0,0,0,32.0141825072,34.8668671716,-9999.000000,0.000000,0.424000,121.400002,0.000000,0.000000,0.000000,0.000000,0.000000,390.226257,1.193444,12.000000,40.000000,0.000000,0.000000,0.000000,0.000000,0.000000,0.000000,0.000000,254.951645,0.000000,0.000000,0.000000,0.000000,0.000000
0.000000,0.000000,0.000000,1.000000,0.000000,0.000000,0.000000,0.000000,0,0,0,0,0,0,32.0141825072,34.8668671716,-9999.000000,0.000000,0.424000,121.400002,0.000000,0.000000,0.000000,0.000000,0.000000,390.226257,1.193444,12.000000,40.000000,0.000000,0.000000,0.000000,0.000000,0.000000,0.000000,0.000000,254.951645,0.000000,0.000000,0.000000,0.000000,0.000000
0.000000,0.000000,0.000000,1.000000,0.000000,0.000000,0.000000,0.000000,0,0,0,0,0,0,32.0141825072,34.8668671716,-9999.000000,0.000000,0.424000,121.400002,0.000000,0.000000,0.000000,0.000000,0.000000,390.226257,1.193444,12.000000,40.000000,0.000000,0.000000,0.000000,0.000000,0.000000,0.000000,0.000000,254.951645,0.000000,0.000000,0.000000,0.000000,0.000000
0.000000,0.000000,0.000000,1.000000,0.000000,0.000000,0.000000,0.000000,0,0,0,0,0,0,32.0141825072,34.8668671716,-9999.000000,0.000000,0.424000,121.400002,0.000000,0.000000,0.000000,0.000000,0.000000,390.226257,1.193444,12.000000,40.000000,0.000000,0.000000,0.000000,0.000000,0.000000,0.000000,0.000000,254.951645,0.000000,0.000000,0.000000,0.000000,0.000000
0.000000,0.000000,0.000000,1.000000,0.000000,0.000000,0.000000,0.000000,0,0,0,0,0,0,32.0141825072,34.8668671716,-9999.000000,0.000000,0.424000,121.400002,0.000000,0.000000,0.000000,0.000000,0.000000,390.226257,1.193444,12.000000,40.000000,0.000000,0.000000,0.000000,0.000000,0.000000,0.000000,0.000000,254.951645,0.000000,0.000000,0.000000,0.000000,0.000000
0.000000,0.000000,0.000000,1.000000,0.000000,0.000000,0.000000,0.000000,0,0,0,0,0,0,32.0141825072,34.8668671716,-9999.000000,0.000000,0.424000,121.400002,0.000000,0.000000,0.000000,0.000000,0.000000,390.226257,1.193444,12.000000,40.000000,0.000000,0.000000,0.000000,0.000000,0.000000,0.000000,0.000000,254.951645,0.000000,0.000000,0.000000,0.000000,0.000000
0.000000,0.000000,0.000000,1.000000,0.000000,0.000000,0.000000,0.000000,0,0,0,0,0,0,32.0141825072,34.8668671716,-9999.000000,0.000000,0.424000,121.400002,0.000000,0.000000,0.000000,0.000000,0.000000,390.226257,1.193444,12.000000,40.000000,0.000000,0.000000,0.000000,0.000000,0.000000,0.000000,0.000000,254.951645,0.000000,0.000000,0.000000,0.000000,0.000000
0.000000,0.000000,0.000000,1.000000,0.000000,0.000000,0.000000,0.000000,0,0,0,0,0,0,32.0141825072,34.8668671716,-9999.000000,0.000000,0.424000,121.400002,0.000000,0.000000,0.000000,0.000000,0.000000,390.226257,1.193444,12.000000,40.000000,0.000000,0.000000,0.000000,0.000000,0.000000,0.000000,0.000000,254.951645,0.000000,0.000000,0.000000,0.000000,0.000000
0.000000,0.000000,0.000000,1.000000,0.000000,0.000000,0.000000,0.000000,0,0,0,0,0,0,32.0141825072,34.8668671716,-9999.000000,0.000000,0.424000,121.400002,0.000000,0.000000,0.000000,0.000000,0.000000,390.226257,1.193444,12.000000,40.000000,0.000000,0.000000,0.000000,0.000000,0.000000,0.000000,0.000000,254.951645,0.000000,0.000000,0.000000,0.000000,0.000000
0.000000,0.000000,0.000000,1.000000,0.000000,0.000000,0.000000,0.000000,0,0,0,0,0,0,32.0141825072,34.8668671716,-9999.000000,0.000000,0.424000,121.400002,0.000000,0.000000,0.000000,0.000000,0.000000,390.226257,1.193444,12.000000,40.000000,0.000000,0.000000,0.000000,0.000000,0.000000,0.000000,0.000000,254.951645,0.000000,0.000000,0.000000,0.000000,0.000000
0.000000,0.000000,0.000000,1.000000,0.000000,0.000000,0.000000,0.000000,0,0,0,0,0,0,32.0141825072,34.8668671716,-9999.000000,0.000000,0.424000,121.400002,0.000000,0.000000,0.000000,0.000000,0.000000,390.226257,1.193444,12.000000,40.000000,0.000000,0.000000,0.000000,0.000000,0.000000,0.000000,0.000000,254.951645,0.000000,0.000000,0.000000,0.000000,0.000000
0.000000,0.000000,0.000000,1.000000,0.000000,0.000000,0.000000,0.000000,0,0,0,0,0,0,32.0141825072,34.8668671716,-9999.000000,0.000000,0.424000,121.400002,0.000000,0.000000,0.000000,0.000000,0.000000,390.226257,1.193444,12.000000,40.000000,0.000000,0.000000,0.000000,0.000000,0.000000,0.000000,0.000000,254.951645,0.000000,0.000000,0.000000,0.000000,0.000000
0.000000,0.000000,0.000000,1.000000,0.000000,0.000000,0.000000,0.000000,0,0,0,0,0,0,32.0141825072,34.8668671716,-9999.000000,0.000000,0.424000,121.400002,0.000000,0.000000,0.000000,0.000000,0.000000,390.226257,1.193444,12.000000,40.000000,0.000000,0.000000,0.000000,0.000000,0.000000,0.000000,0.000000,254.951645,0.000000,0.000000,0.000000,0.000000,0.000000
0.000000,0.000000,0.000000,1.000000,0.000000,0.000000,0.000000,0.000000,0,0,0,0,0,0,32.0141825072,34.8668671716,-9999.000000,0.000000,0.424000,121.400002,0.000000,0.000000,0.000000,0.000000,0.000000,390.226257,1.193444,12.000000,40.000000,0.000000,0.000000,0.000000,0.000000,0.000000,0.000000,0.000000,254.951645,0.000000,0.000000,0.000000,0.000000,0.000000
0.000000,0.000000,0.000000,1.000000,0.000000,0.000000,0.000000,0.000000,0,0,0,0,0,0,32.0141825072,34.8668671716,-9999.000000,0.000000,0.424000,121.400002,0.000000,0.000000,0.000000,0.000000,0.000000,390.226257,1.193444,12.000000,40.000000,0.000000,0.000000,0.000000,0.000000,0.000000,0.000000,0.000000,254.951645,0.000000,0.000000,0.000000,0.000000,0.000000
0.000000,0.000000,0.000000,1.000000,0.000000,0.000000,0.000000,0.000000,0,0,0,0,0,0,32.0141825072,34.8668671716,-9999.000000,0.000000,0.424000,121.400002,0.000000,0.000000,0.000000,0.000000,0.000000,390.226257,1.193444,12.000000,40.000000,0.000000,0.000000,0.000000,0.000000,0.000000,0.000000,0.000000,254.951645,0.000000,0.000000,0.000000,0.000000,0.000000
0.000000,0.000000,0.000000,1.000000,0.000000,0.000000,0.000000,0.000000,0,0,0,0,0,0,32.0141825072,34.8668671716,-9999.000000,0.000000,0.424000,121.400002,0.000000,0.000000,0.000000,0.000000,0.000000,390.226257,1.193444,12.000000,40.000000,0.000000,0.000000,0.000000,0.000000,0.000000,0.000000,0.000000,254.951645,0.000000,0.000000,0.000000,0.000000,0.000000
0.000000,0.000000,0.000000,1.000000,0.000000,0.000000,0.000000,0.000000,0,0,0,0,0,0,32.0141825072,34.8668671716,-9999.000000,0.000000,0.424000,121.400002,0.000000,0.000000,0.000000,0.000000,0.000000,390.226257,1.193444,12.000000,40.000000,0.000000,0.000000,0.000000,0.000000,0.000000,0.000000,0.000000,254.951645,0.000000,0.000000,0.000000,0.000000,0.000000
0.000000,0.000000,0.000000,1.000000,0.000000,0.000000,0.000000,0.000000,0,0,0,0,0,0,32.0141825072,34.8668671716,-9999.000000,0.000000,0.424000,121.400002,0.000000,0.000000,0.000000,0.000000,0.000000,390.226257,1.193444,12.000000,40.000000,0.000000,0.000000,0.000000,0.000000,0.000000,0.000000,0.000000,254.951645,0.000000,0.000000,0.000000,0.000000,0.000000
0.000000,0.000000,0.000000,1.000000,0.000000,0.000000,0.000000,0.000000,0,0,0,0,0,0,32.0141825072,34.8668671716,-9999.000000,0.000000,0.424000,121.400002,0.000000,0.000000,0.000000,0.000000,0.000000,390.226257,1.193444,12.000000,40.000000,0.000000,0.000000,0.000000,0.000000,0.000000,0.000000,0.000000,254.951645,0.000000,0.000000,0.000000,0.000000,0.000000
0.000000,0.000000,0.000000,1.000000,0.000000,0.000000,0.000000,0.000000,0,0,0,0,0,0,32.0141825072,34.8668671716,-9999.000000,0.000000,0.424000,121.400002,0.000000,0.000000,0.000000,0.000000,0.000000,390.226257,1.193444,12.000000,40.000000,0.000000,0.000000,0.000000,0.000000,0.000000,0.000000,0.000000,254.951645,0.000000,0.000000,0.000000,0.000000,0.000000
0.000000,0.000000,0.000000,1.000000,0.000000,0.000000,0.000000,0.000000,0,0,0,0,0,0,32.0141825072,34.8668671716,-9999.000000,0.000000,0.424000,121.400002,0.000000,0.000000,0.000000,0.000000,0.000000,390.226257,1.193444,12.000000,40.000000,0.000000,0.000000,0.000000,0.000000,0.000000,0.000000,0.000000,254.951645,0.000000,0.000000,0.000000,0.000000,0.000000
0.000000,0.000000,0.000000,1.000000,0.000000,0.000000,0.000000,0.000000,0,0,0,0,0,0,32.0141825072,34.8668671716,-9999.000000,0.000000,0.424000,121.400002,0.000000,0.000000,0.000000,0.000000,0.000000,390.226257,1.193444,12.000000,40.000000,0.000000,0.000000,0.000000,0.000000,0.000000,0.000000,0.000000,254.951645,0.000000,0.000000,0.000000,0.000000,0.000000
0.000000,0.000000,0.000000,1.000000,0.000000,0.000000,0.000000,0.000000,0,0,0,0,0,0,32.0141825072,34.8668671716,-9999.000000,0.000000,0.424000,121.400002,0.000000,0.000000,0.000000,0.000000,0.000000,390.226257,1.193444,12.000000,40.000000,0.000000,0.000000,0.000000,0.000000,0.000000,0.000000,0.000000,254.951645,0.000000,0.000000,0.000000,0.000000,0.000000
0.000000,0.000000,0.000000,1.000000,0.000000,0.000000,0.000000,0.000000,0,0,0,0,0,0,32.0141825072,34.8668671716,-9999.000000,0.000000,0.424000,121.400002,0.000000,0.000000,0.000000,0.000000,0.000000,390.226257,1.193444,12.000000,40.000000,0.000000,0.000000,0.000000,0.000000,0.000000,0.000000,0.000000,254.951645,0.000000,0.000000,0.000000,0.000000,0.000000
0.000000,0.000000,0.000000,1.000000,0.000000,0.000000,0.000000,0.000000,0,0,0,0,0,0,32.0141825072,34.8668671716,-9999.000000,0.000000,0.424000,121.400002,0.000000,0.000000,0.000000,0.000000,0.000000,390.226257,1.193444,12.000000,40.000000,0.000000,0.000000,0.000000,0.000000,0.000000,0.000000,0.000000,254.951645,0.000000,0.000000,0.000000,0.000000,0.000000
0.000000,0.000000,0.000000,1.000000,0.000000,0.000000,0.000000,0.000000,0,0,0,0,0,0,32.0141825072,34.8668671716,-9999.000000,0.000000,0.424000,121.400002,0.000000,0.000000,0.000000,0.000000,0.000000,390.226257,1.193444,12.000000,40.000000,0.000000,0.000000,0.000000,0.000000,0.000000,0.000000,0.000000,254.951645,0.000000,0.000000,0.000000,0.000000,0.000000
0.000000,0.000000,0.000000,1.000000,0.000000,0.000000,0.000000,0.000000,0,0,0,0,0,0,32.0141825072,34.8668671716,-9999.000000,0.000000,0.424000,121.400002,0.000000,0.000000,0.000000,0.000000,0.000000,390.226257,1.193444,12.000000,40.000000,0.000000,0.000000,0.000000,0.000000,0.000000,0.000000,0.000000,254.951645,0.000000,0.000000,0.000000,0.000000,0.000000
0.000000,0.000000,0.000000,1.000000,0.000000,0.000000,0.000000,0.000000,0,0,0,0,0,0,32.0141825072,34.8668671716,-9999.000000,0.000000,0.424000,121.400002,0.000000,0.000000,0.000000,0.000000,0.000000,390.226257,1.193444,12.000000,40.000000,0.000000,0.000000,0.000000,0.000000,0.000000,0.000000,0.000000,254.951645,0.000000,0.000000,0.000000,0.000000,0.000000
0.000000,0.000000,0.000000,1.000000,0.000000,0.000000,0.000000,0.000000,0,0,0,0,0,0,32.0141825072,34.8668671716,-9999.000000,0.000000,0.424000,121.400002,0.000000,0.000000,0.000000,0.000000,0.000000,390.226257,1.193444,12.000000,40.000000,0.000000,0.000000,0.000000,0.000000,0.000000,0.000000,0.000000,254.951645,0.000000,0.000000,0.000000,0.000000,0.000000
0.000000,0.000000,0.000000,1.000000,0.000000,0.000000,0.000000,0.000000,0,0,0,0,0,0,32.0141825072,34.8668671716,-9999.000000,0.000000,0.424000,121.400002,0.000000,0.000000,0.000000,0.000000,0.000000,390.226257,1.193444,12.000000,40.000000,0.000000,0.000000,0.000000,0.000000,0.000000,0.000000,0.000000,254.951645,0.000000,0.000000,0.000000,0.000000,0.000000
0.000000,0.000000,0.000000,1.000000,0.000000,0.000000,0.000000,0.000000,0,0,0,0,0,0,32.0141825072,34.8668671716,-9999.000000,0.000000,0.424000,121.400002,0.000000,0.000000,0.000000,0.000000,0.000000,390.226257,1.193444,12.000000,40.000000,0.000000,0.000000,0.000000,0.000000,0.000000,0.000000,0.000000,254.951645,0.000000,0.000000,0.000000,0.000000,0.000000
0.000000,0.000000,0.000000,1.000000,0.000000,0.000000,0.000000,0.000000,0,0,0,0,0,0,32.0141825072,34.8668671716,-9999.000000,0.000000,0.424000,121.400002,0.000000,0.000000,0.000000,0.000000,0.000000,390.226257,1.193444,12.000000,40.000000,0.000000,0.000000,0.000000,0.000000,0.000000,0.000000,0.000000,254.951645,0.000000,0.000000,0.000000,0.000000,0.000000
0.000000,0.000000,0.000000,1.000000,0.000000,0.000000,0.000000,0.000000,0,0,0,0,0,0,32.0141825072,34.8668671716,-9999.000000,0.000000,0.424000,121.400002,0.000000,0.000000,0.000000,0.000000,0.000000,390.226257,1.193444,12.000000,40.000000,0.000000,0.000000,0.000000,0.000000,0.000000,0.000000,0.000000,254.951645,0.000000,0.000000,0.000000,0.000000,0.000000
0.000000,0.000000,0.000000,1.000000,0.000000,0.000000,0.000000,0.000000,0,0,0,0,0,0,32.0141825072,34.8668671716,-9999.000000,0.000000,0.424000,121.400002,0.000000,0.000000,0.000000,0.000000,0.000000,390.226257,1.193444,12.000000,40.000000,0.000000,0.000000,0.000000,0.000000,0.000000,0.000000,0.000000,254.951645,0.000000,0.000000,0.000000,0.000000,0.000000
0.000000,0.000000,0.000000,1.000000,0.000000,0.000000,0.000000,0.000000,0,0,0,0,0,0,32.0141825072,34.8668671716,-9999.000000,0.000000,0.424000,121.400002,0.000000,0.000000,0.000000,0.000000,0.000000,390.226257,1.193444,12.000000,40.000000,0.000000,0.000000,0.000000,0.000000,0.000000,0.000000,0.000000,254.951645,0.000000,0.000000,0.000000,0.000000,0.000000
0.000000,0.000000,0.000000,1.000000,0.000000,0.000000,0.000000,0.000000,0,0,0,0,0,0,32.0141825072,34.8668671716,-9999.000000,0.000000,0.424000,121.400002,0.000000,0.000000,0.000000,0.000000,0.000000,390.226257,1.193444,12.000000,40.000000,0.000000,0.000000,0.000000,0.000000,0.000000,0.000000,0.000000,254.951645,0.000000,0.000000,0.000000,0.000000,0.000000
0.000000,0.000000,0.000000,1.000000,0.000000,0.000000,0.000000,0.000000,0,0,0,0,0,0,32.0141825072,34.8668671716,-9999.000000,0.000000,0.424000,121.400002,0.000000,0.000000,0.000000,0.000000,0.000000,390.226257,1.193444,12.000000,40.000000,0.000000,0.000000,0.000000,0.000000,0.000000,0.000000,0.000000,254.951645,0.000000,0.000000,0.000000,0.000000,0.000000
0.000000,0.000000,0.000000,1.000000,0.000000,0.000000,0.000000,0.000000,0,0,0,0,0,0,32.0141825072,34.8668671716,-9999.000000,0.000000,0.424000,121.400002,0.000000,0.000000,0.000000,0.000000,0.000000,390.226257,1.193444,12.000000,40.000000,0.000000,0.000000,0.000000,0.000000,0.000000,0.000000,0.000000,254.951645,0.000000,0.000000,0.000000,0.000000,0.000000
0.000000,0.000000,0.000000,1.000000,0.000000,0.000000,0.000000,0.000000,0,0,0,0,0,0,32.0141825072,34.8668671716,-9999.000000,0.000000,0.424000,121.400002,0.000000,0.000000,0.000000,0.000000,0.000000,390.226257,1.193444,12.000000,40.000000,0.000000,0.000000,0.000000,0.000000,0.000000,0.000000,0.000000,254.951645,0.000000,0.000000,0.000000,0.000000,0.000000
0.000000,0.000000,0.000000,1.000000,0.000000,0.000000,0.000000,0.000000,0,0,0,0,0,0,32.0141825072,34.8668671716,-9999.000000,0.000000,0.424000,121.400002,0.000000,0.000000,0.000000,0.000000,0.000000,390.226257,1.193444,12.000000,40.000000,0.000000,0.000000,0.000000,0.000000,0.000000,0.000000,0.000000,254.951645,0.000000,0.000000,0.000000,0.000000,0.000000
0.000000,0.000000,0.000000,1.000000,0.000000,0.000000,0.000000,0.000000,0,0,0,0,0,0,32.0141825072,34.8668671716,-9999.000000,0.000000,0.424000,121.400002,0.000000,0.000000,0.000000,0.000000,0.000000,390.226257,1.193444,12.000000,40.000000,0.000000,0.000000,0.000000,0.000000,0.000000,0.000000,0.000000,254.951645,0.000000,0.000000,0.000000,0.000000,0.000000
0.000000,0.000000,0.000000,0.000000,0.000000,0.000000,0.000000,0.000000,0,0,0,0,0,0,32.0141827131,34.8668660992,107.687912,-0.159268,-0.729272,121.399879,0.000000,0.000000,0.000000,0.000000,0.000000,390.226257,1.193444,12.000000,40.000000,0.000000,0.000000,0.000000,0.000000,0.000000,0.000000,0.000000,254.951645,0.000000,0.000000,0.000000,0.000000,0.000000
0.000000,0.000000,0.000000,0.000000,0.000000,0.000000,0.000000,0.000000,0,0,0,0,0,0,32.0141827140,34.8668661024,107.687698,-0.168711,-0.737100,121.400063,31.309732,3.016499,-0.836149,-0.000044,0.000000,500.325531,111.292717,12.000000,40.000000,0.000000,0.000000,110.000145,110.000000,107.687698,0.000007,-0.002746,254.951614,10.175203,0.002483,-0.985256,2747.019531,0.000000
0.000000,0.000000,0.000000,0.000000,0.000000,0.000000,0.000000,0.000000,0,0,0,0,0,0,32.0141827141,34.8668661019,107.687737,-0.168402,-0.735368,121.400055,37.493694,2.737261,0.826880,0.000009,0.000000,471.954346,82.921539,12.000000,40.000000,0.000000,0.000000,80.000145,80.000000,107.687737,0.000006,0.000603,254.951614,36.224037,0.003245,-1.582221,848.530151,0.000000
0.000000,0.000000,0.000000,0.000000,0.000000,0.000000,0.000000,0.000000,0,0,0,0,0,0,32.0141827143,34.8668661015,107.687782,-0.168205,-0.733733,121.400047,44.975079,2.496702,0.856596,0.000009,0.000000,443.579163,54.546349,12.000000,40.000000,0.000000,0.000000,50.000141,50.000000,107.687782,0.000005,0.000536,254.951614,70.620522,0.003499,-1.943920,-730.909180,0.000000
0.000000,0.000000,0.000000,0.000000,0.000000,0.000000,0.000000,0.000000,0,0,0,0,0,0,32.0141827144,34.8668661013,107.687798,-0.168178,-0.733019,121.400047,49.392231,2.391528,0.834209,0.000024,1.042795,428.984314,39.951511,12.000000,40.000000,0.000000,0.000000,40.000141,40.000000,107.687798,0.000004,0.001339,254.951614,89.111320,0.003558,-2.070750,-1043.970337,0.000000
0.000000,0.000000,0.000000,0.000000,0.000000,0.000000,0.000000,0.000000,0,0,0,0,0,0,32.0141827145,34.8668661012,107.687813,-0.168202,-0.732506,121.400047,53.070938,2.320613,0.695855,0.000030,1.982424,417.742828,28.710016,12.000000,40.000000,0.000000,0.000000,30.000143,30.000000,107.687813,0.000004,0.001574,254.951614,102.931541,0.003585,-2.148707,-1193.067749,0.000000
0.000000,0.000000,0.000000,0.000000,0.000000,0.000000,0.000000,0.000000,0,0,0,0,0,0,32.0141827147,34.8668661009,107.687851,-0.168526,-0.731182,121.400047,63.165165,2.189472,0.903143,0.000010,0.000000,389.192719,0.159925,12.000000,40.000000,0.000000,0.000000,0.000142,0.000000,107.687851,0.000003,0.000335,254.951614,133.004349,0.003649,-2.287152,-1221.582397,0.000000
0.000000,0.000000,0.000000,0.000000,0.000000,0.000000,0.000000,0.000000,0,0,0,0,0,0,32.0141827147,34.8668661009,107.687859,-0.168585,-0.731077,121.400047,65.041023,2.173970,0.344990,0.000019,4.504289,385.212891,-3.819900,12.000000,40.000000,0.000000,0.000000,0.000142,0.000000,107.687859,0.000003,0.001005,254.951614,137.361893,0.003640,-2.305021,-1244.697632,0.000000
0.000000,0.000000,0.000000,0.000000,0.000000,0.000000,0.000000,0.000000,0,0,0,0,0,0,32.0141827147,34.8668661009,107.687859,-0.168664,-0.730944,121.400047,66.669281,2.162561,0.349818,0.000026,5.199286,381.400787,-7.632010,12.000000,40.000000,0.000000,0.000000,-9.999858,-10.000000,107.687859,0.000003,0.001139,254.951614,140.844604,0.003656,-2.319137,-1282.514404,0.000000
0.000000,0.000000,0.000000,0.000000,0.000000,0.000000,0.000000,0.000000,0,0,0,0,0,0,32.0141827149,34.8668661008,107.687866,-0.168976,-0.730487,121.400055,70.527550,2.142848,0.525227,0.000027,2.584403,371.199402,-17.833393,12.000000,40.000000,0.000000,0.000000,-19.999857,-20.000000,107.687866,0.000003,0.001708,254.951614,148.017502,0.003692,-2.348229,-1384.233154,0.000000
0.000000,0.000000,0.000000,0.000000,0.000000,0.000000,0.000000,0.000000,0,0,0,0,0,0,32.0141827149,34.8668661008,107.687874,-0.169055,-0.730389,121.400055,72.012970,2.137913,0.381624,0.000029,5.074692,368.285889,-20.746914,12.000000,40.000000,0.000000,0.000000,-19.999857,-20.000000,107.687874,0.000003,0.001373,254.951614,150.386108,0.003704,-2.358037,-1380.449463,0.000000
0.000000,0.000000,0.000000,0.000000,0.000000,0.000000,0.000000,0.000000,0,0,0,0,0,0,32.0141827149,34.8668661008,107.687874,-0.169148,-0.730284,121.400055,73.317696,2.134782,0.331239,0.000031,5.719323,365.385193,-23.647593,12.000000,40.000000,0.000000,0.000000,-19.999857,-20.000000,107.687874,0.000003,0.001339,254.951614,152.289825,0.003719,-2.366098,-1393.916382,0.000000
0.000000,0.000000,0.000000,0.000000,0.000000,0.000000,0.000000,0.000000,0,0,0,0,0,0,32.0141827150,34.8668661008,107.687881,-0.169260,-0.730164,121.400055,74.625702,2.132762,0.299465,0.000032,5.898542,362.305176,-26.727638,12.000000,40.000000,0.000000,0.000000,-19.999857,-20.000000,107.687881,0.000002,0.001205,254.951614,154.034409,0.003723,-2.373701,-1414.230591,0.000000
0.000000,0.000000,0.000000,0.000000,0.000000,0.000000,0.000000,0.000000,0,0,0,0,0,0,32.0141827150,34.8668661008,107.687881,-0.169375,-0.730045,121.400063,75.842026,2.131883,0.268411,0.000030,6.051363,359.444336,-29.588449,12.000000,40.000000,0.000000,0.000000,-29.999857,-30.000000,107.687881,0.000002,0.001574,254.951614,155.511002,0.003744,-2.380373,-1431.505493,0.000000
0.000000,0.000000,0.000000,0.000000,0.000000,0.000000,0.000000,0.000000,0,0,0,0,0,0,32.0141827152,34.8668661007,107.687897,-0.169913,-0.729558,121.400070,79.677071,2.135437,0.516639,0.000034,2.719713,349.140076,-39.892727,12.000000,40.000000,0.000000,0.000000,-39.999859,-40.000000,107.687897,0.000002,0.002043,254.951614,159.260117,0.003815,-2.399195,-1506.275269,0.000000
0.000000,0.000000,0.000000,0.000000,0.000000,0.000000,0.000000,0.000000,0,0,0,0,0,0,32.0141827152,34.8668661007,107.687897,-0.170032,-0.729464,121.400070,81.073982,2.139098,0.295807,0.000028,5.156178,346.457764,-42.575043,12.000000,40.000000,0.000000,0.000000,-39.999859,-40.000000,107.687897,0.000002,0.001775,254.951614,160.288300,0.003823,-2.405315,-1490.580566,0.000000
0.000000,0.000000,0.000000,0.000000,0.000000,0.000000,0.000000,0.000000,0,0,0,0,0,0,32.0141827153,34.8668661007,107.687904,-0.170213,-0.729332,121.400070,82.557823,2.144408,0.225346,0.000027,5.539997,342.998047,-46.034748,12.000000,40.000000,0.000000,0.000000,-39.999859,-40.000000,107.687904,0.000002,0.002210,254.951614,161.184219,0.003840,-2.411434,-1500.536865,0.000000
0.000000,0.000000,0.000000,0.000000,0.000000,0.000000,0.000000,0.000000,0,0,0,0,0,0,32.0141827153,34.8668661007,107.687904,-0.170389,-0.729204,121.400078,83.849541,2.150231,0.252910,0.000034,5.840906,339.970154,-49.062660,12.000000,40.000000,0.000000,0.000000,-49.999859,-50.000000,107.687904,0.000002,0.001540,254.951614,161.799896,0.003854,-2.416463,-1508.792725,0.000000
0.000000,0.000000,0.000000,0.000000,0.000000,0.000000,0.000000,0.000000,0,0,0,0,0,0,32.0141827154,34.8668661007,107.687912,-0.170638,-0.729034,121.400078,85.407501,2.158768,0.217620,0.000030,5.586506,336.029510,-53.003304,12.000000,40.000000,0.000000,0.000000,-49.999859,-50.000000,107.687912,0.000002,0.002143,254.951614,162.339340,0.003858,-2.422187,-1528.271851,0.000000
0.000000,0.000000,0.000000,0.000000,0.000000,0.000000,0.000000,0.000000,0,0,0,0,0,0,32.0141827156,34.8668661007,107.687920,-0.171422,-0.728626,121.400093,89.008766,2.185105,0.372810,0.000029,2.777549,326.164825,-62.867985,12.000000,40.000000,0.000000,0.000000,-59.999859,-60.000000,107.687920,0.000002,0.001708,254.951614,162.733002,0.003997,-2.434155,-1572.894287,0.000000
0.000000,0.000000,0.000000,0.000000,0.000000,0.000000,0.000000,0.000000,0,0,0,0,0,0,32.0141827137,34.8668660995,107.687950,-0.162238,-0.729063,121.399933,80.815445,2.313238,0.476278,0.000003,0.000000,298.805664,-90.227142,12.000000,40.000000,0.000000,0.000000,-89.999855,-90.000000,107.687950,0.000002,0.000201,254.951614,157.289001,0.002924,-2.460105,-1437.055664,0.000000
0.000000,0.000000,0.000000,0.000000,0.000000,0.000000,0.000000,0.000000,0,0,0,0,0,0,32.0141827137,34.8668660995,107.687958,-0.162251,-0.729028,121.399933,79.087868,2.344070,0.215291,0.000003,4.378558,294.577606,-94.455200,12.000000,40.000000,0.000000,0.000000,-89.999855,-90.000000,107.687958,0.000002,0.000201,254.951614,155.370895,0.002865,-2.463606,-1432.983276,0.000000
0.000000,0.000000,0.000000,0.000000,0.000000,0.000000,0.000000,0.000000,0,0,0,0,0,0,32.0141827137,34.8668660995,107.687958,-0.162267,-0.728993,121.399933,77.860306,2.367805,0.244890,0.000005,5.355835,291.318115,-97.714684,12.000000,40.000000,0.000000,0.000000,-99.999855,-100.000000,107.687958,0.000001,0.000000,254.951614,153.827881,0.002830,-2.465958,-1439.750854,0.000000
0.000000,0.000000,0.000000,0.000000,0.000000,0.000000,0.000000,0.000000,0,0,0,0,0,0,32.0141827137,34.8668660995,107.687958,-0.162283,-0.728962,121.399933,76.881157,2.387877,0.280815,0.000007,5.870078,288.603302,-100.429504,12.000000,40.000000,0.000000,0.000000,-99.999855,-100.000000,107.687958,0.000001,0.000502,254.951614,152.489136,0.002808,-2.467757,-1448.135254,0.000000
0.000000,0.000000,0.000000,0.000000,0.000000,0.000000,0.000000,0.000000,0,0,0,0,0,0,32.0141827137,34.8668660995,107.687958,-0.162304,-0.728933,121.399933,75.918533,2.408636,0.297026,0.000007,6.031301,285.742676,-103.290115,12.000000,40.000000,0.000000,0.000000,-99.999855,-100.000000,107.687958,0.000001,0.000335,254.951614,151.079254,0.002785,-2.469460,-1462.239868,0.000000
0.000000,0.000000,0.000000,0.000000,0.000000,0.000000,0.000000,0.000000,0,0,0,0,0,0,32.0141827137,34.8668660995,107.687958,-0.162330,-0.728898,121.399933,74.900536,2.431740,0.263156,0.000007,5.976589,282.560883,-106.471924,12.000000,40.000000,0.000000,0.000000,-99.999855,-100.000000,107.687958,0.000001,0.000603,254.951614,149.486877,0.002765,-2.471194,-1480.312622,0.000000
0.000000,0.000000,0.000000,0.000000,0.000000,0.000000,0.000000,0.000000,0,0,0,0,0,0,32.0141827137,34.8668660995,107.687958,-0.162358,-0.728862,121.399933,73.901962,2.455598,0.325275,0.000010,5.957568,279.397614,-109.635178,12.000000,40.000000,0.000000,0.000000,-109.999855,-110.000000,107.687958,0.000001,0.000536,254.951614,147.823624,0.002751,-2.472830,-1495.928101,0.000000
0.000000,0.000000,0.000000,0.000000,0.000000,0.000000,0.000000,0.000000,0,0,0,0,0,0,32.0141827137,34.8668660995,107.687958,-0.162388,-0.728828,121.399933,72.992104,2.478407,0.348841,0.000011,6.054866,276.513092,-112.519714,12.000000,40.000000,0.000000,0.000000,-109.999855,-110.000000,107.687958,0.000001,0.000368,254.951614,146.221069,0.002736,-2.474265,-1507.058960,0.000000
0.000000,0.000000,0.000000,0.000000,0.000000,0.000000,0.000000,0.000000,0,0,0,0,0,0,32.0141827137,34.8668660995,107.687958,-0.162419,-0.728793,121.399933,72.099052,2.501833,0.339013,0.000011,6.087598,273.597717,-115.435089,12.000000,40.000000,0.000000,0.000000,-109.999855,-110.000000,107.687958,0.000001,0.000770,254.951614,144.567596,0.002727,-2.475625,-1518.591064,0.000000
0.000000,0.000000,0.000000,0.000000,0.000000,0.000000,0.000000,0.000000,0,0,0,0,0,0,32.0141827138,34.8668660995,107.687958,-0.162455,-0.728756,121.399940,71.155983,2.527730,0.323210,0.000010,5.990933,270.397522,-118.635284,12.000000,40.000000,0.000000,0.000000,-119.999855,-120.000000,107.687958,0.000001,0.000569,254.951614,142.735641,0.002718,-2.477009,-1532.357544,0.000000
0.000000,0.000000,0.000000,0.000000,0.000000,0.000000,0.000000,0.000000,0,0,0,0,0,0,32.0141827138,34.8668660995,107.687965,-0.162488,-0.728723,121.399940,70.297592,2.552377,0.382670,0.000012,6.063723,267.502472,-121.530327,12.000000,40.000000,0.000000,0.000000,-119.999855,-120.000000,107.687965,0.000001,0.000703,254.951614,140.992188,0.002712,-2.478224,-1541.008423,0.000000
0.000000,0.000000,0.000000,0.000000,0.000000,0.000000,0.000000,0.000000,0,0,0,0,0,0,32.0141827138,34.8668660995,107.687965,-0.162523,-0.728688,121.399940,69.455780,2.577588,0.410870,0.000014,6.088670,264.583679,-124.449104,12.000000,40.000000,0.000000,0.000000,-119.999855,-120.000000,107.687965,0.000001,0.000737,254.951614,139.212982,0.002706,-2.479374,-1549.966309,0.000000
0.000000,0.000000,0.000000,0.000000,0.000000,0.000000,0.000000,0.000000,0,0,0,0,0,0,32.0141827138,34.8668660995,107.687965,-0.162560,-0.728652,121.399940,68.630432,2.603345,0.399545,0.000014,6.096126,261.657257,-127.375542,12.000000,40.000000,0.000000,0.000000,-129.999863,-130.000000,107.687965,0.000001,0.000904,254.951614,137.402954,0.002700,-2.480464,-1558.540039,0.000000
0.000000,0.000000,0.000000,0.000000,0.000000,0.000000,0.000000,0.000000,0,0,0,0,0,0,32.0141827138,34.8668660995,107.687965,-0.162596,-0.728615,121.399940,67.821388,2.629633,0.378589,0.000014,6.097947,258.728333,-130.304459,12.000000,40.000000,0.000000,0.000000,-129.999863,-130.000000,107.687965,0.000001,0.000670,254.951614,135.566925,0.002694,-2.481496,-1566.549927,0.000000
0.000000,0.000000,0.000000,0.000000,0.000000,0.000000,0.000000,0.000000,0,0,0,0,0,0,32.0141827138,34.8668660995,107.687965,-0.162609,-0.728576,121.399940,67.004501,2.630266,0.580169,0.000013,5.877966,255.247955,-133.784836,12.000000,40.000000,0.000000,0.000000,-129.999863,-130.000000,107.687965,0.000001,0.000603,254.951614,133.422470,0.002699,-2.482620,-1578.815674,0.000000
0.000000,0.000000,0.000000,0.000000,0.000000,0.000000,0.000000,0.000000,0,0,0,0,0,0,32.0141827138,34.8668660994,107.687965,-0.162586,-0.728547,121.399940,66.259560,2.625514,0.457260,0.000012,5.924354,252.114944,-136.917862,12.000000,40.000000,0.000000,0.000000,-129.999863,-130.000000,107.687965,0.000001,0.000368,254.951614,131.402023,0.002704,-2.483606,-1584.760742,0.000000
0.000000,0.000000,0.000000,0.000000,0.000000,0.000000,0.000000,0.000000,0,0,0,0,0,0,32.0141827138,34.8668660994,107.687965,-0.162544,-0.728517,121.399940,65.458488,2.620909,0.282299,0.000008,5.829932,248.692566,-140.340225,12.000000,40.000000,0.000000,0.000000,-139.999863,-140.000000,107.687965,0.000001,0.000603,254.951614,129.223755,0.002703,-2.484601,-1593.081543,0.000000
0.000000,0.000000,0.000000,0.000000,0.000000,0.000000,0.000000,0.000000,0,0,0,0,0,0,32.0141827138,34.8668660994,107.687973,-0.162486,-0.728490,121.399940,64.547310,2.616310,0.182841,0.000005,5.569254,244.751968,-144.280838,12.000000,40.000000,0.000000,0.000000,-139.999863,-140.000000,107.687973,0.000001,0.000737,254.951614,126.746925,0.002691,-2.485657,-1603.723389,0.000000
0.000000,0.000000,0.000000,0.000000,0.000000,0.000000,0.000000,0.000000,0,0,0,0,0,0,32.0141827138,34.8668660994,107.687973,-0.162427,-0.728467,121.399933,63.633114,2.612371,0.199735,0.000006,5.508172,240.896622,-148.136169,12.000000,40.000000,0.000000,0.000000,-149.999863,-150.000000,107.687973,0.000001,0.000033,254.951614,124.271095,0.002684,-2.486639,-1609.973877,0.000000
0.000000,0.000000,0.000000,0.000000,0.000000,0.000000,0.000000,0.000000,0,0,0,0,0,0,32.0141827138,34.8668660994,107.687973,-0.162254,-0.728403,121.399933,61.255974,2.605276,0.408112,0.000004,2.366048,230.085953,-158.946838,12.000000,40.000000,0.000000,0.000000,-159.999863,-160.000000,107.687973,0.000001,0.000268,254.951614,117.936264,0.002657,-2.488882,-1634.189819,0.000000
0.000000,0.000000,0.000000,0.000000,0.000000,0.000000,0.000000,0.000000,0,0,0,0,0,0,32.0141827137,34.8668660993,107.687973,-0.161907,-0.728258,121.399925,54.750725,2.608865,1.184155,0.000001,1.175381,202.809433,-186.223358,12.000000,40.000000,0.000000,0.000000,-189.999863,-190.000000,107.687973,0.000001,0.000000,254.951614,102.233917,0.002584,-2.493263,-1470.529663,0.000000
0.000000,0.000000,0.000000,0.000000,0.000000,0.000000,0.000000,0.000000,0,0,0,0,0,0,32.0141827137,34.8668660992,107.687981,-0.161651,-0.728122,121.399925,48.343109,2.645766,-0.001747,-0.000000,1.527457,175.771927,-213.260864,12.000000,40.000000,0.000000,0.000000,-209.999863,-210.000000,107.687981,0.000001,0.000033,254.951614,90.678604,0.002533,-2.495918,-1363.342163,0.000000
0.000000,0.000000,0.000000,0.000000,0.000000,0.000000,0.000000,0.000000,0,0,0,0,0,0,32.0141827137,34.8668660992,107.687981,-0.161628,-0.728109,121.399918,47.139275,2.656552,0.302208,0.000003,4.682778,171.289474,-217.743332,12.000000,40.000000,0.000000,0.000000,-219.999863,-220.000000,107.687981,0.000001,0.000201,254.951614,89.067772,0.002528,-2.496292,-1370.889404,0.000000
0.000000,0.000000,0.000000,0.000000,0.000000,0.000000,0.000000,1.000000,0,0,0,0,0,0,32.0141827137,34.8668660992,107.687981,-0.161601,-0.728094,121.399918,46.204166,2.665805,0.343772,0.000005,5.491731,167.526505,-221.506302,12.000000,40.000000,0.000000,0.000000,-219.999863,-220.000000,107.687981,0.000001,0.000335,254.951614,87.952095,0.002524,-2.496561,-1388.954956,0.000000
0.000000,0.000000,0.000000,0.000000,0.000000,0.000000,1.000000,1.000000,0,0,0,0,0,0,32.0141827137,34.8668660992,107.687981,-0.161578,-0.728078,121.399918,45.378513,2.674629,0.250857,0.000004,5.864972,164.071014,-224.961792,12.000000,40.000000,0.000000,0.000000,-219.999863,-220.000000,107.687981,0.000001,0.000234,254.951614,87.068336,0.002522,-2.496783,-1408.598633,0.000000
0.000000,0.000000,0.000000,0.000000,0.000000,0.000000,1.000000,1.000000,0,0,0,0,0,0,32.0141827137,34.8668660992,107.687981,-0.161500,-0.728013,121.399918,43.238144,2.700408,0.843991,0.000008,3.288228,153.739304,-235.293503,12.000000,40.000000,0.000000,0.000000,-229.999863,-230.000000,107.687981,0.000001,0.000268,254.951614,85.234077,0.002508,-2.497300,-1479.676270,0.000000
0.000000,0.000000,0.000000,0.000000,0.000000,0.000000,1.000000,1.000000,0,0,0,0,0,0,32.0141827136,34.8668660991,107.687988,-0.161350,-0.727840,121.399918,37.373829,2.794036,0.721215,0.000002,2.092165,126.427322,-262.605469,12.000000,40.000000,0.000000,0.000000,-259.999847,-260.000000,107.687988,0.000000,0.000100,254.951614,83.758675,0.002470,-2.498364,-1375.331665,0.000000
0.000000,0.000000,0.000000,0.000000,0.000000,0.000000,1.000000,1.000000,0,0,0,0,0,0,32.0141827136,34.8668660991,107.687988,-0.161336,-0.727825,121.399918,36.297318,2.815192,0.279534,0.000003,4.902191,121.944717,-267.088074,12.000000,40.000000,0.000000,0.000000,-269.999847,-270.000000,107.687988,0.000000,0.000201,254.951614,84.069084,0.002468,-2.498514,-1380.958740,0.000000
0.000000,0.000000,-0.001000,0.000000,0.000000,0.000000,1.000000,1.000000,0,0,0,0,0,0,32.0141827136,34.8668660991,107.687988,-0.161323,-0.727810,121.399918,35.604004,2.829518,0.301143,0.000004,5.941405,118.970612,-270.062195,12.000000,40.000000,0.000000,0.000000,-269.999847,-270.000000,107.687988,0.000000,0.000234,254.951614,84.364670,0.002465,-2.498604,-1388.239746,0.000000
0.000000,0.000000,-0.001000,0.000000,0.000000,0.000000,1.000000,1.000000,0,0,0,0,0,0,32.0141827136,34.8668660991,107.687988,-0.161310,-0.727792,121.399918,34.917702,2.844256,0.328753,0.000004,6.206019,115.700775,-273.332031,12.000000,40.000000,0.000000,0.000000,-269.999847,-270.000000,107.687988,0.000000,0.000167,254.951614,84.730606,0.002463,-2.498689,-1408.212891,0.000000
-0.572000,0.000000,-0.001000,0.000000,0.000000,0.000000,1.000000,1.000000,0,0,0,0,0,0,32.0141827136,34.8668660991,107.687996,-0.161299,-0.727774,121.399918,34.283596,2.858377,0.378288,0.000006,6.381732,112.622711,-276.410095,12.000000,40.000000,0.000000,0.000000,-269.999847,-270.000000,107.687996,0.000000,0.000100,254.951614,85.133095,0.002461,-2.498763,-1426.331177,0.000000
-0.572000,0.000000,-0.001000,0.000000,0.000000,0.000000,1.000000,1.000000,0,0,0,0,0,0,32.0141827138,34.8668660991,107.687996,-0.161796,-0.727749,121.399925,33.474159,2.876929,-0.016659,-0.000006,6.016821,108.391090,-280.641693,12.000000,40.000000,0.000000,0.000000,-279.999847,-280.000000,107.687996,0.000000,0.000804,254.951614,85.733025,0.002351,-2.498853,-1458.029907,0.000000
-0.572000,0.000000,-0.001000,0.000000,0.000000,0.000000,1.000000,1.000000,0,0,0,0,0,0,32.0141827138,34.8668660992,107.687996,-0.162216,-0.727727,121.399933,32.768326,2.893955,0.003916,0.000001,4.981957,106.275330,-282.757477,12.000000,40.000000,0.000000,0.000000,-279.999847,-280.000000,107.687996,0.000000,0.000938,254.951614,86.340118,0.002451,-2.498927,-1411.308838,0.000000
-0.572000,0.000000,-0.001000,0.000000,0.000000,0.000000,1.000000,1.000000,0,0,0,0,0,0,32.0141827139,34.8668660992,107.687996,-0.162471,-0.727649,121.399933,30.951921,2.940343,0.405127,0.000006,2.534362,105.574478,-283.458313,12.000000,40.000000,0.000000,0.000000,-279.999847,-280.000000,107.687996,0.000000,0.000335,254.951614,88.234123,0.002547,-2.499100,-1066.162720,0.000000
-0.572000,0.000000,-0.001000,0.000000,0.000000,0.000000,1.000000,1.000000,0,0,0,0,0,0,32.0141827139,34.8668660992,107.687996,-0.162486,-0.727632,121.399933,30.316940,2.957593,0.477524,0.000007,2.503421,105.555771,-283.477020,12.000000,40.000000,0.000000,0.000000,-279.999847,-280.000000,107.687996,0.000000,0.000402,254.951614,89.005417,0.002563,-2.499154,-931.316589,0.000000
-0.572000,0.000000,-0.001000,0.000000,0.000000,0.000000,1.000000,1.000000,0,0,0,0,0,0,32.0141827139,34.8668660992,107.687996,-0.162494,-0.727613,121.399933,29.647821,2.976389,0.584337,0.000007,2.521508,105.544876,-283.487915,12.000000,40.000000,0.000000,0.000000,-279.999847,-280.000000,107.687996,0.000000,0.000402,254.951614,89.876831,0.002574,-2.499209,-786.866394,0.000000
-0.572000,0.000000,-0.001000,0.000000,0.000000,0.000000,1.000000,1.000000,0,0,0,0,0,0,32.0141827139,34.8668660992,107.688004,-0.162504,-0.727591,121.399933,28.987211,2.995582,0.559632,0.000008,2.553739,105.536507,-283.496277,12.000000,40.000000,0.000000,0.000000,-279.999847,-280.000000,107.688004,0.000000,0.000435,254.951614,90.794228,0.002582,-2.499260,-642.178894,0.000000
-0.572000,0.000000,-0.001000,0.000000,0.000000,0.000000,1.000000,1.000000,0,0,0,0,0,0,32.0141827139,34.8668660992,107.688004,-0.162511,-0.727572,121.399933,28.646126,3.005700,0.571539,0.000007,2.572629,105.529182,-283.503632,12.000000,40.000000,0.000000,0.000000,-279.999847,-280.000000,107.688004,0.000000,0.000301,254.951614,91.692101,0.002592,-2.499305,-506.426544,0.000000
-0.572000,0.000000,-0.001000,0.000000,0.000000,0.000000,1.000000,1.000000,0,0,0,0,0,0,32.0141827139,34.8668660992,107.688004,-0.162515,-0.727559,121.399933,28.646130,3.005604,0.742633,0.000006,2.573450,105.522301,-283.510498,12.000000,40.000000,0.000000,0.000000,-279.999847,-280.000000,107.688004,0.000000,0.000469,254.951614,92.559830,0.002598,-2.499345,-379.653351,0.000000
-0.572000,0.000000,-0.001000,0.000000,0.000000,0.000000,1.000000,1.000000,0,0,0,0,0,0,32.0141827139,34.8668660992,107.688004,-0.162515,-0.727552,121.399933,28.646122,3.005505,0.857812,0.000004,2.573632,105.515305,-283.517487,12.000000,40.000000,0.000000,0.000000,-279.999847,-280.000000,107.688004,0.000000,0.000402,254.951614,93.453171,0.002606,-2.499382,-252.763794,0.000000
-0.572000,0.000000,-0.001000,0.000000,0.000000,0.000000,1.000000,1.000000,0,0,0,0,0,0,32.0141827139,34.8668660992,107.688004,-0.162515,-0.727548,121.399933,28.646120,3.005406,0.885565,0.000003,2.573625,105.508270,-283.524536,12.000000,40.000000,0.000000,0.000000,-279.999847,-280.000000,107.688004,0.000000,0.000402,254.951614,94.369125,0.002612,-2.499417,-125.519424,0.000000
-0.572000,0.000000,-0.001000,0.000000,0.000000,0.000000,1.000000,1.000000,0,0,0,0,0,0,32.0141827139,34.8668660992,107.688004,-0.162513,-0.727545,121.399933,28.646109,3.005306,1.073831,0.000002,2.573563,105.501228,-283.531555,12.000000,40.000000,0.000000,0.000000,-279.999847,-280.000000,107.688004,0.000000,-0.000134,254.951614,95.304718,0.002616,-2.499450,-16.704790,0.000000
-0.572000,0.000000,-0.001000,0.000000,0.000000,0.000000,1.000000,1.000000,0,0,0,0,0,0,32.0141827139,34.8668660992,107.688004,-0.162513,-0.727542,121.399933,28.646112,3.005191,0.449658,0.000001,2.572315,105.492958,-283.539856,12.000000,40.000000,0.000000,0.000000,-279.999847,-280.000000,107.688004,0.000000,0.000000,254.951614,96.394188,0.002620,-2.499485,-16.985029,0.000000
-0.572000,0.000000,-0.001000,0.000000,0.000000,0.000000,1.000000,1.000000,0,0,0,0,0,0,32.0141827139,34.8668660992,107.688004,-0.162512,-0.727539,121.399933,28.646103,3.004848,-1.117930,-0.000000,2.559373,105.466492,-283.566315,12.000000,40.000000,0.000000,0.000000,-279.999847,-280.000000,107.688004,0.000000,0.000100,254.951614,99.749451,0.002632,-2.499579,-18.402702,0.000000
-0.572000,0.000000,-0.001000,0.000000,0.000000,0.000000,1.000000,1.000000,0,0,0,0,0,0,32.0141827139,34.8668660992,107.688004,-0.162511,-0.727539,121.399933,28.646103,3.004727,-0.088203,-0.000000,2.568148,105.459572,-283.573242,12.000000,40.000000,0.000000,0.000000,-279.999847,-280.000000,107.688004,0.000000,-0.000067,254.951614,100.953476,0.002635,-2.499608,-13.405509,0.000000
-0.572000,0.000000,-0.001000,0.000000,0.000000,0.000000,1.000000,1.000000,0,0,0,0,0,0,32.0141827139,34.8668660992,107.688004,-0.162511,-0.727539,121.399933,28.646107,3.004605,0.311793,0.000000,2.570070,105.451393,-283.581421,12.000000,40.000000,0.000000,0.000000,-279.999847,-280.000000,107.688004,0.000000,0.000000,254.951614,102.157722,0.002638,-2.499635,-14.243735,0.000000
-0.572000,0.000000,-0.001000,0.000000,0.000000,0.000000,1.000000,1.000000,0,0,0,0,0,0,32.0141827139,34.8668660992,107.688004,-0.162511,-0.727537,121.399933,28.646107,3.004497,0.198535,0.000000,2.571501,105.444138,-283.588654,12.000000,40.000000,0.000000,0.000000,-279.999847,-280.000000,107.688004,0.000000,0.000033,254.951614,103.216675,0.002639,-2.499657,-10.034893,0.000000
-0.572000,0.000000,-0.001000,0.000000,0.000000,0.000000,1.000000,1.000000,0,0,0,0,0,0,32.0141827139,34.8668660992,107.688004,-0.162511,-0.727536,121.399933,28.646107,3.004391,0.925903,0.000000,2.571832,105.436676,-283.596130,12.000000,40.000000,0.000000,0.000000,-279.999847,-280.000000,107.688004,0.000000,0.000033,254.951614,104.268906,0.002641,-2.499678,-19.774309,0.000000
-0.572000,0.000000,-0.001000,0.000000,0.000000,0.000000,1.000000,1.000000,0,0,0,0,0,0,32.0141827139,34.8668660992,107.688004,-0.162509,-0.727535,121.399933,28.646126,3.004290,-0.047833,-0.000000,2.572403,105.429771,-283.603027,12.000000,40.000000,0.000000,0.000000,-279.999847,-280.000000,107.688004,0.000000,0.000167,254.951614,105.242195,0.002644,-2.499696,-15.454316,0.000000
-0.572000,0.000000,-0.001000,0.000000,0.000000,0.000000,1.000000,1.000000,0,0,0,0,0,0,32.0141827139,34.8668660992,107.688004,-0.162507,-0.727533,121.399933,28.646103,3.004169,1.379261,0.000001,2.570765,105.420929,-283.611877,12.000000,40.000000,0.000000,0.000000,-279.999847,-280.000000,107.688004,0.000000,0.000067,254.951614,106.409073,0.002644,-2.499717,-18.346670,0.000000
-0.572000,0.000000,-0.001000,0.000000,0.000000,0.000000,1.000000,1.000000,0,0,0,0,0,0,32.0141827139,34.8668660992,107.688004,-0.162507,-0.727533,121.399933,28.646105,3.004055,1.147931,0.000000,2.570862,105.412933,-283.619873,12.000000,40.000000,0.000000,0.000000,-279.999847,-280.000000,107.688004,0.000000,0.000067,254.951614,107.488815,0.002645,-2.499735,-18.019630,0.000000
-0.572000,0.000000,-0.001000,0.000000,0.000000,0.000000,1.000000,1.000000,0,0,0,0,0,0,32.0141827139,34.8668660992,107.688004,-0.162507,-0.727533,121.399933,28.646107,3.003933,-1.076768,-0.000000,2.570244,105.404297,-283.628510,12.000000,40.000000,0.000000,0.000000,-279.999847,-280.000000,107.688004,0.000000,-0.000033,254.951614,108.612587,0.002646,-2.499753,-19.599001,0.000000
-0.572000,0.000000,-0.001000,0.000000,0.000000,0.000000,1.000000,1.000000,0,0,0,0,0,0,32.0141827139,34.8668660992,107.688004,-0.162507,-0.727533,121.399933,28.646109,3.003833,0.379926,0.000000,2.571643,105.397545,-283.635254,12.000000,40.000000,0.000000,0.000000,-279.999847,-280.000000,107.688004,0.000000,-0.000134,254.951614,109.517303,0.002647,-2.499767,-15.030421,0.000000
-0.572000,0.000000,-0.001000,0.000000,0.000000,0.000000,1.000000,1.000000,0,0,0,0,0,0,32.0141827139,34.8668660992,107.688004,-0.162506,-0.727533,121.399933,28.646105,3.003705,-1.237041,-0.000001,2.569686,105.388153,-283.644653,12.000000,40.000000,0.000000,0.000000,-279.999847,-280.000000,107.688004,0.000000,0.000000,254.951614,110.649529,0.002647,-2.499784,-7.821790,0.000000
-0.572000,0.000000,-0.001000,0.000000,0.000000,0.000000,1.000000,1.000000,0,0,0,0,0,0,32.0141827139,34.8668660992,107.688004,-0.162506,-0.727533,121.399933,28.646109,3.003597,-0.976200,-0.000001,2.570826,105.380859,-283.651947,12.000000,40.000000,0.000000,0.000000,-279.999847,-280.000000,107.688004,0.000000,0.000033,254.951614,111.563782,0.002648,-2.499797,-18.360126,0.000000
-0.572000,0.000000,-0.001000,0.000000,0.000000,0.000000,1.000000,1.000000,0,0,0,0,0,0,32.0141827139,34.8668660992,107.688004,-0.162506,-0.727534,121.399933,28.646107,3.003483,-0.357971,-0.000000,2.570516,105.372780,-283.660004,12.000000,40.000000,0.000000,0.000000,-279.999847,-280.000000,107.688004,0.000000,-0.000067,254.951614,112.507050,0.002648,-2.499810,-18.177525,0.000000
-0.572000,0.000000,-0.001000,0.000000,0.000000,0.000000,1.000000,1.000000,0,0,0,0,0,0,32.0141827139,34.8668660992,107.688004,-0.162506,-0.727534,121.399933,28.646103,3.003369,1.274062,0.000000,2.570359,105.364738,-283.668060,12.000000,40.000000,0.000000,0.000000,-279.999847,-280.000000,107.688004,0.000000,-0.000134,254.951614,113.414970,0.002648,-2.499823,-18.078632,0.000000
-0.572000,0.000000,-0.001000,0.000000,0.000000,0.000000,1.000000,1.000000,0,0,0,0,0,0,32.0141827139,34.8668660992,107.688004,-0.162506,-0.727534,121.399933,28.646105,3.003254,-1.347200,-0.000001,2.570245,105.356705,-283.676086,12.000000,40.000000,0.000000,0.000000,-279.999847,-280.000000,107.688004,0.000000,0.000000,254.951614,114.285278,0.002649,-2.499834,-18.043545,0.000000
-0.572000,0.000000,-0.001000,0.000000,0.000000,0.000000,1.000000,1.000000,0,0,0,0,0,0,32.0141827139,34.8668660992,107.688004,-0.162506,-0.727534,121.399933,28.646099,3.003140,0.956645,0.000000,2.570143,105.348679,-283.684113,12.000000,40.000000,0.000000,0.000000,-279.999847,-280.000000,107.688004,0.000000,0.000000,254.951614,115.115921,0.002650,-2.499845,-18.031242,0.000000
-0.572000,0.000000,-0.001000,0.000000,0.000000,0.000000,1.000000,1.000000,0,0,0,0,0,0,32.0141827139,34.8668660992,107.688004,-0.162506,-0.727534,121.399933,28.646101,3.003026,0.143668,0.000000,2.570043,105.340645,-283.692139,12.000000,40.000000,0.000000,0.000000,-279.999847,-280.000000,107.688004,0.000000,0.000067,254.951614,115.905014,0.002650,-2.499855,-18.025764,0.000000
-0.572000,0.000000,-0.001000,0.000000,0.000000,0.000000,1.000000,1.000000,0,0,0,0,0,0,32.0141827139,34.8668660992,107.688004,-0.162505,-0.727534,121.399933,28.646101,3.002926,-0.145903,-0.000000,2.571035,105.333832,-283.698975,12.000000,40.000000,0.000000,0.000000,-279.999847,-280.000000,107.688004,0.000000,0.000000,254.951614,116.560066,0.002650,-2.499863,-12.022744,0.000000
-0.572000,0.000000,-0.001000,0.000000,0.000000,0.000000,1.000000,1.000000,0,0,0,0,0,0,32.0141827139,34.8668660992,107.688004,-0.162505,-0.727535,121.399933,28.646101,3.002805,-0.966886,-0.000000,2.569543,105.325035,-283.707764,12.000000,40.000000,0.000000,0.000000,-279.999847,-280.000000,107.688004,0.000000,0.000167,254.951614,117.309570,0.002649,-2.499872,-16.055731,0.000000
-0.572000,0.000000,-0.001000,0.000000,0.000000,0.000000,1.000000,1.000000,0,0,0,0,0,0,32.0141827139,34.8668660992,107.688004,-0.162505,-0.727535,121.399933,28.646103,3.002698,-0.451163,-0.000000,2.570222,105.317665,-283.715149,12.000000,40.000000,0.000000,0.000000,-279.999847,-280.000000,107.688004,0.000000,0.000067,254.951614,117.927902,0.002649,-2.499880,-13.644667,0.000000
-0.572000,0.000000,-0.001000,0.000000,0.000000,0.000000,1.000000,1.000000,0,0,0,0,0,0,32.0141827139,34.8668660992,107.688004,-0.162505,-0.727535,121.399933,28.646107,3.002591,-1.161772,-0.000001,2.570349,105.310181,-283.722626,12.000000,40.000000,0.000000,0.000000,-279.999847,-280.000000,107.688004,0.000000,0.000268,254.951614,118.504967,0.002649,-2.499887,-11.362732,0.000000
-0.572000,0.000000,-0.001000,0.000000,0.000000,0.000000,1.000000,1.000000,0,0,0,0,0,0,32.0141827139,34.8668660992,107.688004,-0.162505,-0.727535,121.399933,28.646103,3.002484,1.060131,0.000001,2.570316,105.302673,-283.730133,12.000000,40.000000,0.000000,0.000000,-279.999847,-280.000000,107.688004,0.000000,0.000000,254.951614,119.040009,0.002649,-2.499894,-7.495390,0.000000
-0.572000,0.000000,-0.001000,0.000000,0.000000,0.000000,1.000000,1.000000,0,0,0,0,0,0,32.0141827139,34.8668660992,107.688004,-0.162505,-0.727536,121.399933,28.646101,3.002148,-1.154727,-0.000000,2.557235,105.276764,-283.756042,12.000000,40.000000,0.000000,0.000000,-279.999847,-280.000000,107.688004,0.000000,0.000000,254.951614,120.438393,0.002650,-2.499913,-12.535270,0.000000
-0.572000,0.000000,-0.001000,0.000000,0.000000,0.000000,1.000000,1.000000,0,0,0,0,0,0,32.0141827139,34.8668660992,107.688004,-0.162504,-0.727536,121.399933,28.646101,3.002027,-1.351950,-0.000001,2.565858,105.269844,-283.762939,12.000000,40.000000,0.000000,0.000000,-279.999847,-280.000000,107.688004,0.000000,-0.000033,254.951614,120.839050,0.002651,-2.499919,-18.846283,0.000000
-0.572000,0.000000,-0.001000,0.000000,0.000000,0.000000,1.000000,1.000000,0,0,0,0,0,0,32.0141827139,34.8668660992,107.688004,-0.162504,-0.727536,121.399933,28.646105,3.001913,1.025812,0.000000,2.568250,105.262291,-283.770508,12.000000,40.000000,0.000000,0.000000,-279.999847,-280.000000,107.688004,0.000000,0.000067,254.951614,121.164940,0.002651,-2.499924,-16.470898,0.000000
-0.572000,0.000000,-0.001000,0.000000,0.000000,0.000000,1.000000,1.000000,0,0,0,0,0,0,32.0141827139,34.8668660992,107.688004,-0.162504,-0.727536,121.399933,28.646103,3.001799,-1.128425,-0.000000,2.568774,105.254387,-283.778412,12.000000,40.000000,0.000000,0.000000,-279.999847,-280.000000,107.688004,0.000000,-0.000067,254.951614,121.441345,0.002651,-2.499929,-16.170012,0.000000
-0.572000,0.000000,-0.001000,0.000000,0.000000,0.000000,1.000000,1.000000,0,0,0,0,0,0,32.0141827139,34.8668660992,107.688004,-0.162504,-0.727537,121.399933,28.646103,3.001678,0.845978,0.000000,2.568262,105.245796,-283.787018,12.000000,40.000000,0.000000,0.000000,-279.999847,-280.000000,107.688004,0.000000,-0.000134,254.951614,121.681183,0.002651,-2.499934,-17.964373,0.000000
-0.572000,0.000000,-0.001000,0.000000,0.000000,0.000000,1.000000,1.000000,0,0,0,0,0,0,32.0141827139,34.8668660992,107.688004,-0.162503,-0.727537,121.399933,28.646105,3.001371,1.194219,0.000001,2.557285,105.222305,-283.810486,12.000000,40.000000,0.000000,0.000000,-279.999847,-280.000000,107.688004,0.000000,0.000000,254.951614,122.044716,0.002651,-2.499945,-11.380672,0.000000
-0.572000,0.000000,-0.001000,0.000000,0.000000,0.000000,1.000000,1.000000,0,0,0,0,0,0,32.0141827139,34.8668660992,107.688004,-0.162503,-0.727537,121.399933,28.646103,3.001235,-1.162677,-0.000000,2.564599,105.214149,-283.818634,12.000000,40.000000,0.000000,0.000000,-279.999847,-280.000000,107.688004,0.000000,0.000000,254.951614,122.097351,0.002651,-2.499949,-11.867291,0.000000
-0.572000,0.000000,-0.001000,0.000000,0.000000,0.000000,1.000000,1.000000,0,0,0,0,0,0,32.0141827139,34.8668660992,107.688004,-0.162503,-0.727537,121.399933,28.646103,3.001122,-1.306238,-0.000000,2.567418,105.206680,-283.826111,12.000000,40.000000,0.000000,0.000000,-279.999847,-280.000000,107.688004,0.000000,0.000000,254.951614,122.092133,0.002651,-2.499952,-7.757952,0.000000
-0.572000,0.000000,-0.001000,0.000000,0.000000,0.000000,1.000000,1.000000,0,0,0,0,0,0,32.0141827139,34.8668660992,107.688004,-0.162503,-0.727538,121.399933,28.646103,3.001000,-0.905429,-0.000000,2.567501,105.198212,-283.834595,12.000000,40.000000,0.000000,0.000000,-279.999847,-280.000000,107.688004,0.000000,0.000000,254.951614,122.038391,0.002651,-2.499956,-11.502274,0.000000
-0.572000,0.000000,-0.001000,0.000000,0.000000,0.000000,1.000000,1.000000,0,0,0,0,0,0,32.0141827139,34.8668660992,107.688004,-0.162503,-0.727538,121.399933,28.646103,3.000886,-0.853019,-0.000000,2.567991,105.190315,-283.842499,12.000000,40.000000,0.000000,0.000000,-279.999847,-280.000000,107.688004,0.000000,0.000000,254.951614,121.943840,0.002651,-2.499959,-9.777721,0.000000
-0.572000,0.000000,-0.001000,0.000000,0.000000,0.000000,1.000000,1.000000,0,0,0,0,0,0,32.0141827139,34.8668660992,107.688004,-0.162502,-0.727538,121.399933,28.646103,3.000772,-0.432357,-0.000000,2.568043,105.182335,-283.850464,12.000000,40.000000,0.000000,0.000000,-279.999847,-280.000000,107.688004,0.000000,0.000000,254.951614,121.808144,0.002651,-2.499961,-9.681580,0.000000
-0.572000,0.000000,-0.001000,0.000000,0.000000,0.000000,1.000000,1.000000,0,0,0,0,0,0,32.0141827139,34.8668660992,107.688004,-0.162502,-0.727538,121.399933,28.646103,3.000659,-0.370235,-0.000000,2.567981,105.174339,-283.858459,12.000000,40.000000,0.000000,0.000000,-279.999847,-280.000000,107.688004,0.000000,0.000000,254.951614,121.632866,0.002651,-2.499964,-9.716548,0.000000
-0.572000,0.000000,-0.001000,0.000000,0.000000,0.000000,1.000000,1.000000,0,0,0,0,0,0,32.0141827139,34.8668660992,107.688004,-0.162502,-0.727538,121.399933,28.646105,3.000530,-0.293010,-0.000000,2.566740,105.165131,-283.867676,12.000000,40.000000,0.000000,0.000000,-279.999847,-280.000000,107.688004,0.000000,0.000033,254.951614,121.390419,0.002651,-2.499966,-14.647819,0.000000
-0.572000,0.000000,-0.001000,0.000000,0.000000,0.000000,1.000000,1.000000,0,0,0,0,0,0,32.0141827139,34.8668660992,107.688004,-0.162502,-0.727538,121.399933,28.646105,3.000409,-0.155977,-0.000000,2.566945,105.156685,-283.876099,12.000000,40.000000,0.000000,0.000000,-279.999847,-280.000000,107.688004,0.000000,0.000000,254.951614,121.119614,0.002651,-2.499969,-15.711271,0.000000
-0.572000,0.000000,-0.001000,0.000000,0.000000,0.000000,1.000000,1.000000,0,0,0,0,0,0,32.0141827139,34.8668660992,107.688004,-0.162500,-0.727541,121.399933,28.646103,3.000067,-0.777615,-0.000000,2.555275,105.130615,-283.902191,12.000000,40.000000,0.000000,0.000000,-279.999847,-280.000000,107.688004,0.000000,-0.000067,254.951614,120.155388,0.002650,-2.499974,-17.692926,0.000000
-0.572000,0.000000,-0.001000,0.000000,0.000000,0.000000,1.000000,1.000000,0,0,0,0,0,0,32.0141827139,34.8668660992,107.688004,-0.162500,-0.727542,121.399933,28.646103,2.999932,-0.735803,-0.000000,2.563305,105.122604,-283.910187,12.000000,40.000000,0.000000,0.000000,-279.999847,-280.000000,107.688004,0.000000,0.000000,254.951614,119.700867,0.002650,-2.499976,-17.054102,0.000000
-0.572000,0.000000,-0.001000,0.000000,0.000000,0.000000,1.000000,1.000000,0,0,0,0,0,0,32.0141827139,34.8668660992,107.688004,-0.162499,-0.727542,121.399933,28.646103,2.999619,-0.699038,-0.000000,2.555511,105.099251,-283.933533,12.000000,40.000000,0.000000,0.000000,-279.999847,-280.000000,107.688004,0.000000,0.000000,254.951614,118.515587,0.002650,-2.499980,-11.474944,0.000000
-0.572000,0.000000,-0.001000,0.000000,0.000000,0.000000,1.000000,1.000000,0,0,0,0,0,0,32.0141827139,34.8668660992,107.688004,-0.162499,-0.727542,121.399933,28.646103,2.999463,-0.439342,-0.000000,2.561831,105.089447,-283.943359,12.000000,40.000000,0.000000,0.000000,-279.999847,-280.000000,107.688004,0.000000,-0.000067,254.951614,117.864182,0.002650,-2.499982,-6.348845,0.000000
