aileron,elevator,rudder,flaps,slats,speedbrake,throttle,throttle,engine-pump,engine-pump,electric-pump,electric-pump,external-power,APU-generator,latitude-deg,longitude-deg,altitude-ft,roll-deg,pitch-deg,heading-deg,side-slip-deg,airspeed-kt,glideslope,vertical-speed-fps,airspeed-indicator_indicated-speed-kt,altimeter_indicated-altitude-ft,altimeter_pressure-alt-ft,attitude-indicator_indicated-pitch-deg,attitude-indicator_indicated-roll-deg,attitude-indicator_internal-pitch-deg,attitude-indicator_internal-roll-deg,encoder_indicated-altitude-ft,encoder_pressure-alt-ft,gps_indicated-altitude-ft,gps_indicated-ground-speed-kt,gps_indicated-vertical-speed,indicated-heading-deg,magnetic-compass_indicated-heading-deg,slip-skid-ball_indicated-slip-skid,turn-indicator_indicated-turn-rate,vertical-speed-indicator_indicated-speed-fpm,engine_rpm
0.000000,0.000000,0.000000,1.000000,0.000000,0.000000,0.000000,0.000000,0,0,0,0,0,0,32.0177231700,34.8926918800,-9999.000000,0.000000,0.424000,260.000000,0.000000,0.000000,0.000000,0.000000,0.000000,0.000000,0.000000,0.000000,0.000000,0.000000,0.000000,0.000000,0.000000,0.000000,0.000000,0.000000,0.000000,0.000000,0.000000,0.000000,0.000000,0.000000
0.000000,0.000000,0.000000,1.000000,0.000000,0.000000,0.000000,0.000000,0,0,0,0,0,0,32.0177231700,34.8926918800,-9999.000000,0.000000,0.424000,260.000000,0.000000,0.000000,0.000000,0.000000,0.000000,390.226257,1.193444,12.000000,40.000000,0.000000,0.000000,0.000000,0.000000,0.000000,0.000000,0.000000,254.951645,0.000000,0.000000,0.000000,0.000000,0.000000
0.000000,0.000000,0.000000,1.000000,0.000000,0.000000,0.000000,0.000000,0,0,0,0,0,0,32.0141825072,34.8668671716,-9999.000000,0.000000,0.424000,121.400002,0.000000,0.000000,0.000000,0.000000,0.000000,390.226257,1.193444,12.000000,40.000000,0.000000,0.000000,0.000000,0.000000,0.000000,0.000000,0.000000,254.951645,0.000000,0.000000,0.000000,0.000000,0.000000
0.000000,0.000000,0.000000,1.000000,0.000000,0.000000,0.000000,0.000000,0,0,0,0,0,0,32.0141825072,34.8668671716,-9999.000000,0.000000,0.424000,121.400002,0.000000,0.000000,0.000000,0.000000,0.000000,390.226257,1.193444,12.000000,40.000000,0.000000,0.000000,0.000000,0.000000,0.000000,0.000000,0.000000,254.951645,0.000000,0.000000,0.000000,0.000000,0.000000
0.000000,0.000000,0.000000,1.000000,0.000000,0.000000,0.000000,0.000000,0,0,0,0,0,0,32.0141825072,34.8668671716,-9999.000000,0.000000,0.424000,121.400002,0.000000,0.000000,0.000000,0.000000,0.000000,390.226257,1.193444,12.000000,40.000000,0.000000,0.000000,0.000000,0.000000,0.000000,0.000000,0.000000,254.951645,0.000000,0.000000,0.000000,0.000000,0.000000
0.000000,0.000000,0.000000,1.000000,0.000000,0.000000,0.000000,0.000000,0,0,0,0,0,0,32.0141825072,34.8668671716,-9999.000000,0.000000,0.424000,121.400002,0.000000,0.000000,0.000000,0.000000,0.000000,390.226257,1.193444,12.000000,40.000000,0.000000,0.000000,0.000000,0.000000,0.000000,0.000000,0.000000,254.951645,0.000000,0.000000,0.000000,0.000000,0.000000
0.000000,0.000000,0.000000,1.000000,0.000000,0.000000,0.000000,0.000000,0,0,0,0,0,0,32.0141825072,34.8668671716,-9999.000000,0.000000,0.424000,121.400002,0.000000,0.000000,0.000000,0.000000,0.000000,390.226257,1.193444,12.000000,40.000000,0.000000,0.000000,0.000000,0.000000,0.000000,0.000000,0.000000,254.951645,0.000000,0.000000,0.000000,0.000000,0.000000
0.000000,0.000000,0.000000,1.000000,0.000000,0.000000,0.000000,0.000000,0,0,0,0,0,0,32.0141825072,34.8668671716,-9999.000000,0.000000,0.424000,121.400002,0.000000,0.000000,0.000000,0.000000,0.000000,390.226257,1.193444,12.000000,40.000000,0.000000,0.000000,0.000000,0.000000,0.000000,0.000000,0.000000,254.951645,0.000000,0.000000,0.000000,0.000000,0.000000
0.000000,0.000000,0.000000,1.000000,0.000000,0.000000,0.000000,0.000000,0,0,0,0,0,0,32.0141825072,34.8668671716,-9999.000000,0.000000,0.424000,121.400002,0.000000,0.000000,0.000000,0.000000,0.000000,390.226257,1.193444,12.000000,40.000000,0.000000,0.000000,0.000000,0.000000,0.000000,0.000000,0.000000,254.951645,0.000000,0.000000,0.000000,0.000000,0.000000
0.000000,0.000000,0.000000,1.000000,0.000000,0.000000,0.000000,0.000000,0,0,0,0,0,0,32.0141825072,34.8668671716,-9999.000000,0.000000,0.424000,121.400002,0.000000,0.000000,0.000000,0.000000,0.000000,390.226257,1.193444,12.000000,40.000000,0.000000,0.000000,0.000000,0.000000,0.000000,0.000000,0.000000,254.951645,0.000000,0.000000,0.000000,0.000000,0.000000
0.000000,0.000000,0.000000,1.000000,0.000000,0.000000,0.000000,0.000000,0,0,0,0,0,0,32.0141825072,34.8668671716,-9999.000000,0.000000,0.424000,121.400002,0.000000,0.000000,0.000000,0.000000,0.000000,390.226257,1.193444,12.000000,40.000000,0.000000,0.000000,0.000000,0.000000,0.000000,0.000000,0.000000,254.951645,0.000000,0.000000,0.000000,0.000000,0.000000
0.000000,0.000000,0.000000,1.000000,0.000000,0.000000,0.000000,0.000000,0,0,0,0,0,0,32.0141825072,34.8668671716,-9999.000000,0.000000,0.424000,121.400002,0.000000,0.000000,0.000000,0.000000,0.000000,390.226257,1.193444,12.000000,40.000000,0.000000,0.000000,0.000000,0.000000,0.000000,0.000000,0.000000,254.951645,0.000000,0.000000,0.000000,0.000000,0.000000
0.000000,0.000000,0.000000,1.000000,0.000000,0.000000,0.000000,0.000000,0,0,0,0,0,0,32.0141825072,34.8668671716,-9999.000000,0.000000,0.424000,121.400002,0.000000,0.000000,0.000000,0.000000,0.000000,390.226257,1.193444,12.000000,40.000000,0.000000,0.000000,0.000000,0.000000,0.000000,0.000000,0.000000,254.951645,0.000000,0.000000,0.000000,0.000000,0.000000
0.000000,0.000000,0.000000,1.000000,0.000000,0.000000,0.000000,0.000000,0,0,0,0,0,0,32.0141825072,34.8668671716,-9999.000000,0.000000,0.424000,121.400002,0.000000,0.000000,0.000000,0.000000,0.000000,390.226257,1.193444,12.000000,40.000000,0.000000,0.000000,0.000000,0.000000,0.000000,0.000000,0.000000,254.951645,0.000000,0.000000,0.000000,0.000000,0.000000
0.000000,0.000000,0.000000,1.000000,0.000000,0.000000,0.000000,0.000000,0,0,0,0,0,0,32.0141825072,34.8668671716,-9999.000000,0.000000,0.424000,121.400002,0.000000,0.000000,0.000000,0.000000,0.000000,390.226257,1.193444,12.000000,40.000000,0.000000,0.000000,0.000000,0.000000,0.000000,0.000000,0.000000,254.951645,0.000000,0.000000,0.000000,0.000000,0.000000
0.000000,0.000000,0.000000,1.000000,0.000000,0.000000,0.000000,0.000000,0,0,0,0,0,0,32.0141825072,34.8668671716,-9999.000000,0.000000,0.424000,121.400002,0.000000,0.000000,0.000000,0.000000,0.000000,390.226257,1.193444,12.000000,40.000000,0.000000,0.000000,0.000000,0.000000,0.000000,0.000000,0.000000,254.951645,0.000000,0.000000,0.000000,0.000000,0.000000
0.000000,0.000000,0.000000,1.000000,0.000000,0.000000,0.000000,0.000000,0,0,0,0,0,0,32.0141825072,34.8668671716,-9999.000000,0.000000,0.424000,121.400002,0.000000,0.000000,0.000000,0.000000,0.000000,390.226257,1.193444,12.000000,40.000000,0.000000,0.000000,0.000000,0.000000,0.000000,0.000000,0.000000,254.951645,0.000000,0.000000,0.000000,0.000000,0.000000
0.000000,0.000000,0.000000,1.000000,0.000000,0.000000,0.000000,0.000000,0,0,0,0,0,0,32.0141825072,34.8668671716,-9999.000000,0.000000,0.424000,121.400002,0.000000,0.000000,0.000000,0.000000,0.000000,390.226257,1.193444,12.000000,40.000000,0.000000,0.000000,0.000000,0.000000,0.000000,0.000000,0.000000,254.951645,0.000000,0.000000,0.000000,0.000000,0.000000
0.000000,0.000000,0.000000,1.000000,0.000000,0.000000,0.000000,0.000000,0,0,0,0,0,0,32.0141825072,34.8668671716,-9999.000000,0.000000,0.424000,121.400002,0.000000,0.000000,0.000000,0.000000,0.000000,390.226257,1.193444,12.000000,40.000000,0.000000,0.000000,0.000000,0.000000,0.000000,0.000000,0.000000,254.951645,0.000000,0.000000,0.000000,0.000000,0.000000
0.000000,0.000000,0.000000,1.000000,0.000000,0.000000,0.000000,0.000000,0,0,0,0,0,0,32.0141825072,34.8668671716,-9999.000000,0.000000,0.424000,121.400002,0.000000,0.000000,0.000000,0.000000,0.000000,390.226257,1.193444,12.000000,40.000000,0.000000,0.000000,0.000000,0.000000,0.000000,0.000000,0.000000,254.951645,0.000000,0.000000,0.000000,0.000000,0.000000
0.000000,0.000000,0.000000,1.000000,0.000000,0.000000,0.000000,0.000000,0,0,0,0,0,0,32.0141825072,34.8668671716,-9999.000000,0.000000,0.424000,121.400002,0.000000,0.000000,0.000000,0.000000,0.000000,390.226257,1.193444,12.000000,40.000000,0.000000,0.000000,0.000000,0.000000,0.000000,0.000000,0.000000,254.951645,0.000000,0.000000,0.000000,0.000000,0.000000
0.000000,0.000000,0.000000,1.000000,0.000000,0.000000,0.000000,0.000000,0,0,0,0,0,0,32.0141825072,34.8668671716,-9999.000000,0.000000,0.424000,121.400002,0.000000,0.000000,0.000000,0.000000,0.000000,390.226257,1.193444,12.000000,40.000000,0.000000,0.000000,0.000000,0.000000,0.000000,0.000000,0.000000,254.951645,0.000000,0.000000,0.000000,0.000000,0.000000
0.000000,0.000000,0.000000,1.000000,0.000000,0.000000,0.000000,0.000000,0,0,0,0,0,0,32.0141825072,34.8668671716,-9999.000000,0.000000,0.424000,121.400002,0.000000,0.000000,0.000000,0.000000,0.000000,390.226257,1.193444,12.000000,40.000000,0.000000,0.000000,0.000000,0.000000,0.000000,0.000000,0.000000,254.951645,0.000000,0.000000,0.000000,0.000000,0.000000
0.000000,0.000000,0.000000,1.000000,0.000000,0.000000,0.000000,0.000000,0,0,0,0,0,0,32.0141825072,34.8668671716,-9999.000000,0.000000,0.424000,121.400002,0.000000,0.000000,0.000000,0.000000,0.000000,390.226257,1.193444,12.000000,40.000000,0.000000,0.000000,0.000000,0.000000,0.000000,0.000000,0.000000,254.951645,0.000000,0.000000,0.000000,0.000000,0.000000
0.000000,0.000000,0.000000,1.000000,0.000000,0.000000,0.000000,0.000000,0,0,0,0,0,0,32.0141825072,34.8668671716,-9999.000000,0.000000,0.424000,121.400002,0.000000,0.000000,0.000000,0.000000,0.000000,390.226257,1.193444,12.000000,40.000000,0.000000,0.000000,0.000000,0.000000,0.000000,0.000000,0.000000,254.951645,0.000000,0.000000,0.000000,0.000000,0.000000
0.000000,0.000000,0.000000,1.000000,0.000000,0.000000,0.000000,0.000000,0,0,0,0,0,0,32.0141825072,34.8668671716,-9999.000000,0.000000,0.424000,121.400002,0.000000,0.000000,0.000000,0.000000,0.000000,390.226257,1.193444,12.000000,40.000000,0.000000,0.000000,0.000000,0.000000,0.000000,0.000000,0.000000,254.951645,0.000000,0.000000,0.000000,0.000000,0.000000
0.000000,0.000000,0.000000,1.000000,0.000000,0.000000,0.000000,0.000000,0,0,0,0,0,0,32.0141825072,34.8668671716,-9999.000000,0.000000,0.424000,121.400002,0.000000,0.000000,0.000000,0.000000,0.000000,390.226257,1.193444,12.000000,40.000000,0.000000,0.000000,0.000000,0.000000,0.000000,0.000000,0.000000,254.951645,0.000000,0.000000,0.000000,0.000000,0.000000
0.000000,0.000000,0.000000,1.000000,0.000000,0.000000,0.000000,0.000000,0,0,0,0,0,0,32.0141825072,34.8668671716,-9999.000000,0.000000,0.424000,121.400002,0.000000,0.000000,0.000000,0.000000,0.000000,390.226257,1.193444,12.000000,40.000000,0.000000,0.000000,0.000000,0.000000,0.000000,0.000000,0.000000,254.951645,0.000000,0.000000,0.000000,0.000000,0.000000
0.000000,0.000000,0.000000,1.000000,0.000000,0.000000,0.000000,0.000000,0,0,0,0,0,0,32.0141825072,34.8668671716,-9999.000000,0.000000,0.424000,121.400002,0.000000,0.000000,0.000000,0.000000,0.000000,390.226257,1.193444,12.000000,40.000000,0.000000,0.000000,0.000000,0.000000,0.000000,0.000000,0.000000,254.951645,0.000000,0.000000,0.000000,0.000000,0.000000
0.000000,0.000000,0.000000,1.000000,0.000000,0.000000,0.000000,0.000000,0,0,0,0,0,0,32.0141825072,34.8668671716,-9999.000000,0.000000,0.424000,121.400002,0.000000,0.000000,0.000000,0.000000,0.000000,390.226257,1.193444,12.000000,40.000000,0.000000,0.000000,0.000000,0.000000,0.000000,0.000000,0.000000,254.951645,0.000000,0.000000,0.000000,0.000000,0.000000
0.000000,0.000000,0.000000,1.000000,0.000000,0.000000,0.000000,0.000000,0,0,0,0,0,0,32.0141825072,34.8668671716,-9999.000000,0.000000,0.424000,121.400002,0.000000,0.000000,0.000000,0.000000,0.000000,390.226257,1.193444,12.000000,40.000000,0.000000,0.000000,0.000000,0.000000,0.000000,0.000000,0.000000,254.951645,0.000000,0.000000,0.000000,0.000000,0.000000
0.000000,0.000000,0.000000,1.000000,0.000000,0.000000,0.000000,0.000000,0,0,0,0,0,0,32.0141825072,34.8668671716,-9999.000000,0.000000,0.424000,121.400002,0.000000,0.000000,0.000000,0.000000,0.000000,390.226257,1.193444,12.000000,40.000000,0.000000,0.000000,0.000000,0.000000,0.000000,0.000000,0.000000,254.951645,0.000000,0.000000,0.000000,0.000000,0.000000
0.000000,0.000000,0.000000,1.000000,0.000000,0.000000,0.000000,0.000000,0,0,0,0,0,0,32.0141825072,34.8668671716,-9999.000000,0.000000,0.424000,121.400002,0.000000,0.000000,0.000000,0.000000,0.000000,390.226257,1.193444,12.000000,40.000000,0.000000,0.000000,0.000000,0.000000,0.000000,0.000000,0.000000,254.951645,0.000000,0.000000,0.000000,0.000000,0.000000
0.000000,0.000000,0.000000,1.000000,0.000000,0.000000,0.000000,0.000000,0,0,0,0,0,0,32.0141825072,34.8668671716,-9999.000000,0.000000,0.424000,121.400002,0.000000,0.000000,0.000000,0.000000,0.000000,390.226257,1.193444,12.000000,40.000000,0.000000,0.000000,0.000000,0.000000,0.000000,0.000000,0.000000,254.951645,0.000000,0.000000,0.000000,0.000000,0.000000
0.000000,0.000000,0.000000,1.000000,0.000000,0.000000,0.000000,0.000000,0,0,0,0,0,0,32.0141825072,34.8668671716,-9999.000000,0.000000,0.424000,121.400002,0.000000,0.000000,0.000000,0.000000,0.000000,390.226257,1.193444,12.000000,40.000000,0.000000,0.000000,0.000000,0.000000,0.000000,0.000000,0.000000,254.951645,0.000000,0.000000,0.000000,0.000000,0.000000
0.000000,0.000000,0.000000,1.000000,0.000000,0.000000,0.000000,0.000000,0,0,0,0,0,0,32.0141825072,34.8668671716,-9999.000000,0.000000,0.424000,121.400002,0.000000,0.000000,0.000000,0.000000,0.000000,390.226257,1.193444,12.000000,40.000000,0.000000,0.000000,0.000000,0.000000,0.000000,0.000000,0.000000,254.951645,0.000000,0.000000,0.000000,0.000000,0.000000
0.000000,0.000000,0.000000,1.000000,0.000000,0.000000,0.000000,0.000000,0,0,0,0,0,0,32.0141825072,34.8668671716,-9999.000000,0.000000,0.424000,121.400002,0.000000,0.000000,0.000000,0.000000,0.000000,390.226257,1.193444,12.000000,40.000000,0.000000,0.000000,0.000000,0.000000,0.000000,0.000000,0.000000,254.951645,0.000000,0.000000,0.000000,0.000000,0.000000
0.000000,0.000000,0.000000,1.000000,0.000000,0.000000,0.000000,0.000000,0,0,0,0,0,0,32.0141825072,34.8668671716,-9999.000000,0.000000,0.424000,121.400002,0.000000,0.000000,0.000000,0.000000,0.000000,390.226257,1.193444,12.000000,40.000000,0.000000,0.000000,0.000000,0.000000,0.000000,0.000000,0.000000,254.951645,0.000000,0.000000,0.000000,0.000000,0.000000
0.000000,0.000000,0.000000,1.000000,0.000000,0.000000,0.000000,0.000000,0,0,0,0,0,0,32.0141825072,34.8668671716,-9999.000000,0.000000,0.424000,121.400002,0.000000,0.000000,0.000000,0.000000,0.000000,390.226257,1.193444,12.000000,40.000000,0.000000,0.000000,0.000000,0.000000,0.000000,0.000000,0.000000,254.951645,0.000000,0.000000,0.000000,0.000000,0.000000
0.000000,0.000000,0.000000,1.000000,0.000000,0.000000,0.000000,0.000000,0,0,0,0,0,0,32.0141825072,34.8668671716,-9999.000000,0.000000,0.424000,121.400002,0.000000,0.000000,0.000000,0.000000,0.000000,390.226257,1.193444,12.000000,40.000000,0.000000,0.000000,0.000000,0.000000,0.000000,0.000000,0.000000,254.951645,0.000000,0.000000,0.000000,0.000000,0.000000
0.000000,0.000000,0.000000,1.000000,0.000000,0.000000,0.000000,0.000000,0,0,0,0,0,0,32.0141825072,34.8668671716,-9999.000000,0.000000,0.424000,121.400002,0.000000,0.000000,0.000000,0.000000,0.000000,390.226257,1.193444,12.000000,40.000000,0.000000,0.000000,0.000000,0.000000,0.000000,0.000000,0.000000,254.951645,0.000000,0.000000,0.000000,0.000000,0.000000
0.000000,0.000000,0.000000,1.000000,0.000000,0.000000,0.000000,0.000000,0,0,0,0,0,0,32.0141825072,34.8668671716,-9999.000000,0.000000,0.424000,121.400002,0.000000,0.000000,0.000000,0.000000,0.000000,390.226257,1.193444,12.000000,40.000000,0.000000,0.000000,0.000000,0.000000,0.000000,0.000000,0.000000,254.951645,0.000000,0.000000,0.000000,0.000000,0.000000
0.000000,0.000000,0.000000,1.000000,0.000000,0.000000,0.000000,0.000000,0,0,0,0,0,0,32.0141825072,34.8668671716,-9999.000000,0.000000,0.424000,121.400002,0.000000,0.000000,0.000000,0.000000,0.000000,390.226257,1.193444,12.000000,40.000000,0.000000,0.000000,0.000000,0.000000,0.000000,0.000000,0.000000,254.951645,0.000000,0.000000,0.000000,0.000000,0.000000
0.000000,0.000000,0.000000,1.000000,0.000000,0.000000,0.000000,0.000000,0,0,0,0,0,0,32.0141825072,34.8668671716,-9999.000000,0.000000,0.424000,121.400002,0.000000,0.000000,0.000000,0.000000,0.000000,390.226257,1.193444,12.000000,40.000000,0.000000,0.000000,0.000000,0.000000,0.000000,0.000000,0.000000,254.951645,0.000000,0.000000,0.000000,0.000000,0.000000
0.000000,0.000000,0.000000,1.000000,0.000000,0.000000,0.000000,0.000000,0,0,0,0,0,0,32.0141825072,34.8668671716,-9999.000000,0.000000,0.424000,121.400002,0.000000,0.000000,0.000000,0.000000,0.000000,390.226257,1.193444,12.000000,40.000000,0.000000,0.000000,0.000000,0.000000,0.000000,0.000000,0.000000,254.951645,0.000000,0.000000,0.000000,0.000000,0.000000
0.000000,0.000000,0.000000,1.000000,0.000000,0.000000,0.000000,0.000000,0,0,0,0,0,0,32.0141825072,34.8668671716,-9999.000000,0.000000,0.424000,121.400002,0.000000,0.000000,0.000000,0.000000,0.000000,390.226257,1.193444,12.000000,40.000000,0.000000,0.000000,0.000000,0.000000,0.000000,0.000000,0.000000,254.951645,0.000000,0.000000,0.000000,0.000000,0.000000
0.000000,0.000000,0.000000,1.000000,0.000000,0.000000,0.000000,0.000000,0,0,0,0,0,0,32.0141825072,34.8668671716,-9999.000000,0.000000,0.424000,121.400002,0.000000,0.000000,0.000000,0.000000,0.000000,390.226257,1.193444,12.000000,40.000000,0.000000,0.000000,0.000000,0.000000,0.000000,0.000000,0.000000,254.951645,0.000000,0.000000,0.000000,0.000000,0.000000
0.000000,0.000000,0.000000,1.000000,0.000000,0.000000,0.000000,0.000000,0,0,0,0,0,0,32.0141825072,34.8668671716,-9999.000000,0.000000,0.424000,121.400002,0.000000,0.000000,0.000000,0.000000,0.000000,390.226257,1.193444,12.000000,40.000000,0.000000,0.000000,0.000000,0.000000,0.000000,0.000000,0.000000,254.951645,0.000000,0.000000,0.000000,0.000000,0.000000
0.000000,0.000000,0.000000,1.000000,0.000000,0.000000,0.000000,0.000000,0,0,0,0,0,0,32.0141825072,34.8668671716,-9999.000000,0.000000,0.424000,121.400002,0.000000,0.000000,0.000000,0.000000,0.000000,390.226257,1.193444,12.000000,40.000000,0.000000,0.000000,0.000000,0.000000,0.000000,0.000000,0.000000,254.951645,0.000000,0.000000,0.000000,0.000000,0.000000
0.000000,0.000000,0.000000,1.000000,0.000000,0.000000,0.000000,0.000000,0,0,0,0,0,0,32.0141825072,34.8668671716,-9999.000000,0.000000,0.424000,121.400002,0.000000,0.000000,0.000000,0.000000,0.000000,390.226257,1.193444,12.000000,40.000000,0.000000,0.000000,0.000000,0.000000,0.000000,0.000000,0.000000,254.951645,0.000000,0.000000,0.000000,0.000000,0.000000
0.000000,0.000000,0.000000,1.000000,0.000000,0.000000,0.000000,0.000000,0,0,0,0,0,0,32.0141825072,34.8668671716,-9999.000000,0.000000,0.424000,121.400002,0.000000,0.000000,0.000000,0.000000,0.000000,390.226257,1.193444,12.000000,40.000000,0.000000,0.000000,0.000000,0.000000,0.000000,0.000000,0.000000,254.951645,0.000000,0.000000,0.000000,0.000000,0.000000
0.000000,0.000000,0.000000,1.000000,0.000000,0.000000,0.000000,0.000000,0,0,0,0,0,0,32.0141825072,34.8668671716,-9999.000000,0.000000,0.424000,121.400002,0.000000,0.000000,0.000000,0.000000,0.000000,390.226257,1.193444,12.000000,40.000000,0.000000,0.000000,0.000000,0.000000,0.000000,0.000000,0.000000,254.951645,0.000000,0.000000,0.000000,0.000000,0.000000
0.000000,0.000000,0.000000,1.000000,0.000000,0.000000,0.000000,0.000000,0,0,0,0,0,0,32.0141825072,34.8668671716,-9999.000000,0.000000,0.424000,121.400002,0.000000,0.000000,0.000000,0.000000,0.000000,390.226257,1.193444,12.000000,40.000000,0.000000,0.000000,0.000000,0.000000,0.000000,0.000000,0.000000,254.951645,0.000000,0.000000,0.000000,0.000000,0.000000
0.000000,0.000000,0.000000,1.000000,0.000000,0.000000,0.000000,0.000000,0,0,0,0,0,0,32.0141825072,34.8668671716,-9999.000000,0.000000,0.424000,121.400002,0.000000,0.000000,0.000000,0.000000,0.000000,390.226257,1.193444,12.000000,40.000000,0.000000,0.000000,0.000000,0.000000,0.000000,0.000000,0.000000,254.951645,0.000000,0.000000,0.000000,0.000000,0.000000
0.000000,0.000000,0.000000,1.000000,0.000000,0.000000,0.000000,0.000000,0,0,0,0,0,0,32.0141825072,34.8668671716,-9999.000000,0.000000,0.424000,121.400002,0.000000,0.000000,0.000000,0.000000,0.000000,390.226257,1.193444,12.000000,40.000000,0.000000,0.000000,0.000000,0.000000,0.000000,0.000000,0.000000,254.951645,0.000000,0.000000,0.000000,0.000000,0.000000
0.000000,0.000000,0.000000,1.000000,0.000000,0.000000,0.000000,0.000000,0,0,0,0,0,0,32.0141825072,34.8668671716,-9999.000000,0.000000,0.424000,121.400002,0.000000,0.000000,0.000000,0.000000,0.000000,390.226257,1.193444,12.000000,40.000000,0.000000,0.000000,0.000000,0.000000,0.000000,0.000000,0.000000,254.951645,0.000000,0.000000,0.000000,0.000000,0.000000
0.000000,0.000000,0.000000,0.000000,0.000000,0.000000,0.000000,0.000000,0,0,0,0,0,0,32.0141827131,34.8668660992,107.687912,-0.159268,-0.729272,121.399879,0.000000,0.000000,0.000000,0.000000,0.000000,390.226257,1.193444,12.000000,40.000000,0.000000,0.000000,0.000000,0.000000,0.000000,0.000000,0.000000,254.951645,0.000000,0.000000,0.000000,0.000000,0.000000
0.000000,0.000000,0.000000,0.000000,0.000000,0.000000,0.000000,0.000000,0,0,0,0,0,0,32.0141827140,34.8668661024,107.687698,-0.168711,-0.737100,121.400063,31.309732,3.016499,-0.836149,-0.000044,0.000000,500.325531,111.292717,12.000000,40.000000,0.000000,0.000000,110.000145,110.000000,107.687698,0.000007,-0.002746,254.951614,10.175203,0.002483,-0.985256,2747.019531,0.000000
0.000000,0.000000,0.000000,0.000000,0.000000,0.000000,0.000000,0.000000,0,0,0,0,0,0,32.0141827141,34.8668661019,107.687737,-0.168402,-0.735368,121.400055,37.493694,2.737261,0.826880,0.000009,0.000000,471.954346,82.921539,12.000000,40.000000,0.000000,0.000000,80.000145,80.000000,107.687737,0.000006,0.000603,254.951614,36.224037,0.003245,-1.582221,848.530151,0.000000
0.000000,0.000000,0.000000,0.000000,0.000000,0.000000,0.000000,0.000000,0,0,0,0,0,0,32.0141827143,34.8668661015,107.687782,-0.168205,-0.733733,121.400047,44.975079,2.496702,0.856596,0.000009,0.000000,443.579163,54.546349,12.000000,40.000000,0.000000,0.000000,50.000141,50.000000,107.687782,0.000005,0.000536,254.951614,70.620522,0.003499,-1.943920,-730.909180,0.000000
0.000000,0.000000,0.000000,0.000000,0.000000,0.000000,0.000000,0.000000,0,0,0,0,0,0,32.0141827144,34.8668661013,107.687805,-0.168177,-0.732981,121.400047,49.615654,2.386815,0.859056,0.000022,0.863607,428.262115,39.229309,12.000000,40.000000,0.000000,0.000000,40.000141,40.000000,107.687805,0.000004,0.001038,254.951614,89.993256,0.003560,-2.076093,-1047.384766,0.000000
0.000000,0.000000,0.000000,0.000000,0.000000,0.000000,0.000000,0.000000,0,0,0,0,0,0,32.0141827145,34.8668661012,107.687813,-0.168205,-0.732472,121.400047,53.308189,2.316509,0.698951,0.000030,1.980644,417.033234,28.000431,12.000000,40.000000,0.000000,0.000000,30.000143,30.000000,107.687813,0.000004,0.001540,254.951614,103.770432,0.003589,-2.153080,-1194.671753,0.000000
0.000000,0.000000,0.000000,0.000000,0.000000,0.000000,0.000000,0.000000,0,0,0,0,0,0,32.0141827145,34.8668661012,107.687820,-0.168219,-0.732341,121.400047,54.829601,2.291451,0.435212,0.000030,4.780030,413.258972,24.226160,12.000000,40.000000,0.000000,0.000000,30.000143,30.000000,107.687820,0.000004,0.001909,254.951614,108.999245,0.003597,-2.179538,-1220.598877,0.000000
0.000000,0.000000,0.000000,0.000000,0.000000,0.000000,0.000000,0.000000,0,0,0,0,0,0,32.0141827145,34.8668661011,107.687820,-0.168240,-0.732201,121.400047,56.136314,2.271623,0.410851,0.000034,5.466150,409.744354,20.711552,12.000000,40.000000,0.000000,0.000000,20.000143,20.000000,107.687820,0.000004,0.001741,254.951614,113.278709,0.003602,-2.200248,-1256.382446,0.000000
0.000000,0.000000,0.000000,0.000000,0.000000,0.000000,0.000000,0.000000,0,0,0,0,0,0,32.0141827145,34.8668661011,107.687828,-0.168266,-0.732058,121.400047,57.381756,2.254123,0.403481,0.000036,5.731751,406.311829,17.279039,12.000000,40.000000,0.000000,0.000000,20.000143,20.000000,107.687828,0.000003,0.002009,254.951614,117.176537,0.003605,-2.218445,-1292.335205,0.000000
0.000000,0.000000,0.000000,0.000000,0.000000,0.000000,0.000000,0.000000,0,0,0,0,0,0,32.0141827146,34.8668661010,107.687843,-0.168410,-0.731522,121.400047,61.054970,2.210022,0.632371,0.000033,2.531657,395.138519,6.105714,12.000000,40.000000,0.000000,0.000000,10.000142,10.000000,107.687843,0.000003,0.002143,254.951614,127.655663,0.003635,-2.264718,-1400.485107,0.000000
0.000000,0.000000,0.000000,0.000000,0.000000,0.000000,0.000000,0.000000,0,0,0,0,0,0,32.0141827149,34.8668661008,107.687881,-0.169137,-0.730255,121.400055,71.920845,2.138193,0.690194,0.000007,0.000000,367.548462,-21.484348,12.000000,40.000000,0.000000,0.000000,-19.999857,-20.000000,107.687881,0.000003,0.000402,254.951614,150.244019,0.003725,-2.357443,-1335.200684,0.000000
0.000000,0.000000,0.000000,0.000000,0.000000,0.000000,0.000000,0.000000,0,0,0,0,0,0,32.0141827153,34.8668661007,107.687912,-0.170474,-0.729091,121.400078,83.113556,2.146822,0.783905,0.000007,0.000000,340.502289,-48.530521,12.000000,40.000000,0.000000,0.000000,-49.999859,-50.000000,107.687912,0.000002,0.000469,254.951614,161.467163,0.003886,-2.413625,-1290.481934,0.000000
0.000000,0.000000,0.000000,0.000000,0.000000,0.000000,0.000000,0.000000,0,0,0,0,0,0,32.0141827156,34.8668661007,107.687920,-0.171327,-0.728604,121.400093,88.210518,2.178456,0.508778,0.000018,1.308592,327.976471,-61.056316,12.000000,40.000000,0.000000,0.000000,-59.999859,-60.000000,107.687920,0.000002,0.001239,254.951614,162.749176,0.003948,-2.431634,-1356.047485,0.000000
0.000000,0.000000,0.000000,0.000000,0.000000,0.000000,0.000000,0.000000,0,0,0,0,0,0,32.0141827137,34.8668660995,107.687958,-0.162227,-0.729086,121.399933,81.535240,2.301240,0.764817,0.000003,0.000000,300.834167,-88.198647,12.000000,40.000000,0.000000,0.000000,-89.999855,-90.000000,107.687958,0.000002,0.000268,254.951614,158.001312,0.003364,-2.458577,-1303.866455,0.000000
0.000000,0.000000,0.000000,0.000000,0.000000,0.000000,0.000000,0.000000,0,0,0,0,0,0,32.0141827137,34.8668660995,107.687958,-0.162237,-0.729052,121.399933,79.867538,2.329789,0.207802,0.000003,4.473368,296.861725,-92.171089,12.000000,40.000000,0.000000,0.000000,-89.999855,-90.000000,107.687958,0.000002,0.000100,254.951614,156.273148,0.003242,-2.462054,-1314.547485,0.000000
0.000000,0.000000,0.000000,0.000000,0.000000,0.000000,0.000000,0.000000,0,0,0,0,0,0,32.0141827137,34.8668660995,107.687958,-0.162252,-0.729018,121.399933,78.624680,2.352842,0.189203,0.000004,5.375977,293.579529,-95.453285,12.000000,40.000000,0.000000,0.000000,-89.999855,-90.000000,107.687958,0.000002,-0.000134,254.951614,154.806381,0.003160,-2.464507,-1334.998779,0.000000
0.000000,0.000000,0.000000,0.000000,0.000000,0.000000,0.000000,0.000000,0,0,0,0,0,0,32.0141827137,34.8668660995,107.687958,-0.162270,-0.728985,121.399933,77.557304,2.373906,0.129930,0.000003,5.785507,290.592926,-98.439880,12.000000,40.000000,0.000000,0.000000,-99.999855,-100.000000,107.687958,0.000001,0.000402,254.951614,153.423920,0.003091,-2.466522,-1356.727661,0.000000
0.000000,0.000000,0.000000,0.000000,0.000000,0.000000,0.000000,0.000000,0,0,0,0,0,0,32.0141827137,34.8668660995,107.687958,-0.162288,-0.728953,121.399933,76.583176,2.394191,0.301435,0.000007,6.002952,287.758636,-101.274155,12.000000,40.000000,0.000000,0.000000,-99.999855,-100.000000,107.687958,0.000001,0.000402,254.951614,152.062790,0.003043,-2.468291,-1377.908936,0.000000
0.000000,0.000000,0.000000,0.000000,0.000000,0.000000,0.000000,0.000000,0,0,0,0,0,0,32.0141827137,34.8668660995,107.687958,-0.162311,-0.728923,121.399933,75.625710,2.415158,0.319811,0.000008,6.073176,284.859497,-104.173309,12.000000,40.000000,0.000000,0.000000,-99.999855,-100.000000,107.687958,0.000001,0.000469,254.951614,150.631989,0.002999,-2.469966,-1400.061401,0.000000
0.000000,0.000000,0.000000,0.000000,0.000000,0.000000,0.000000,0.000000,0,0,0,0,0,0,32.0141827137,34.8668660995,107.687958,-0.162338,-0.728888,121.399933,74.613243,2.438480,0.312506,0.000009,5.988925,281.664734,-107.368050,12.000000,40.000000,0.000000,0.000000,-109.999855,-110.000000,107.687958,0.000001,0.000636,254.951614,149.018753,0.002952,-2.471671,-1424.694092,0.000000
0.000000,0.000000,0.000000,0.000000,0.000000,0.000000,0.000000,0.000000,0,0,0,0,0,0,32.0141827137,34.8668660995,107.687958,-0.162364,-0.728855,121.399933,73.690506,2.460806,0.287002,0.000008,6.065292,278.771271,-110.261543,12.000000,40.000000,0.000000,0.000000,-109.999855,-110.000000,107.687958,0.000001,0.000402,254.951614,147.458710,0.002920,-2.473168,-1442.279175,0.000000
0.000000,0.000000,0.000000,0.000000,0.000000,0.000000,0.000000,0.000000,0,0,0,0,0,0,32.0141827137,34.8668660995,107.687958,-0.162395,-0.728820,121.399933,72.784523,2.483761,0.325597,0.000010,6.091385,275.852997,-113.179810,12.000000,40.000000,0.000000,0.000000,-109.999855,-110.000000,107.687958,0.000001,0.000804,254.951614,145.843964,0.002888,-2.474586,-1459.399048,0.000000
0.000000,0.000000,0.000000,0.000000,0.000000,0.000000,0.000000,0.000000,0,0,0,0,0,0,32.0141827137,34.8668660995,107.687958,-0.162432,-0.728779,121.399940,71.760002,2.511003,0.362798,0.000012,5.878426,272.375519,-116.657288,12.000000,40.000000,0.000000,0.000000,-109.999855,-110.000000,107.687958,0.000001,0.000703,254.951614,143.919266,0.002858,-2.476129,-1481.712891,0.000000
0.000000,0.000000,0.000000,0.000000,0.000000,0.000000,0.000000,0.000000,0,0,0,0,0,0,32.0141827138,34.8668660995,107.687958,-0.162471,-0.728739,121.399940,70.757744,2.539035,0.427640,0.000014,5.815288,268.968445,-120.064346,12.000000,40.000000,0.000000,0.000000,-119.999855,-120.000000,107.687958,0.000001,0.000670,254.951614,141.935867,0.002828,-2.477578,-1498.809082,0.000000
0.000000,0.000000,0.000000,0.000000,0.000000,0.000000,0.000000,0.000000,0,0,0,0,0,0,32.0141827138,34.8668660995,107.687965,-0.162511,-0.728699,121.399940,69.777626,2.567825,0.307728,0.000010,5.797289,265.580475,-123.452316,12.000000,40.000000,0.000000,0.000000,-119.999855,-120.000000,107.687965,0.000001,0.000636,254.951614,139.901367,0.002805,-2.478939,-1513.463013,0.000000
0.000000,0.000000,0.000000,0.000000,0.000000,0.000000,0.000000,0.000000,0,0,0,0,0,0,32.0141827138,34.8668660995,107.687965,-0.162550,-0.728661,121.399940,68.882660,2.595362,0.383667,0.000013,5.899873,262.470825,-126.561981,12.000000,40.000000,0.000000,0.000000,-119.999855,-120.000000,107.687965,0.000001,0.000536,254.951614,137.963028,0.002790,-2.480135,-1523.851685,0.000000
0.000000,0.000000,0.000000,0.000000,0.000000,0.000000,0.000000,0.000000,0,0,0,0,0,0,32.0141827138,34.8668660995,107.687965,-0.162586,-0.728625,121.399940,68.068604,2.621490,0.388393,0.000013,6.033237,259.601501,-129.431290,12.000000,40.000000,0.000000,0.000000,-129.999863,-130.000000,107.687965,0.000001,0.000368,254.951614,136.134491,0.002775,-2.481184,-1532.067139,0.000000
0.000000,0.000000,0.000000,0.000000,0.000000,0.000000,0.000000,0.000000,0,0,0,0,0,0,32.0141827138,34.8668660995,107.687965,-0.162608,-0.728588,121.399940,67.269859,2.632068,0.455829,0.000012,5.972547,256.417236,-132.615555,12.000000,40.000000,0.000000,0.000000,-129.999863,-130.000000,107.687965,0.000001,0.000603,254.951614,134.140121,0.002766,-2.482253,-1543.971191,0.000000
0.000000,0.000000,0.000000,0.000000,0.000000,0.000000,0.000000,0.000000,0,0,0,0,0,0,32.0141827138,34.8668660995,107.687965,-0.162600,-0.728559,121.399940,66.579155,2.627497,0.462459,0.000011,6.057296,253.527496,-135.505310,12.000000,40.000000,0.000000,0.000000,-129.999863,-130.000000,107.687965,0.000001,0.000770,254.951614,132.269928,0.002765,-2.483190,-1551.465210,0.000000
0.000000,0.000000,0.000000,0.000000,0.000000,0.000000,0.000000,0.000000,0,0,0,0,0,0,32.0141827138,34.8668660994,107.687965,-0.162562,-0.728529,121.399940,65.779266,2.622689,0.258227,0.000007,5.868322,250.060867,-138.971939,12.000000,40.000000,0.000000,0.000000,-139.999863,-140.000000,107.687965,0.000001,0.000134,254.951614,130.096466,0.002760,-2.484211,-1564.501709,0.000000
0.000000,0.000000,0.000000,0.000000,0.000000,0.000000,0.000000,0.000000,0,0,0,0,0,0,32.0141827138,34.8668660994,107.687973,-0.162371,-0.728445,121.399933,63.255711,2.610939,0.457536,0.000005,2.099616,238.380951,-150.651855,12.000000,40.000000,0.000000,0.000000,-149.999863,-150.000000,107.687973,0.000001,0.000100,254.951614,123.254387,0.002713,-2.487024,-1602.593872,0.000000
0.000000,0.000000,0.000000,0.000000,0.000000,0.000000,0.000000,0.000000,0,0,0,0,0,0,32.0141827138,34.8668660994,107.687973,-0.162335,-0.728432,121.399933,62.338135,2.607945,0.188787,0.000004,4.926991,235.269745,-153.763062,12.000000,40.000000,0.000000,0.000000,-149.999863,-150.000000,107.687973,0.000001,0.000201,254.951614,120.796547,0.002703,-2.487913,-1579.301270,0.000000
0.000000,0.000000,0.000000,0.000000,0.000000,0.000000,0.000000,0.200000,0,0,0,0,0,0,32.0141827138,34.8668660994,107.687973,-0.162296,-0.728418,121.399933,61.526810,2.605861,0.140367,0.000003,5.575207,232.137390,-156.895416,12.000000,40.000000,0.000000,0.000000,-159.999863,-160.000000,107.687973,0.000001,-0.000000,254.951614,118.647537,0.002693,-2.488647,-1576.318359,0.000000
0.000000,0.000000,0.000000,0.000000,0.000000,0.000000,0.200000,0.200000,0,0,0,0,0,0,32.0141827138,34.8668660994,107.687973,-0.162255,-0.728404,121.399933,60.768509,2.604387,-0.077609,-0.000002,5.844551,103.474915,-159.937286,12.000000,40.000000,0.000000,0.000000,-159.999863,-160.000000,107.687973,0.000001,-0.000335,254.945511,116.664124,0.002685,-2.489292,-1578.694336,0.000000
0.000000,0.000000,0.000000,0.000000,0.000000,0.000000,0.200000,0.200000,0,0,0,0,0,0,32.0141827138,34.8668660994,107.687973,-0.162203,-0.728387,121.399933,59.846687,2.603210,0.086201,0.000002,5.733745,99.530777,-163.881439,12.000000,40.000000,0.000000,0.000000,-159.999863,-160.000000,107.687973,0.000001,-0.000134,254.945511,114.291817,0.002679,-2.490026,-1590.805054,0.000000
0.000000,0.000000,0.000000,0.000000,0.000000,0.000000,0.200000,0.200000,0,0,0,0,0,0,32.0141827137,34.8668660993,107.687973,-0.162159,-0.728374,121.399933,59.032776,2.602731,-0.012116,-0.000000,5.898947,96.219292,-167.192917,12.000000,40.000000,0.000000,0.000000,-169.999863,-170.000000,107.687973,0.000001,0.000134,254.945511,112.237701,0.002666,-2.490631,-1594.084106,0.000000
0.000000,0.000000,0.000000,0.000000,0.000000,0.000000,0.200000,0.200000,0,0,0,0,0,0,32.0141827137,34.8668660993,107.687973,-0.162119,-0.728360,121.399933,58.272972,2.602758,0.097677,0.000003,6.054001,93.130470,-170.281738,12.000000,40.000000,0.000000,0.000000,-169.999863,-170.000000,107.687973,0.000001,-0.000368,254.945511,110.358627,0.002658,-2.491163,-1596.954224,0.000000
0.000000,0.000000,0.000000,0.000000,0.000000,0.000000,0.200000,0.200000,0,0,0,0,0,0,32.0141827137,34.8668660993,107.687973,-0.162079,-0.728345,121.399933,57.513283,2.603242,0.120471,0.000003,6.106296,89.995522,-173.416687,12.000000,40.000000,0.000000,0.000000,-169.999863,-170.000000,107.687973,0.000001,0.000000,254.945511,108.520653,0.002650,-2.491665,-1601.445190,0.000000
0.000000,0.000000,0.000000,0.000000,0.000000,0.000000,0.200000,0.200000,0,0,0,0,0,0,32.0141827137,34.8668660993,107.687973,-0.162041,-0.728330,121.399925,56.753929,2.604184,0.120396,0.000003,6.127470,86.846924,-176.565277,12.000000,40.000000,0.000000,0.000000,-169.999863,-170.000000,107.687973,0.000001,0.000268,254.945511,106.727768,0.002641,-2.492138,-1606.124512,0.000000
0.000000,0.000000,0.000000,0.000000,0.000000,0.000000,0.200000,0.200000,0,0,0,0,0,0,32.0141827137,34.8668660993,107.687973,-0.161996,-0.728313,121.399925,55.886951,2.605820,0.209604,0.000005,5.920405,83.144173,-180.268036,12.000000,40.000000,0.000000,0.000000,-179.999863,-180.000000,107.687973,0.000001,0.000402,254.945511,104.738823,0.002629,-2.492646,-1614.816528,0.000000
0.000000,0.000000,0.000000,0.000000,0.000000,0.000000,0.200000,0.200000,0,0,0,0,0,0,32.0141827137,34.8668660993,107.687973,-0.161960,-0.728298,121.399925,55.129326,2.607741,0.242071,0.000005,6.083591,80.060402,-183.351807,12.000000,40.000000,0.000000,0.000000,-179.999863,-180.000000,107.687973,0.000001,0.000100,254.945511,103.055038,0.002622,-2.493064,-1615.869263,0.000000
0.000000,0.000000,0.000000,0.000000,0.000000,0.000000,0.200000,0.200000,0,0,0,0,0,0,32.0141827137,34.8668660993,107.687973,-0.161919,-0.728282,121.399925,54.264996,2.610493,0.061438,0.000001,5.923460,76.378098,-187.034103,12.000000,40.000000,0.000000,0.000000,-179.999863,-180.000000,107.687973,0.000001,0.000335,254.945511,101.199776,0.002616,-2.493512,-1622.866577,0.000000
0.000000,0.000000,0.000000,0.000000,0.000000,0.000000,0.200000,0.200000,0,0,0,0,0,0,32.0141827137,34.8668660993,107.687973,-0.161883,-0.728267,121.399925,53.456455,2.613612,0.162298,0.000003,5.996250,73.027092,-190.385117,12.000000,40.000000,0.000000,0.000000,-189.999863,-190.000000,107.687973,0.000001,0.000234,254.945511,99.531265,0.002609,-2.493906,-1625.034180,0.000000
0.000000,0.000000,0.000000,0.000000,0.000000,0.000000,0.200000,0.200000,0,0,0,0,0,0,32.0141827137,34.8668660993,107.687973,-0.161846,-0.728250,121.399925,52.596287,2.617511,0.239598,0.000005,5.915329,69.381355,-194.030853,12.000000,40.000000,0.000000,0.000000,-189.999863,-190.000000,107.687973,0.000001,0.000703,254.945511,97.831009,0.002598,-2.494300,-1629.773315,0.000000
0.000000,0.000000,0.000000,0.000000,0.000000,0.000000,0.200000,0.200000,0,0,0,0,0,0,32.0141827137,34.8668660993,107.687973,-0.161813,-0.728234,121.399925,51.792332,2.621701,0.265156,0.000005,6.008909,66.039146,-197.373062,12.000000,40.000000,0.000000,0.000000,-199.999863,-200.000000,107.687973,0.000001,0.000402,254.945511,96.314873,0.002591,-2.494646,-1631.020508,0.000000
0.000000,0.000000,0.000000,0.000000,0.000000,0.000000,0.200000,0.200000,0,0,0,0,0,0,32.0141827137,34.8668660993,107.687973,-0.161777,-0.728217,121.399925,50.937733,2.626739,0.260420,0.000005,5.934278,62.395859,-201.016342,12.000000,40.000000,0.000000,0.000000,-199.999863,-200.000000,107.687973,0.000001,0.000335,254.945511,94.783928,0.002583,-2.494992,-1635.124390,0.000000
0.000000,0.000000,0.000000,0.000000,0.000000,0.000000,0.200000,0.200000,0,0,0,0,0,0,32.0141827137,34.8668660992,107.687973,-0.161746,-0.728199,121.399925,50.139656,2.631988,0.307364,0.000006,6.029247,59.054237,-204.357971,12.000000,40.000000,0.000000,0.000000,-199.999863,-200.000000,107.687973,0.000001,0.000134,254.945511,93.432198,0.002577,-2.495296,-1635.902588,0.000000
0.000000,0.000000,0.000000,0.000000,0.000000,0.000000,0.200000,0.200000,0,0,0,0,0,0,32.0141827137,34.8668660992,107.687973,-0.161714,-0.728181,121.399925,49.292000,2.638150,0.338037,0.000006,5.955607,55.411098,-208.001114,12.000000,40.000000,0.000000,0.000000,-209.999863,-210.000000,107.687973,0.000001,0.000335,254.945511,92.081947,0.002567,-2.495600,-1639.558960,0.000000
0.000000,0.000000,0.000000,0.000000,0.000000,0.000000,0.200000,0.200000,0,0,0,0,0,0,32.0141827137,34.8668660992,107.687973,-0.161683,-0.728163,121.399925,48.448425,2.644886,0.364729,0.000006,5.944856,51.796600,-211.615601,12.000000,40.000000,0.000000,0.000000,-209.999863,-210.000000,107.687973,0.000001,0.000000,254.945511,90.828445,0.002558,-2.495884,-1641.778564,0.000000
0.000000,0.000000,0.000000,0.000000,0.000000,0.000000,0.200000,0.200000,0,0,0,0,0,0,32.0141827137,34.8668660992,107.687973,-0.161657,-0.728145,121.399925,47.661629,2.651721,0.375923,0.000007,6.056056,48.461899,-214.950302,12.000000,40.000000,0.000000,0.000000,-209.999863,-210.000000,107.687973,0.000001,0.000268,254.945511,89.742805,0.002550,-2.496134,-1641.729614,0.000000
0.000000,0.000000,0.000000,0.000000,0.000000,0.000000,0.200000,0.200000,0,0,0,0,0,0,32.0141827137,34.8668660992,107.687981,-0.161621,-0.728124,121.399918,46.670963,2.661091,0.313455,0.000005,5.644473,43.997456,-219.414749,12.000000,40.000000,0.000000,0.000000,-219.999863,-220.000000,107.687981,0.000001,0.000234,254.945511,88.493942,0.002543,-2.496429,-1650.060791,0.000000
0.000000,0.000000,0.000000,0.000000,0.000000,0.000000,0.200000,0.200000,0,0,0,0,0,0,32.0141827137,34.8668660992,107.687981,-0.161595,-0.728106,121.399918,45.842304,2.669597,0.379501,0.000006,5.895479,40.494091,-222.918121,12.000000,40.000000,0.000000,0.000000,-219.999863,-220.000000,107.687981,0.000001,0.000268,254.945511,87.552925,0.002536,-2.496660,-1647.059448,0.000000
0.000000,0.000000,0.000000,0.000000,0.000000,0.000000,0.200000,0.200000,0,0,0,0,0,0,32.0141827137,34.8668660992,107.687981,-0.161569,-0.728086,121.399918,45.019012,2.678665,0.453192,0.000008,5.966664,36.914303,-226.497910,12.000000,40.000000,0.000000,0.000000,-219.999863,-220.000000,107.687981,0.000001,0.000268,254.945511,86.713783,0.002530,-2.496876,-1647.253906,0.000000
0.000000,0.000000,0.000000,0.000000,0.000000,0.000000,0.200000,0.200000,0,0,0,0,0,0,32.0141827137,34.8668660992,107.687981,-0.161542,-0.728068,121.399918,44.201424,2.688281,0.319707,0.000006,5.993410,33.315521,-230.096680,12.000000,40.000000,0.000000,0.000000,-229.999863,-230.000000,107.687981,0.000001,0.000268,254.945511,85.976768,0.002524,-2.497077,-1648.156128,0.000000
0.000000,0.000000,0.000000,0.000000,0.000000,0.000000,0.200000,0.200000,0,0,0,0,0,0,32.0141827136,34.8668660992,107.687981,-0.161463,-0.728000,121.399918,41.934498,2.718225,0.584911,0.000005,3.115853,22.211802,-241.200409,12.000000,40.000000,0.000000,0.000000,-239.999863,-240.000000,107.687981,0.000001,0.000402,254.945511,84.449242,0.002505,-2.497578,-1664.594116,0.000000
0.000000,0.000000,0.000000,0.000000,0.000000,0.000000,0.200000,0.200000,0,0,0,0,0,0,32.0141827136,34.8668660991,107.687988,-0.161327,-0.727824,121.399918,36.157997,2.818025,0.600247,0.000002,2.155485,78.466621,-268.463837,12.000000,40.000000,0.000000,0.000000,-269.999847,-270.000000,107.687988,0.000000,0.000067,254.945511,84.122337,0.002470,-2.498533,-1487.397217,0.000000
0.000000,0.000000,0.000000,0.000000,0.000000,0.000000,0.200000,0.200000,0,0,0,0,0,0,32.0141827136,34.8668660991,107.687988,-0.161312,-0.727804,121.399918,35.054375,2.841277,0.370095,0.000004,4.845247,73.728210,-273.202240,12.000000,40.000000,0.000000,0.000000,-269.999847,-270.000000,107.687988,0.000000,0.000033,254.945511,84.651810,0.002469,-2.498672,-1480.078735,0.000000
0.000000,0.000000,0.000000,0.000000,0.000000,0.000000,0.200000,0.200000,0,0,0,0,0,0,32.0141827135,34.8668660993,107.687981,-0.161363,-0.728684,121.399918,32.897408,2.891089,-0.252158,-0.000154,3.128576,63.632057,-283.298401,12.000000,40.000000,0.000000,0.000000,-279.999847,-280.000000,107.687981,0.000000,-0.006228,254.945511,86.221054,0.002442,-2.371715,-1471.066650,0.000000
0.000000,0.000000,0.000000,0.000000,0.000000,0.000000,0.200000,0.200000,0,0,0,0,0,0,32.0141827134,34.8668660997,107.687958,-0.161492,-0.730111,121.399925,32.107639,2.910635,-0.300885,-0.000272,2.563080,63.500835,-283.429626,12.000000,40.000000,0.000000,0.000000,-279.999847,-280.000000,107.687958,0.000000,-0.012021,254.945511,86.968552,0.002437,-2.278051,-1314.293579,0.000000
0.000000,0.000000,0.000000,0.000000,0.000000,0.000000,0.200000,0.200000,0,0,0,0,0,0,32.0141827131,34.8668661004,107.687897,-0.161749,-0.732961,121.399933,30.986687,2.939766,-0.342219,-0.000412,2.455628,63.458839,-283.471619,11.745099,39.150330,-0.000000,-0.000000,-279.999847,-280.000000,107.687897,0.000000,-0.019891,254.945511,88.184181,0.002439,-2.118404,-1080.913452,0.000000
0.000000,0.000000,0.000000,0.000000,0.000000,0.000000,0.200000,0.200000,0,0,0,0,0,0,32.0141827129,34.8668661008,107.687851,-0.161877,-0.734677,121.399940,30.189510,2.961214,-0.859464,-0.000270,2.486475,63.447620,-283.482849,11.407583,38.025280,-0.000000,-0.000000,-279.999847,-280.000000,107.687851,0.000000,-0.016073,254.945511,89.164864,0.002497,-1.991497,-909.269836,0.000000
0.000000,0.000000,0.000000,0.000000,0.000000,0.000000,0.200000,0.200000,0,0,0,0,0,0,32.0141827132,34.8668661001,107.687851,-0.161546,-0.732018,121.399925,28.651913,3.005261,0.275284,0.000257,2.560103,63.424484,-283.505981,10.741720,35.805733,-0.000000,-0.000000,-279.999847,-280.000000,107.687851,0.000000,0.011754,254.945511,91.691643,0.002529,-1.692024,-511.112549,0.000000
0.000000,0.000000,0.000000,0.000000,0.000000,0.000000,0.200000,0.200000,0,0,0,0,0,0,32.0141827136,34.8668660990,107.687996,-0.161189,-0.727662,121.399910,28.646240,3.004836,0.849133,0.000027,2.557102,63.363590,-283.566864,10.884107,36.280357,-0.000000,-0.000000,-279.999847,-280.000000,107.687996,0.000000,0.001607,254.945450,99.748276,0.002448,-1.030421,-10.027670,0.000000
0.000000,0.000000,0.000000,0.000000,0.000000,0.000000,0.200000,0.200000,0,0,0,0,0,0,32.0141827136,34.8668660990,107.687996,-0.161190,-0.727617,121.399910,28.646181,3.004677,0.777981,0.000013,2.565419,63.353710,-283.576752,10.911505,36.371681,-0.000001,-0.000000,-279.999847,-280.000000,107.687996,0.000000,0.000737,254.945435,101.377449,0.002443,-0.936069,-17.846443,0.000000
0.000000,0.000000,0.000000,0.000000,0.000000,0.000000,0.200000,0.200000,0,0,0,0,0,0,32.0141827136,34.8668660990,107.687996,-0.161189,-0.727597,121.399910,28.646154,3.004551,0.872205,0.000009,2.568938,63.345329,-283.585144,10.932970,36.443233,-0.000001,-0.000000,-279.999847,-280.000000,107.687996,0.000000,0.000536,254.945435,102.651192,0.002440,-0.868296,-19.368536,0.000000
0.000000,0.000000,0.000000,0.000000,0.000000,0.000000,0.200000,0.200000,0,0,0,0,0,0,32.0141827136,34.8668660990,107.687996,-0.161190,-0.727586,121.399910,28.646139,3.004445,0.705857,0.000005,2.571155,63.338223,-283.592224,10.950874,36.502914,-0.000001,-0.000000,-279.999847,-280.000000,107.687996,0.000000,0.000335,254.945435,103.707352,0.002438,-0.815582,-16.291296,0.000000
0.000000,0.000000,0.000000,0.000000,0.000000,0.000000,0.200000,0.200000,0,0,0,0,0,0,32.0141827136,34.8668660990,107.688004,-0.161191,-0.727578,121.399910,28.646130,3.004338,0.783540,0.000004,2.571703,63.330803,-283.599670,10.968793,36.562645,-0.000001,-0.000000,-279.999847,-280.000000,107.688004,0.000000,0.000201,254.945419,104.755341,0.002436,-0.766069,-13.798602,0.000000
0.000000,0.000000,0.000000,0.000000,0.000000,0.000000,0.200000,0.200000,0,0,0,0,0,0,32.0141827136,34.8668660990,107.688004,-0.161191,-0.727573,121.399910,28.646126,3.004225,1.016707,0.000003,2.571216,63.322685,-283.607788,10.987923,36.626411,-0.000001,-0.000000,-279.999847,-280.000000,107.688004,0.000000,0.000201,254.945419,105.860771,0.002435,-0.716563,-13.589484,0.000000
0.000000,0.000000,0.000000,0.000000,0.000000,0.000000,0.200000,0.200000,0,0,0,0,0,0,32.0141827136,34.8668660990,107.688004,-0.161191,-0.727569,121.399910,28.646128,3.004111,0.462271,0.000001,2.571013,63.314629,-283.615845,11.007070,36.690231,-0.000001,-0.000000,-279.999847,-280.000000,107.688004,0.000000,0.000067,254.945419,106.949921,0.002433,-0.670256,-13.425343,0.000000
0.000000,0.000000,0.000000,0.000000,0.000000,0.000000,0.200000,0.200000,0,0,0,0,0,0,32.0141827136,34.8668660990,107.688004,-0.161191,-0.727566,121.399910,28.646111,3.003976,1.205733,0.000000,2.569147,63.304756,-283.625702,11.029827,36.766094,-0.000001,-0.000000,-279.999847,-280.000000,107.688004,0.000000,0.000033,254.945419,108.217445,0.002431,-0.619138,-7.611583,0.000000
0.000000,0.000000,0.000000,0.000000,0.000000,0.000000,0.200000,0.200000,0,0,0,0,0,0,32.0141827136,34.8668660990,107.688004,-0.161191,-0.727566,121.399910,28.646109,3.003862,0.020969,0.000000,2.570329,63.296959,-283.633514,11.049010,36.830036,-0.000001,-0.000000,-279.999847,-280.000000,107.688004,0.000000,0.000000,254.945419,109.259338,0.002430,-0.579127,-19.726620,0.000000
0.000000,0.000000,0.000000,0.000000,0.000000,0.000000,0.200000,0.200000,0,0,0,0,0,0,32.0141827136,34.8668660990,107.688004,-0.161190,-0.727566,121.399910,28.646112,3.003755,-0.335972,-0.000000,2.571106,63.289589,-283.640869,11.067009,36.890034,-0.000001,-0.000000,-279.999847,-280.000000,107.688004,0.000000,-0.000234,254.945404,110.212067,0.002429,-0.543968,-16.954165,0.000000
0.000000,0.000000,0.000000,0.000000,0.000000,0.000000,0.200000,0.200000,0,0,0,0,0,0,32.0141827136,34.8668660990,107.688004,-0.161190,-0.727566,121.399910,28.646103,3.003633,-0.087547,-0.000000,2.570104,63.280880,-283.649567,11.087425,36.958088,-0.000001,-0.000000,-279.999847,-280.000000,107.688004,0.000000,0.000033,254.945404,111.260628,0.002427,-0.506695,-19.581465,0.000000
0.000000,0.000000,0.000000,0.000000,0.000000,0.000000,0.200000,0.200000,0,0,0,0,0,0,32.0141827136,34.8668660990,107.688004,-0.161190,-0.727566,121.399910,28.646103,3.003512,0.843929,0.000001,2.569786,63.272308,-283.658142,11.107862,37.026207,-0.000001,-0.000000,-279.999847,-280.000000,107.688004,0.000000,0.000000,254.945404,112.272957,0.002426,-0.471976,-11.523185,0.000000
0.000000,0.000000,0.000000,0.000000,0.000000,0.000000,0.200000,0.200000,0,0,0,0,0,0,32.0141827136,34.8668660990,107.688004,-0.161190,-0.727567,121.399910,28.646109,3.003383,-0.453650,-0.000000,2.569063,105.365494,-283.667297,11.129519,37.098400,-0.000001,-0.000000,-279.999847,-280.000000,107.688004,0.000000,0.000000,254.945404,113.302025,0.002426,-0.437804,-17.145863,0.000000
0.000000,0.000000,0.000000,0.000000,0.000000,0.000000,0.200000,0.200000,0,0,0,0,0,0,32.0141827136,34.8668660992,107.687988,-0.161278,-0.728400,121.399918,28.642515,3.003327,-0.257277,-0.000150,2.558292,105.339928,-283.692871,11.186170,37.287235,-0.000001,-0.000000,-279.999847,-280.000000,107.687988,0.000000,-0.005726,254.945404,115.758926,0.002405,-0.359795,-17.193718,0.000000
0.000000,0.000000,0.000000,0.000000,0.000000,0.000000,0.200000,0.200000,0,0,0,0,0,0,32.0141827120,34.8668661030,107.687637,-0.162679,-0.743268,121.399971,28.637842,3.002838,-0.412233,-0.000575,2.555664,105.279320,-283.753479,11.331463,37.771545,-0.000001,-0.000000,-279.999847,-280.000000,107.687637,0.000000,-0.028831,254.945404,120.282135,0.002503,-0.218020,-10.213932,0.000000
0.000000,0.000000,0.000000,0.000000,0.000000,0.000000,0.200000,0.200000,0,0,0,0,0,0,32.0141827117,34.8668661038,107.687546,-0.162967,-0.746441,121.399986,28.638332,3.002634,-0.425897,-0.000561,2.564258,105.269051,-283.763733,10.735482,35.784943,-0.000001,-0.000000,-279.999847,-280.000000,107.687546,0.000000,-0.028128,254.945389,120.837341,0.002544,-0.198061,-8.972157,0.000000
0.000000,0.000000,0.000000,0.000000,0.000000,0.000000,0.200000,0.200000,0,0,0,0,0,0,32.0141827114,34.8668661044,107.687477,-0.163177,-0.748763,121.399994,28.638882,3.002465,-0.432447,-0.000532,2.567533,105.260574,-283.772217,10.249051,34.163506,-0.000001,-0.000000,-279.999847,-280.000000,107.687477,0.000000,-0.027358,254.945343,121.200211,0.002573,-0.183725,-12.329948,0.000000
0.000000,0.000000,0.000000,0.000000,0.000000,0.000000,0.200000,0.200000,0,0,0,0,0,0,32.0141827111,34.8668661051,107.687386,-0.163458,-0.751914,121.400002,28.639784,3.002202,-0.444032,-0.000480,2.563334,105.246262,-283.786530,9.510643,31.702160,-0.000005,-0.000001,-279.999847,-280.000000,107.687386,0.000000,-0.023641,254.944717,121.627159,0.002627,-0.164142,-16.552299,0.000000
0.000000,0.000000,0.000000,0.000000,0.000000,0.000000,0.200000,0.200000,0,0,0,0,0,0,32.0141827046,34.8668661184,107.687263,-0.164866,-0.754992,121.399963,28.352598,3.028898,0.001526,0.000082,2.584723,105.219971,-283.812836,8.152091,27.173996,-0.000115,-0.000025,-279.999847,-280.000000,107.687263,0.000516,-0.000067,254.927933,122.053070,0.002542,-0.133259,-18.038597,0.000000
0.000000,0.000000,0.000000,0.000000,0.000000,0.000000,0.200000,0.200000,0,0,0,0,0,0,32.0141819993,34.8668674788,107.688873,-0.172712,-0.749108,121.390434,23.726503,3.576975,0.004886,0.005305,3.197750,105.159470,-283.873322,4.281837,14.350265,-0.024955,-0.005709,-279.999847,-280.000000,107.688873,0.055290,0.187185,251.092392,121.291428,-0.002851,-0.082313,-10.093755,0.000000
0.000000,0.000000,0.000000,0.000000,0.000000,0.000000,0.200000,0.200000,0,0,0,0,0,0,32.0141816662,34.8668681196,107.689613,-0.173239,-0.748643,121.385254,22.773767,3.715580,0.004667,0.006264,3.357517,105.150871,-283.881927,3.535088,11.944635,-0.051883,-0.011934,-279.999847,-280.000000,107.689613,0.080253,0.280476,246.902237,120.893066,-0.005544,-0.075620,-13.275350,0.000000
0.000000,0.000000,0.000000,0.000000,0.000000,0.000000,0.200000,0.200000,0,0,0,0,0,0,32.0141813566,34.8668687152,107.690300,-0.173391,-0.748454,121.380707,22.097988,3.823635,0.004644,0.007153,3.479101,105.143265,-283.889526,2.980683,10.211653,-0.088970,-0.020524,-279.999847,-280.000000,107.690300,0.103108,0.319822,241.084641,120.533096,-0.007837,-0.070884,-11.492456,0.000000
0.000000,0.000000,0.000000,0.000000,0.000000,0.000000,0.200000,0.200000,0,0,0,0,0,0,32.0141810666,34.8668692735,107.690933,-0.173313,-0.748388,121.376663,21.595709,3.912606,0.004789,0.008150,3.577421,105.136818,-283.895996,2.535281,8.868566,-0.134620,-0.031104,-279.999847,-280.000000,107.690933,0.124263,0.289852,233.847610,120.203026,-0.009175,-0.067235,-17.002104,0.000000
0.000000,0.000000,0.000000,0.000000,0.000000,0.000000,0.200000,0.200000,0,0,0,0,0,0,32.0141807258,34.8668699294,107.691681,-0.173260,-0.748390,121.372215,21.078529,4.004621,0.004775,0.008927,3.677921,105.129463,-283.903320,2.074149,7.536740,-0.200806,-0.046442,-279.999847,-280.000000,107.691681,0.148816,0.318415,223.193130,119.822815,-0.010878,-0.063609,-14.330915,0.000000
0.000000,0.000000,0.000000,0.000000,0.000000,0.000000,0.200000,0.200000,0,0,0,0,0,0,32.0141803776,34.8668705992,107.692444,-0.173269,-0.748448,121.367973,20.609154,4.087765,0.004621,0.009339,3.769130,105.122757,-283.910034,1.654619,6.382722,-0.279605,-0.064691,-279.999847,-280.000000,107.692444,0.173580,0.409731,210.224731,119.441826,-0.012449,-0.060435,-19.458239,0.000000
0.000000,0.000000,0.000000,0.000000,0.000000,0.000000,0.200000,0.200000,0,0,0,0,0,0,32.0141799770,34.8668713704,107.693321,-0.173124,-0.748549,121.363380,20.166834,4.174032,0.004619,0.010056,3.862360,105.115433,-283.917358,1.224035,5.252879,-0.378068,-0.087463,-279.999847,-280.000000,107.693321,0.201720,0.437926,193.495483,119.011299,-0.013854,-0.057267,-17.186567,0.000000
0.000000,0.000000,0.000000,0.000000,0.000000,0.000000,0.200000,0.200000,0,0,0,0,0,0,32.0141795751,34.8668721446,107.694191,-0.172849,-0.748667,121.358910,19.802498,4.252453,0.004740,0.010987,3.946677,105.108818,-283.923981,0.843723,4.289863,-0.476273,-0.110124,-279.999847,-280.000000,107.694191,0.229596,0.399585,176.052414,118.586929,-0.015011,-0.054511,-11.209543,0.000000
0.000000,0.000000,0.000000,0.000000,0.000000,0.000000,0.200000,0.200000,0,0,0,0,0,0,32.0141791192,34.8668730227,107.695183,-0.172656,-0.748808,121.354065,19.423542,4.332353,0.004727,0.011637,4.032582,105.101601,-283.931183,0.474927,3.367118,-0.575061,-0.132841,-279.999847,-280.000000,107.695183,0.260789,0.429856,157.394516,118.114235,-0.015781,-0.051767,-19.009184,0.000000
0.000000,0.000000,0.000000,0.000000,0.000000,0.000000,0.200000,0.200000,0,0,0,0,0,0,32.0141786365,34.8668739526,107.696228,-0.172455,-0.748955,121.349174,19.073778,4.409029,0.004720,0.012271,4.114870,105.094528,-283.938263,0.156854,2.554366,-0.654774,-0.151063,-279.999847,-280.000000,107.696228,0.293355,0.457080,140.985626,117.623024,-0.016235,-0.049207,-15.854313,0.000000
0.000000,0.000000,0.000000,0.000000,0.000000,0.000000,0.200000,0.200000,0,0,0,0,0,0,32.0141781605,34.8668748694,107.697266,-0.172350,-0.749091,121.344582,18.755293,4.477715,0.004635,0.012624,4.189111,105.088104,-283.944702,-0.088544,1.893026,-0.705191,-0.162466,-279.999847,-280.000000,107.697266,0.325018,0.531385,129.377182,117.147652,-0.016437,-0.046960,-19.165182,0.000000
0.000000,0.000000,0.000000,0.000000,0.000000,0.000000,0.200000,0.200000,0,0,0,0,0,0,32.0141776631,34.8668758283,107.698341,-0.172091,-0.749224,121.339966,18.486370,4.544579,0.004708,0.013386,4.260317,105.081642,-283.951172,-0.284045,1.327804,-0.732968,-0.168607,-279.999847,-280.000000,107.698341,0.357675,0.505232,122.010826,116.659775,-0.016454,-0.044851,-13.987875,0.000000
0.000000,0.000000,0.000000,0.000000,0.000000,0.000000,0.200000,0.200000,0,0,0,0,0,0,32.0141771448,34.8668768274,107.699471,-0.171997,-0.749349,121.335373,18.209198,4.608320,0.004641,0.013727,4.328719,105.075195,-283.957611,-0.436629,0.856187,-0.744809,-0.171081,-279.999847,-280.000000,107.699471,0.391232,0.571668,118.253265,116.161209,-0.016334,-0.042868,-18.781805,0.000000
0.000000,0.000000,0.000000,0.000000,0.000000,0.000000,0.200000,0.200000,0,0,0,0,0,0,32.0141765699,34.8668779359,107.700722,-0.171830,-0.749468,121.330490,17.945934,4.674228,0.004644,0.014282,4.398657,105.068214,-283.964600,-0.561172,0.453210,-0.748651,-0.171719,-279.999847,-280.000000,107.700722,0.427925,0.592864,116.732918,115.619652,-0.016086,-0.040883,-13.827842,0.000000
0.000000,0.000000,0.000000,0.000000,0.000000,0.000000,0.200000,0.200000,0,0,0,0,0,0,32.0141759730,34.8668790869,107.702019,-0.171689,-0.749572,121.325623,17.699669,4.737836,0.004646,0.014814,4.466114,105.061386,-283.971405,-0.652594,0.151170,-0.749454,-0.171698,-279.999847,-280.000000,107.702019,0.465450,0.613056,116.341988,115.070152,-0.015706,-0.039024,-6.930718,0.000000
0.000000,0.000000,0.000000,0.000000,0.000000,0.000000,0.200000,0.200000,0,0,0,0,0,0,32.0141753943,34.8668802033,107.703278,-0.171516,-0.749653,121.321022,17.492100,4.795842,0.004697,0.015461,4.527505,105.055206,-283.977600,-0.710651,-0.041674,-0.749622,-0.171578,-279.999847,-280.000000,107.703278,0.501313,0.594639,116.275604,114.549675,-0.015243,-0.037398,-12.838951,0.000000
0.000000,0.000000,0.000000,0.000000,0.000000,0.000000,0.200000,0.200000,0,0,0,0,0,0,32.0141747974,34.8668813547,107.704575,-0.171473,-0.749722,121.316391,17.276011,4.851695,0.004651,0.015774,4.587009,105.048958,-283.983826,-0.742666,-0.148016,-0.749704,-0.171475,-279.999847,-280.000000,107.704575,0.537770,0.648082,116.263779,114.025826,-0.014746,-0.035874,-16.796263,0.000000
0.000000,0.000000,0.000000,0.000000,0.000000,0.000000,0.200000,0.200000,0,0,0,0,0,0,32.0141741415,34.8668826203,107.706001,-0.171380,-0.749779,121.311417,17.067190,4.909961,0.004655,0.016270,4.648403,105.042168,-283.990631,-0.749768,-0.171374,-0.749768,-0.171374,-279.999847,-280.000000,107.706001,0.577252,0.666232,116.258194,113.465233,-0.014228,-0.034358,-10.823244,0.000000
0.000000,0.000000,0.000000,0.000000,0.000000,0.000000,0.200000,0.200000,0,0,0,0,0,0,32.0141735090,34.8668838410,107.707375,-0.171255,-0.749818,121.306717,16.888977,4.963506,0.004693,0.016850,4.704734,105.036079,-283.996704,-0.749812,-0.171288,-0.749812,-0.171288,-279.999847,-280.000000,107.707375,0.614770,0.653038,116.253242,112.939728,-0.013834,-0.033033,-15.281372,0.000000
0.000000,0.000000,0.000000,0.000000,0.000000,0.000000,0.200000,0.200000,0,0,0,0,0,0,32.0141728598,34.8668850941,107.708794,-0.171252,-0.749844,121.301994,16.701824,5.015529,0.004658,0.017154,4.759855,105.029953,-284.002838,-0.749841,-0.171238,-0.749841,-0.171238,-279.999847,-280.000000,107.708794,0.652731,0.701258,116.248360,112.415924,-0.013305,-0.031791,-18.326029,0.000000
0.000000,0.000000,0.000000,0.000000,0.000000,0.000000,0.200000,0.200000,0,0,0,0,0,0,32.0141721943,34.8668863789,107.710236,-0.171162,-0.749855,121.297226,16.537630,5.067042,0.004692,0.017706,4.813849,105.023842,-284.008972,-0.749854,-0.171187,-0.749854,-0.171187,-279.999847,-280.000000,107.710236,0.691097,0.689203,116.243599,111.895378,-0.012784,-0.030632,-9.303872,0.000000
0.000000,0.000000,0.000000,0.000000,0.000000,0.000000,0.200000,0.200000,0,0,0,0,0,0,32.0141715127,34.8668876949,107.711723,-0.171185,-0.749853,121.292427,16.364332,5.117376,0.004659,0.018001,4.866938,105.017754,-284.015045,-0.749854,-0.171169,-0.749854,-0.171169,-279.999847,-280.000000,107.711723,0.729835,0.733873,116.238808,111.379616,-0.012275,-0.029548,-13.688654,0.000000
0.000000,0.000000,0.000000,0.000000,0.000000,0.000000,0.200000,0.200000,0,0,0,0,0,0,32.0141708154,34.8668890417,107.713242,-0.171126,-0.749839,121.287590,16.211151,5.167440,0.004691,0.018540,4.919264,105.011703,-284.021088,-0.749842,-0.171146,-0.749842,-0.171146,-279.999847,-280.000000,107.713242,0.768916,0.722153,116.233986,110.870102,-0.011903,-0.028539,-17.094391,0.000000
