aileron,elevator,rudder,flaps,slats,speedbrake,throttle,throttle,engine-pump,engine-pump,electric-pump,electric-pump,external-power,APU-generator,latitude-deg,longitude-deg,altitude-ft,roll-deg,pitch-deg,heading-deg,side-slip-deg,airspeed-kt,glideslope,vertical-speed-fps,airspeed-indicator_indicated-speed-kt,altimeter_indicated-altitude-ft,altimeter_pressure-alt-ft,attitude-indicator_indicated-pitch-deg,attitude-indicator_indicated-roll-deg,attitude-indicator_internal-pitch-deg,attitude-indicator_internal-roll-deg,encoder_indicated-altitude-ft,encoder_pressure-alt-ft,gps_indicated-altitude-ft,gps_indicated-ground-speed-kt,gps_indicated-vertical-speed,indicated-heading-deg,magnetic-compass_indicated-heading-deg,slip-skid-ball_indicated-slip-skid,turn-indicator_indicated-turn-rate,vertical-speed-indicator_indicated-speed-fpm,engine_rpm
0.000000,0.000000,0.000000,1.000000,0.000000,0.000000,0.000000,0.000000,0,0,0,0,0,0,32.0177231700,34.8926918800,-9999.000000,0.000000,0.424000,260.000000,0.000000,0.000000,0.000000,0.000000,0.000000,0.000000,0.000000,0.000000,0.000000,0.000000,0.000000,0.000000,0.000000,0.000000,0.000000,0.000000,0.000000,0.000000,0.000000,0.000000,0.000000,0.000000
0.000000,0.000000,0.000000,1.000000,0.000000,0.000000,0.000000,0.000000,0,0,0,0,0,0,32.0177231700,34.8926918800,-9999.000000,0.000000,0.424000,260.000000,0.000000,0.000000,0.000000,0.000000,0.000000,390.226257,1.193444,12.000000,40.000000,0.000000,0.000000,0.000000,0.000000,0.000000,0.000000,0.000000,254.951645,0.000000,0.000000,0.000000,0.000000,0.000000
0.000000,0.000000,0.000000,1.000000,0.000000,0.000000,0.000000,0.000000,0,0,0,0,0,0,32.0141825072,34.8668671716,-9999.000000,0.000000,0.424000,121.400002,0.000000,0.000000,0.000000,0.000000,0.000000,390.226257,1.193444,12.000000,40.000000,0.000000,0.000000,0.000000,0.000000,0.000000,0.000000,0.000000,254.951645,0.000000,0.000000,0.000000,0.000000,0.000000
0.000000,0.000000,0.000000,1.000000,0.000000,0.000000,0.000000,0.000000,0,0,0,0,0,0,32.0141825072,34.8668671716,-9999.000000,0.000000,0.424000,121.400002,0.000000,0.000000,0.000000,0.000000,0.000000,390.226257,1.193444,12.000000,40.000000,0.000000,0.000000,0.000000,0.000000,0.000000,0.000000,0.000000,254.951645,0.000000,0.000000,0.000000,0.000000,0.000000
0.000000,0.000000,0.000000,1.000000,0.000000,0.000000,0.000000,0.000000,0,0,0,0,0,0,32.0141825072,34.8668671716,-9999.000000,0.000000,0.424000,121.400002,0.000000,0.000000,0.000000,0.000000,0.000000,390.226257,1.193444,12.000000,40.000000,0.000000,0.000000,0.000000,0.000000,0.000000,0.000000,0.000000,254.951645,0.000000,0.000000,0.000000,0.000000,0.000000
0.000000,0.000000,0.000000,1.000000,0.000000,0.000000,0.000000,0.000000,0,0,0,0,0,0,32.0141825072,34.8668671716,-9999.000000,0.000000,0.424000,121.400002,0.000000,0.000000,0.000000,0.000000,0.000000,390.226257,1.193444,12.000000,40.000000,0.000000,0.000000,0.000000,0.000000,0.000000,0.000000,0.000000,254.951645,0.000000,0.000000,0.000000,0.000000,0.000000
0.000000,0.000000,0.000000,1.000000,0.000000,0.000000,0.000000,0.000000,0,0,0,0,0,0,32.0141825072,34.8668671716,-9999.000000,0.000000,0.424000,121.400002,0.000000,0.000000,0.000000,0.000000,0.000000,390.226257,1.193444,12.000000,40.000000,0.000000,0.000000,0.000000,0.000000,0.000000,0.000000,0.000000,254.951645,0.000000,0.000000,0.000000,0.000000,0.000000
0.000000,0.000000,0.000000,1.000000,0.000000,0.000000,0.000000,0.000000,0,0,0,0,0,0,32.0141825072,34.8668671716,-9999.000000,0.000000,0.424000,121.400002,0.000000,0.000000,0.000000,0.000000,0.000000,390.226257,1.193444,12.000000,40.000000,0.000000,0.000000,0.000000,0.000000,0.000000,0.000000,0.000000,254.951645,0.000000,0.000000,0.000000,0.000000,0.000000
0.000000,0.000000,0.000000,1.000000,0.000000,0.000000,0.000000,0.000000,0,0,0,0,0,0,32.0141825072,34.8668671716,-9999.000000,0.000000,0.424000,121.400002,0.000000,0.000000,0.000000,0.000000,0.000000,390.226257,1.193444,12.000000,40.000000,0.000000,0.000000,0.000000,0.000000,0.000000,0.000000,0.000000,254.951645,0.000000,0.000000,0.000000,0.000000,0.000000
0.000000,0.000000,0.000000,1.000000,0.000000,0.000000,0.000000,0.000000,0,0,0,0,0,0,32.0141825072,34.8668671716,-9999.000000,0.000000,0.424000,121.400002,0.000000,0.000000,0.000000,0.000000,0.000000,390.226257,1.193444,12.000000,40.000000,0.000000,0.000000,0.000000,0.000000,0.000000,0.000000,0.000000,254.951645,0.000000,0.000000,0.000000,0.000000,0.000000
0.000000,0.000000,0.000000,1.000000,0.000000,0.000000,0.000000,0.000000,0,0,0,0,0,0,32.0141825072,34.8668671716,-9999.000000,0.000000,0.424000,121.400002,0.000000,0.000000,0.000000,0.000000,0.000000,390.226257,1.193444,12.000000,40.000000,0.000000,0.000000,0.000000,0.000000,0.000000,0.000000,0.000000,254.951645,0.000000,0.000000,0.000000,0.000000,0.000000
0.000000,0.000000,0.000000,1.000000,0.000000,0.000000,0.000000,0.000000,0,0,0,0,0,0,32.0141825072,34.8668671716,-9999.000000,0.000000,0.424000,121.400002,0.000000,0.000000,0.000000,0.000000,0.000000,390.226257,1.193444,12.000000,40.000000,0.000000,0.000000,0.000000,0.000000,0.000000,0.000000,0.000000,254.951645,0.000000,0.000000,0.000000,0.000000,0.000000
0.000000,0.000000,0.000000,1.000000,0.000000,0.000000,0.000000,0.000000,0,0,0,0,0,0,32.0141825072,34.8668671716,-9999.000000,0.000000,0.424000,121.400002,0.000000,0.000000,0.000000,0.000000,0.000000,390.226257,1.193444,12.000000,40.000000,0.000000,0.000000,0.000000,0.000000,0.000000,0.000000,0.000000,254.951645,0.000000,0.000000,0.000000,0.000000,0.000000
0.000000,0.000000,0.000000,1.000000,0.000000,0.000000,0.000000,0.000000,0,0,0,0,0,0,32.0141825072,34.8668671716,-9999.000000,0.000000,0.424000,121.400002,0.000000,0.000000,0.000000,0.000000,0.000000,390.226257,1.193444,12.000000,40.000000,0.000000,0.000000,0.000000,0.000000,0.000000,0.000000,0.000000,254.951645,0.000000,0.000000,0.000000,0.000000,0.000000
0.000000,0.000000,0.000000,1.000000,0.000000,0.000000,0.000000,0.000000,0,0,0,0,0,0,32.0141825072,34.8668671716,-9999.000000,0.000000,0.424000,121.400002,0.000000,0.000000,0.000000,0.000000,0.000000,390.226257,1.193444,12.000000,40.000000,0.000000,0.000000,0.000000,0.000000,0.000000,0.000000,0.000000,254.951645,0.000000,0.000000,0.000000,0.000000,0.000000
0.000000,0.000000,0.000000,1.000000,0.000000,0.000000,0.000000,0.000000,0,0,0,0,0,0,32.0141825072,34.8668671716,-9999.000000,0.000000,0.424000,121.400002,0.000000,0.000000,0.000000,0.000000,0.000000,390.226257,1.193444,12.000000,40.000000,0.000000,0.000000,0.000000,0.000000,0.000000,0.000000,0.000000,254.951645,0.000000,0.000000,0.000000,0.000000,0.000000
0.000000,0.000000,0.000000,1.000000,0.000000,0.000000,0.000000,0.000000,0,0,0,0,0,0,32.0141825072,34.8668671716,-9999.000000,0.000000,0.424000,121.400002,0.000000,0.000000,0.000000,0.000000,0.000000,390.226257,1.193444,12.000000,40.000000,0.000000,0.000000,0.000000,0.000000,0.000000,0.000000,0.000000,254.951645,0.000000,0.000000,0.000000,0.000000,0.000000
0.000000,0.000000,0.000000,1.000000,0.000000,0.000000,0.000000,0.000000,0,0,0,0,0,0,32.0141825072,34.8668671716,-9999.000000,0.000000,0.424000,121.400002,0.000000,0.000000,0.000000,0.000000,0.000000,390.226257,1.193444,12.000000,40.000000,0.000000,0.000000,0.000000,0.000000,0.000000,0.000000,0.000000,254.951645,0.000000,0.000000,0.000000,0.000000,0.000000
0.000000,0.000000,0.000000,1.000000,0.000000,0.000000,0.000000,0.000000,0,0,0,0,0,0,32.0141825072,34.8668671716,-9999.000000,0.000000,0.424000,121.400002,0.000000,0.000000,0.000000,0.000000,0.000000,390.226257,1.193444,12.000000,40.000000,0.000000,0.000000,0.000000,0.000000,0.000000,0.000000,0.000000,254.951645,0.000000,0.000000,0.000000,0.000000,0.000000
0.000000,0.000000,0.000000,1.000000,0.000000,0.000000,0.000000,0.000000,0,0,0,0,0,0,32.0141825072,34.8668671716,-9999.000000,0.000000,0.424000,121.400002,0.000000,0.000000,0.000000,0.000000,0.000000,390.226257,1.193444,12.000000,40.000000,0.000000,0.000000,0.000000,0.000000,0.000000,0.000000,0.000000,254.951645,0.000000,0.000000,0.000000,0.000000,0.000000
0.000000,0.000000,0.000000,1.000000,0.000000,0.000000,0.000000,0.000000,0,0,0,0,0,0,32.0141825072,34.8668671716,-9999.000000,0.000000,0.424000,121.400002,0.000000,0.000000,0.000000,0.000000,0.000000,390.226257,1.193444,12.000000,40.000000,0.000000,0.000000,0.000000,0.000000,0.000000,0.000000,0.000000,254.951645,0.000000,0.000000,0.000000,0.000000,0.000000
0.000000,0.000000,0.000000,1.000000,0.000000,0.000000,0.000000,0.000000,0,0,0,0,0,0,32.0141825072,34.8668671716,-9999.000000,0.000000,0.424000,121.400002,0.000000,0.000000,0.000000,0.000000,0.000000,390.226257,1.193444,12.000000,40.000000,0.000000,0.000000,0.000000,0.000000,0.000000,0.000000,0.000000,254.951645,0.000000,0.000000,0.000000,0.000000,0.000000
0.000000,0.000000,0.000000,1.000000,0.000000,0.000000,0.000000,0.000000,0,0,0,0,0,0,32.0141825072,34.8668671716,-9999.000000,0.000000,0.424000,121.400002,0.000000,0.000000,0.000000,0.000000,0.000000,390.226257,1.193444,12.000000,40.000000,0.000000,0.000000,0.000000,0.000000,0.000000,0.000000,0.000000,254.951645,0.000000,0.000000,0.000000,0.000000,0.000000
0.000000,0.000000,0.000000,1.000000,0.000000,0.000000,0.000000,0.000000,0,0,0,0,0,0,32.0141825072,34.8668671716,-9999.000000,0.000000,0.424000,121.400002,0.000000,0.000000,0.000000,0.000000,0.000000,390.226257,1.193444,12.000000,40.000000,0.000000,0.000000,0.000000,0.000000,0.000000,0.000000,0.000000,254.951645,0.000000,0.000000,0.000000,0.000000,0.000000
0.000000,0.000000,0.000000,1.000000,0.000000,0.000000,0.000000,0.000000,0,0,0,0,0,0,32.0141825072,34.8668671716,-9999.000000,0.000000,0.424000,121.400002,0.000000,0.000000,0.000000,0.000000,0.000000,390.226257,1.193444,12.000000,40.000000,0.000000,0.000000,0.000000,0.000000,0.000000,0.000000,0.000000,254.951645,0.000000,0.000000,0.000000,0.000000,0.000000
0.000000,0.000000,0.000000,1.000000,0.000000,0.000000,0.000000,0.000000,0,0,0,0,0,0,32.0141825072,34.8668671716,-9999.000000,0.000000,0.424000,121.400002,0.000000,0.000000,0.000000,0.000000,0.000000,390.226257,1.193444,12.000000,40.000000,0.000000,0.000000,0.000000,0.000000,0.000000,0.000000,0.000000,254.951645,0.000000,0.000000,0.000000,0.000000,0.000000
0.000000,0.000000,0.000000,1.000000,0.000000,0.000000,0.000000,0.000000,0,0,0,0,0,0,32.0141825072,34.8668671716,-9999.000000,0.000000,0.424000,121.400002,0.000000,0.000000,0.000000,0.000000,0.000000,390.226257,1.193444,12.000000,40.000000,0.000000,0.000000,0.000000,0.000000,0.000000,0.000000,0.000000,254.951645,0.000000,0.000000,0.000000,0.000000,0.000000
0.000000,0.000000,0.000000,1.000000,0.000000,0.000000,0.000000,0.000000,0,0,0,0,0,0,32.0141825072,34.8668671716,-9999.000000,0.000000,0.424000,121.400002,0.000000,0.000000,0.000000,0.000000,0.000000,390.226257,1.193444,12.000000,40.000000,0.000000,0.000000,0.000000,0.000000,0.000000,0.000000,0.000000,254.951645,0.000000,0.000000,0.000000,0.000000,0.000000
0.000000,0.000000,0.000000,1.000000,0.000000,0.000000,0.000000,0.000000,0,0,0,0,0,0,32.0141825072,34.8668671716,-9999.000000,0.000000,0.424000,121.400002,0.000000,0.000000,0.000000,0.000000,0.000000,390.226257,1.193444,12.000000,40.000000,0.000000,0.000000,0.000000,0.000000,0.000000,0.000000,0.000000,254.951645,0.000000,0.000000,0.000000,0.000000,0.000000
0.000000,0.000000,0.000000,1.000000,0.000000,0.000000,0.000000,0.000000,0,0,0,0,0,0,32.0141825072,34.8668671716,-9999.000000,0.000000,0.424000,121.400002,0.000000,0.000000,0.000000,0.000000,0.000000,390.226257,1.193444,12.000000,40.000000,0.000000,0.000000,0.000000,0.000000,0.000000,0.000000,0.000000,254.951645,0.000000,0.000000,0.000000,0.000000,0.000000
0.000000,0.000000,0.000000,1.000000,0.000000,0.000000,0.000000,0.000000,0,0,0,0,0,0,32.0141825072,34.8668671716,-9999.000000,0.000000,0.424000,121.400002,0.000000,0.000000,0.000000,0.000000,0.000000,390.226257,1.193444,12.000000,40.000000,0.000000,0.000000,0.000000,0.000000,0.000000,0.000000,0.000000,254.951645,0.000000,0.000000,0.000000,0.000000,0.000000
0.000000,0.000000,0.000000,1.000000,0.000000,0.000000,0.000000,0.000000,0,0,0,0,0,0,32.0141825072,34.8668671716,-9999.000000,0.000000,0.424000,121.400002,0.000000,0.000000,0.000000,0.000000,0.000000,390.226257,1.193444,12.000000,40.000000,0.000000,0.000000,0.000000,0.000000,0.000000,0.000000,0.000000,254.951645,0.000000,0.000000,0.000000,0.000000,0.000000
0.000000,0.000000,0.000000,1.000000,0.000000,0.000000,0.000000,0.000000,0,0,0,0,0,0,32.0141825072,34.8668671716,-9999.000000,0.000000,0.424000,121.400002,0.000000,0.000000,0.000000,0.000000,0.000000,390.226257,1.193444,12.000000,40.000000,0.000000,0.000000,0.000000,0.000000,0.000000,0.000000,0.000000,254.951645,0.000000,0.000000,0.000000,0.000000,0.000000
0.000000,0.000000,0.000000,1.000000,0.000000,0.000000,0.000000,0.000000,0,0,0,0,0,0,32.0141825072,34.8668671716,-9999.000000,0.000000,0.424000,121.400002,0.000000,0.000000,0.000000,0.000000,0.000000,390.226257,1.193444,12.000000,40.000000,0.000000,0.000000,0.000000,0.000000,0.000000,0.000000,0.000000,254.951645,0.000000,0.000000,0.000000,0.000000,0.000000
0.000000,0.000000,0.000000,1.000000,0.000000,0.000000,0.000000,0.000000,0,0,0,0,0,0,32.0141825072,34.8668671716,-9999.000000,0.000000,0.424000,121.400002,0.000000,0.000000,0.000000,0.000000,0.000000,390.226257,1.193444,12.000000,40.000000,0.000000,0.000000,0.000000,0.000000,0.000000,0.000000,0.000000,254.951645,0.000000,0.000000,0.000000,0.000000,0.000000
0.000000,0.000000,0.000000,1.000000,0.000000,0.000000,0.000000,0.000000,0,0,0,0,0,0,32.0141825072,34.8668671716,-9999.000000,0.000000,0.424000,121.400002,0.000000,0.000000,0.000000,0.000000,0.000000,390.226257,1.193444,12.000000,40.000000,0.000000,0.000000,0.000000,0.000000,0.000000,0.000000,0.000000,254.951645,0.000000,0.000000,0.000000,0.000000,0.000000
0.000000,0.000000,0.000000,1.000000,0.000000,0.000000,0.000000,0.000000,0,0,0,0,0,0,32.0141825072,34.8668671716,-9999.000000,0.000000,0.424000,121.400002,0.000000,0.000000,0.000000,0.000000,0.000000,390.226257,1.193444,12.000000,40.000000,0.000000,0.000000,0.000000,0.000000,0.000000,0.000000,0.000000,254.951645,0.000000,0.000000,0.000000,0.000000,0.000000
0.000000,0.000000,0.000000,1.000000,0.000000,0.000000,0.000000,0.000000,0,0,0,0,0,0,32.0141825072,34.8668671716,-9999.000000,0.000000,0.424000,121.400002,0.000000,0.000000,0.000000,0.000000,0.000000,390.226257,1.193444,12.000000,40.000000,0.000000,0.000000,0.000000,0.000000,0.000000,0.000000,0.000000,254.951645,0.000000,0.000000,0.000000,0.000000,0.000000
0.000000,0.000000,0.000000,1.000000,0.000000,0.000000,0.000000,0.000000,0,0,0,0,0,0,32.0141825072,34.8668671716,-9999.000000,0.000000,0.424000,121.400002,0.000000,0.000000,0.000000,0.000000,0.000000,390.226257,1.193444,12.000000,40.000000,0.000000,0.000000,0.000000,0.000000,0.000000,0.000000,0.000000,254.951645,0.000000,0.000000,0.000000,0.000000,0.000000
0.000000,0.000000,0.000000,1.000000,0.000000,0.000000,0.000000,0.000000,0,0,0,0,0,0,32.0141825072,34.8668671716,-9999.000000,0.000000,0.424000,121.400002,0.000000,0.000000,0.000000,0.000000,0.000000,390.226257,1.193444,12.000000,40.000000,0.000000,0.000000,0.000000,0.000000,0.000000,0.000000,0.000000,254.951645,0.000000,0.000000,0.000000,0.000000,0.000000
0.000000,0.000000,0.000000,1.000000,0.000000,0.000000,0.000000,0.000000,0,0,0,0,0,0,32.0141825072,34.8668671716,-9999.000000,0.000000,0.424000,121.400002,0.000000,0.000000,0.000000,0.000000,0.000000,390.226257,1.193444,12.000000,40.000000,0.000000,0.000000,0.000000,0.000000,0.000000,0.000000,0.000000,254.951645,0.000000,0.000000,0.000000,0.000000,0.000000
0.000000,0.000000,0.000000,1.000000,0.000000,0.000000,0.000000,0.000000,0,0,0,0,0,0,32.0141825072,34.8668671716,-9999.000000,0.000000,0.424000,121.400002,0.000000,0.000000,0.000000,0.000000,0.000000,390.226257,1.193444,12.000000,40.000000,0.000000,0.000000,0.000000,0.000000,0.000000,0.000000,0.000000,254.951645,0.000000,0.000000,0.000000,0.000000,0.000000
0.000000,0.000000,0.000000,1.000000,0.000000,0.000000,0.000000,0.000000,0,0,0,0,0,0,32.0141825072,34.8668671716,-9999.000000,0.000000,0.424000,121.400002,0.000000,0.000000,0.000000,0.000000,0.000000,390.226257,1.193444,12.000000,40.000000,0.000000,0.000000,0.000000,0.000000,0.000000,0.000000,0.000000,254.951645,0.000000,0.000000,0.000000,0.000000,0.000000
0.000000,0.000000,0.000000,1.000000,0.000000,0.000000,0.000000,0.000000,0,0,0,0,0,0,32.0141825072,34.8668671716,-9999.000000,0.000000,0.424000,121.400002,0.000000,0.000000,0.000000,0.000000,0.000000,390.226257,1.193444,12.000000,40.000000,0.000000,0.000000,0.000000,0.000000,0.000000,0.000000,0.000000,254.951645,0.000000,0.000000,0.000000,0.000000,0.000000
0.000000,0.000000,0.000000,1.000000,0.000000,0.000000,0.000000,0.000000,0,0,0,0,0,0,32.0141825072,34.8668671716,-9999.000000,0.000000,0.424000,121.400002,0.000000,0.000000,0.000000,0.000000,0.000000,390.226257,1.193444,12.000000,40.000000,0.000000,0.000000,0.000000,0.000000,0.000000,0.000000,0.000000,254.951645,0.000000,0.000000,0.000000,0.000000,0.000000
0.000000,0.000000,0.000000,1.000000,0.000000,0.000000,0.000000,0.000000,0,0,0,0,0,0,32.0141825072,34.8668671716,-9999.000000,0.000000,0.424000,121.400002,0.000000,0.000000,0.000000,0.000000,0.000000,390.226257,1.193444,12.000000,40.000000,0.000000,0.000000,0.000000,0.000000,0.000000,0.000000,0.000000,254.951645,0.000000,0.000000,0.000000,0.000000,0.000000
0.000000,0.000000,0.000000,1.000000,0.000000,0.000000,0.000000,0.000000,0,0,0,0,0,0,32.0141825072,34.8668671716,-9999.000000,0.000000,0.424000,121.400002,0.000000,0.000000,0.000000,0.000000,0.000000,390.226257,1.193444,12.000000,40.000000,0.000000,0.000000,0.000000,0.000000,0.000000,0.000000,0.000000,254.951645,0.000000,0.000000,0.000000,0.000000,0.000000
0.000000,0.000000,0.000000,1.000000,0.000000,0.000000,0.000000,0.000000,0,0,0,0,0,0,32.0141825072,34.8668671716,-9999.000000,0.000000,0.424000,121.400002,0.000000,0.000000,0.000000,0.000000,0.000000,390.226257,1.193444,12.000000,40.000000,0.000000,0.000000,0.000000,0.000000,0.000000,0.000000,0.000000,254.951645,0.000000,0.000000,0.000000,0.000000,0.000000
0.000000,0.000000,0.000000,1.000000,0.000000,0.000000,0.000000,0.000000,0,0,0,0,0,0,32.0141825072,34.8668671716,-9999.000000,0.000000,0.424000,121.400002,0.000000,0.000000,0.000000,0.000000,0.000000,390.226257,1.193444,12.000000,40.000000,0.000000,0.000000,0.000000,0.000000,0.000000,0.000000,0.000000,254.951645,0.000000,0.000000,0.000000,0.000000,0.000000
0.000000,0.000000,0.000000,1.000000,0.000000,0.000000,0.000000,0.000000,0,0,0,0,0,0,32.0141825072,34.8668671716,-9999.000000,0.000000,0.424000,121.400002,0.000000,0.000000,0.000000,0.000000,0.000000,390.226257,1.193444,12.000000,40.000000,0.000000,0.000000,0.000000,0.000000,0.000000,0.000000,0.000000,254.951645,0.000000,0.000000,0.000000,0.000000,0.000000
0.000000,0.000000,0.000000,1.000000,0.000000,0.000000,0.000000,0.000000,0,0,0,0,0,0,32.0141825072,34.8668671716,-9999.000000,0.000000,0.424000,121.400002,0.000000,0.000000,0.000000,0.000000,0.000000,390.226257,1.193444,12.000000,40.000000,0.000000,0.000000,0.000000,0.000000,0.000000,0.000000,0.000000,254.951645,0.000000,0.000000,0.000000,0.000000,0.000000
0.000000,0.000000,0.000000,1.000000,0.000000,0.000000,0.000000,0.000000,0,0,0,0,0,0,32.0141825072,34.8668671716,-9999.000000,0.000000,0.424000,121.400002,0.000000,0.000000,0.000000,0.000000,0.000000,390.226257,1.193444,12.000000,40.000000,0.000000,0.000000,0.000000,0.000000,0.000000,0.000000,0.000000,254.951645,0.000000,0.000000,0.000000,0.000000,0.000000
0.000000,0.000000,0.000000,1.000000,0.000000,0.000000,0.000000,0.000000,0,0,0,0,0,0,32.0141825072,34.8668671716,-9999.000000,0.000000,0.424000,121.400002,0.000000,0.000000,0.000000,0.000000,0.000000,390.226257,1.193444,12.000000,40.000000,0.000000,0.000000,0.000000,0.000000,0.000000,0.000000,0.000000,254.951645,0.000000,0.000000,0.000000,0.000000,0.000000
0.000000,0.000000,0.000000,1.000000,0.000000,0.000000,0.000000,0.000000,0,0,0,0,0,0,32.0141825072,34.8668671716,-9999.000000,0.000000,0.424000,121.400002,0.000000,0.000000,0.000000,0.000000,0.000000,390.226257,1.193444,12.000000,40.000000,0.000000,0.000000,0.000000,0.000000,0.000000,0.000000,0.000000,254.951645,0.000000,0.000000,0.000000,0.000000,0.000000
0.000000,0.000000,0.000000,1.000000,0.000000,0.000000,0.000000,0.000000,0,0,0,0,0,0,32.0141825072,34.8668671716,-9999.000000,0.000000,0.424000,121.400002,0.000000,0.000000,0.000000,0.000000,0.000000,390.226257,1.193444,12.000000,40.000000,0.000000,0.000000,0.000000,0.000000,0.000000,0.000000,0.000000,254.951645,0.000000,0.000000,0.000000,0.000000,0.000000
0.000000,0.000000,0.000000,1.000000,0.000000,0.000000,0.000000,0.000000,0,0,0,0,0,0,32.0141825072,34.8668671716,-9999.000000,0.000000,0.424000,121.400002,0.000000,0.000000,0.000000,0.000000,0.000000,390.226257,1.193444,12.000000,40.000000,0.000000,0.000000,0.000000,0.000000,0.000000,0.000000,0.000000,254.951645,0.000000,0.000000,0.000000,0.000000,0.000000
0.000000,0.000000,0.000000,0.000000,0.000000,0.000000,0.000000,0.000000,0,0,0,0,0,0,32.0141827131,34.8668660992,107.687912,-0.159268,-0.729272,121.399879,0.000000,0.000000,0.000000,0.000000,0.000000,390.226257,1.193444,12.000000,40.000000,0.000000,0.000000,0.000000,0.000000,0.000000,0.000000,0.000000,254.951645,0.000000,0.000000,0.000000,0.000000,0.000000
0.000000,0.000000,0.000000,0.000000,0.000000,0.000000,0.000000,0.000000,0,0,0,0,0,0,32.0141827140,34.8668661024,107.687698,-0.168711,-0.737100,121.400063,31.309732,3.016499,-0.836149,-0.000044,0.000000,500.325531,111.292717,12.000000,40.000000,0.000000,0.000000,110.000145,110.000000,107.687698,0.000007,-0.002746,254.951614,10.175203,0.002483,-0.985256,2747.019531,0.000000
0.000000,0.000000,0.000000,0.000000,0.000000,0.000000,0.000000,0.000000,0,0,0,0,0,0,32.0141827141,34.8668661019,107.687737,-0.168402,-0.735368,121.400055,37.493694,2.737261,0.826880,0.000009,0.000000,471.954346,82.921539,12.000000,40.000000,0.000000,0.000000,80.000145,80.000000,107.687737,0.000006,0.000603,254.951614,36.224037,0.003245,-1.582221,848.530151,0.000000
0.000000,0.000000,0.000000,0.000000,0.000000,0.000000,0.000000,0.000000,0,0,0,0,0,0,32.0141827143,34.8668661015,107.687782,-0.168205,-0.733733,121.400047,44.975079,2.496702,0.856596,0.000009,0.000000,443.579163,54.546349,12.000000,40.000000,0.000000,0.000000,50.000141,50.000000,107.687782,0.000005,0.000536,254.951614,70.620522,0.003499,-1.943920,-730.909180,0.000000
0.000000,0.000000,0.000000,0.000000,0.000000,0.000000,0.000000,0.000000,0,0,0,0,0,0,32.0141827144,34.8668661014,107.687790,-0.168181,-0.733323,121.400047,47.780972,2.427191,0.606825,0.000032,2.652521,434.411194,45.378387,12.000000,40.000000,0.000000,0.000000,50.000141,50.000000,107.687790,0.000004,0.001272,254.951614,82.593399,0.003544,-2.029452,-988.033264,0.000000
0.000000,0.000000,0.000000,0.000000,0.000000,0.000000,0.000000,0.000000,0,0,0,0,0,0,32.0141827144,34.8668661014,107.687798,-0.168175,-0.733183,121.400047,49.095264,2.397888,0.442584,0.000034,4.935789,430.813293,41.780499,12.000000,40.000000,0.000000,0.000000,40.000141,40.000000,107.687798,0.000004,0.001741,254.951614,87.932526,0.003559,-2.063521,-1048.360596,0.000000
0.000000,0.000000,0.000000,0.000000,0.000000,0.000000,0.000000,0.000000,0,0,0,0,0,0,32.0141827144,34.8668661013,107.687798,-0.168174,-0.733079,121.400047,49.989231,2.379064,0.394388,0.000034,5.841577,428.359161,39.326347,12.000000,40.000000,0.000000,0.000000,40.000141,40.000000,107.687798,0.000004,0.002009,254.951614,91.458710,0.003565,-2.084852,-1086.684448,0.000000
0.000000,0.000000,0.000000,0.000000,0.000000,0.000000,0.000000,0.000000,0,0,0,0,0,0,32.0141827144,34.8668661013,107.687798,-0.168176,-0.732960,121.400047,50.897301,2.360827,0.403891,0.000039,6.139486,425.656555,36.623756,12.000000,40.000000,0.000000,0.000000,40.000141,40.000000,107.687798,0.000004,0.001976,254.951614,94.950775,0.003571,-2.105140,-1133.666382,0.000000
0.000000,0.000000,0.000000,0.000000,0.000000,0.000000,0.000000,0.000000,0,0,0,0,0,0,32.0141827144,34.8668661013,107.687805,-0.168181,-0.732820,121.400047,51.896832,2.341748,0.397071,0.000039,6.143396,422.580048,33.547249,12.000000,40.000000,0.000000,0.000000,40.000141,40.000000,107.687805,0.000004,0.002076,254.951614,98.688095,0.003577,-2.126001,-1185.397827,0.000000
0.000000,0.000000,0.000000,0.000000,0.000000,0.000000,0.000000,0.000000,0,0,0,0,0,0,32.0141827144,34.8668661012,107.687813,-0.168192,-0.732652,121.400047,53.070202,2.320632,0.398737,0.000040,5.921071,418.926575,29.893776,12.000000,40.000000,0.000000,0.000000,30.000143,30.000000,107.687813,0.000004,0.002377,254.951614,102.931534,0.003585,-2.148707,-1241.393066,0.000000
0.000000,0.000000,0.000000,0.000000,0.000000,0.000000,0.000000,0.000000,0,0,0,0,0,0,32.0141827145,34.8668661012,107.687813,-0.168203,-0.732513,121.400047,54.104259,2.303130,0.413032,0.000041,6.065814,415.923920,26.891115,12.000000,40.000000,0.000000,0.000000,30.000143,30.000000,107.687813,0.000004,0.002478,254.951614,106.541168,0.003590,-2.167267,-1276.208862,0.000000
0.000000,0.000000,0.000000,0.000000,0.000000,0.000000,0.000000,0.000000,0,0,0,0,0,0,32.0141827145,34.8668661012,107.687820,-0.168220,-0.732361,121.400047,55.235180,2.285135,0.397169,0.000040,6.010444,412.585297,23.552481,12.000000,40.000000,0.000000,0.000000,30.000143,30.000000,107.687820,0.000004,0.002143,254.951614,110.349380,0.003597,-2.186159,-1314.090698,0.000000
0.000000,0.000000,0.000000,0.000000,0.000000,0.000000,0.000000,0.000000,0,0,0,0,0,0,32.0141827146,34.8668661011,107.687836,-0.168325,-0.731807,121.400047,58.731686,2.236641,0.638801,0.000037,2.646176,401.544830,12.512044,12.000000,40.000000,0.000000,0.000000,10.000142,10.000000,107.687836,0.000003,0.002076,254.951614,121.201698,0.003616,-2.236640,-1419.884766,0.000000
0.000000,0.000000,0.000000,0.000000,0.000000,0.000000,0.000000,0.000000,0,0,0,0,0,0,32.0141827148,34.8668661008,107.687874,-0.168925,-0.730518,121.400055,69.418900,2.147487,0.831544,0.000007,0.000000,373.633820,-15.398990,12.000000,40.000000,0.000000,0.000000,-19.999857,-20.000000,107.687874,0.000003,0.000368,254.951614,146.107620,0.003731,-2.340431,-1347.021851,0.000000
0.000000,0.000000,0.000000,0.000000,0.000000,0.000000,0.000000,0.000000,0,0,0,0,0,0,32.0141827149,34.8668661008,107.687874,-0.169016,-0.730415,121.400055,71.362236,2.139893,0.259324,0.000016,4.499206,369.661469,-19.371340,12.000000,40.000000,0.000000,0.000000,-19.999857,-20.000000,107.687874,0.000003,0.001272,254.951614,149.374924,0.003734,-2.353827,-1352.182373,0.000000
0.000000,0.000000,0.000000,0.000000,0.000000,0.000000,0.000000,0.000000,0,0,0,0,0,0,32.0141827149,34.8668661008,107.687874,-0.169116,-0.730302,121.400055,72.851280,2.135772,0.248447,0.000021,5.397600,366.379333,-22.653460,12.000000,40.000000,0.000000,0.000000,-19.999857,-20.000000,107.687874,0.000003,0.001205,254.951614,151.628036,0.003740,-2.363273,-1368.628418,0.000000
0.000000,0.000000,0.000000,0.000000,0.000000,0.000000,0.000000,0.000000,0,0,0,0,0,0,32.0141827149,34.8668661008,107.687881,-0.169210,-0.730200,121.400055,74.064865,2.133491,0.269748,0.000026,5.896324,363.659515,-25.373299,12.000000,40.000000,0.000000,0.000000,-19.999857,-20.000000,107.687881,0.000003,0.001373,254.951614,153.306198,0.003745,-2.370497,-1383.596802,0.000000
0.000000,0.000000,0.000000,0.000000,0.000000,0.000000,0.000000,0.000000,0,0,0,0,0,0,32.0141827150,34.8668661008,107.687881,-0.169342,-0.730068,121.400063,75.467705,2.132051,0.257245,0.000028,5.842338,360.250977,-28.781815,12.000000,40.000000,0.000000,0.000000,-29.999857,-30.000000,107.687881,0.000002,0.001708,254.951614,155.071320,0.003754,-2.378359,-1411.067627,0.000000
0.000000,0.000000,0.000000,0.000000,0.000000,0.000000,0.000000,0.000000,0,0,0,0,0,0,32.0141827150,34.8668661008,107.687889,-0.169500,-0.729917,121.400063,76.965355,2.131928,0.267607,0.000030,5.709244,356.588287,-32.444508,12.000000,40.000000,0.000000,0.000000,-29.999857,-30.000000,107.687889,0.000002,0.002277,254.951614,156.750931,0.003771,-2.386220,-1438.110596,0.000000
0.000000,0.000000,0.000000,0.000000,0.000000,0.000000,0.000000,0.000000,0,0,0,0,0,0,32.0141827151,34.8668661008,107.687889,-0.169667,-0.729767,121.400063,78.462212,2.133261,0.280546,0.000033,5.674046,352.968079,-36.064716,12.000000,40.000000,0.000000,0.000000,-29.999857,-30.000000,107.687889,0.000002,0.002076,254.951614,158.220474,0.003788,-2.393572,-1460.323364,0.000000
0.000000,0.000000,0.000000,0.000000,0.000000,0.000000,0.000000,0.000000,0,0,0,0,0,0,32.0141827153,34.8668661007,107.687904,-0.170290,-0.729272,121.400078,82.373329,2.143690,0.505087,0.000034,2.593917,342.580505,-46.452297,12.000000,40.000000,0.000000,0.000000,-49.999859,-50.000000,107.687904,0.000002,0.001373,254.951614,161.083405,0.003866,-2.410691,-1522.278442,0.000000
0.000000,0.000000,0.000000,0.000000,0.000000,0.000000,0.000000,0.000000,0,0,0,0,0,0,32.0141827136,34.8668660996,107.687965,-0.162199,-0.729332,121.399933,86.857780,2.226842,0.973710,0.000007,0.000000,315.258972,-73.773819,12.000000,40.000000,0.000000,0.000000,-69.999855,-70.000000,107.687965,0.000002,0.000234,254.951614,161.709229,0.003303,-2.445888,-1405.648926,0.000000
0.000000,0.000000,0.000000,0.000000,0.000000,0.000000,0.000000,0.200000,0,0,0,0,0,0,32.0141827136,34.8668660996,107.687958,-0.162193,-0.729241,121.399933,85.074326,2.249084,-0.233714,-0.000009,4.478744,311.286591,-77.746223,12.000000,40.000000,0.000000,0.000000,-79.999855,-80.000000,107.687958,0.000002,-0.000737,254.951614,160.769485,0.003194,-2.450431,-1403.137939,0.000000
0.000000,0.000000,0.000000,0.000000,0.000000,0.000000,0.200000,0.200000,0,0,0,0,0,0,32.0141827137,34.8668660995,107.687958,-0.162195,-0.729178,121.399933,83.821686,2.266285,-0.444724,-0.000015,5.472561,102.965836,-80.765442,12.000000,40.000000,0.000000,0.000000,-79.999855,-80.000000,107.687958,0.000002,-0.001239,254.945511,159.928131,0.003117,-2.453440,-1410.914429,0.000000
0.000000,0.000000,0.000000,0.000000,0.000000,0.000000,0.200000,0.200000,0,0,0,0,0,0,32.0141827137,34.8668660995,107.687958,-0.162199,-0.729134,121.399933,82.669846,2.283304,-0.461963,-0.000011,5.816354,99.952789,-83.778488,12.000000,40.000000,0.000000,0.000000,-79.999855,-80.000000,107.687958,0.000002,-0.001139,254.945511,159.021042,0.003049,-2.456084,-1426.418701,0.000000
0.000000,0.000000,0.000000,0.000000,0.000000,0.000000,0.200000,0.200000,0,0,0,0,0,0,32.0141827137,34.8668660995,107.687958,-0.162209,-0.729101,121.399933,81.535461,2.301233,-0.393841,-0.000008,5.915104,96.839462,-86.891815,12.000000,40.000000,0.000000,0.000000,-79.999855,-80.000000,107.687958,0.000002,-0.000368,254.945511,158.001587,0.003003,-2.458577,-1444.911255,0.000000
0.000000,0.000000,0.000000,0.000000,0.000000,0.000000,0.200000,0.200000,0,0,0,0,0,0,32.0141827137,34.8668660995,107.687950,-0.162219,-0.729073,121.399933,80.498123,2.318677,-0.188666,-0.000004,6.045786,93.969147,-89.762131,12.000000,40.000000,0.000000,0.000000,-89.999855,-90.000000,107.687950,0.000002,-0.000469,254.945511,156.959000,0.002963,-2.460766,-1459.755493,0.000000
0.000000,0.000000,0.000000,0.000000,0.000000,0.000000,0.200000,0.200000,0,0,0,0,0,0,32.0141827137,34.8668660995,107.687950,-0.162237,-0.729046,121.399933,79.398582,2.338301,-0.072708,-0.000001,5.983632,90.784088,-92.947189,12.000000,40.000000,0.000000,0.000000,-89.999855,-90.000000,107.687950,0.000002,0.000134,254.945511,155.738083,0.002916,-2.462993,-1478.238037,0.000000
0.000000,0.000000,0.000000,0.000000,0.000000,0.000000,0.200000,0.200000,0,0,0,0,0,0,32.0141827137,34.8668660995,107.687950,-0.162259,-0.729013,121.399933,78.241280,2.360270,0.118055,0.000003,5.850791,87.344856,-96.386421,12.000000,40.000000,0.000000,0.000000,-89.999855,-90.000000,107.687950,0.000001,0.000402,254.945511,154.323273,0.002877,-2.465240,-1497.113281,0.000000
0.000000,0.000000,0.000000,0.000000,0.000000,0.000000,0.200000,0.200000,0,0,0,0,0,0,32.0141827137,34.8668660995,107.687950,-0.162281,-0.728981,121.399933,77.105598,2.383182,0.241483,0.000005,5.812153,83.948181,-99.783096,12.000000,40.000000,0.000000,0.000000,-99.999855,-100.000000,107.687950,0.000001,0.000134,254.945511,152.805038,0.002850,-2.467350,-1512.366821,0.000000
0.000000,0.000000,0.000000,0.000000,0.000000,0.000000,0.200000,0.200000,0,0,0,0,0,0,32.0141827137,34.8668660995,107.687958,-0.162388,-0.728843,121.399933,73.831268,2.457339,0.512845,0.000007,2.273315,72.769470,-110.961807,12.000000,40.000000,0.000000,0.000000,-109.999855,-110.000000,107.687958,0.000001,0.000301,254.945511,147.702820,0.002781,-2.472943,-1563.430908,0.000000
0.000000,0.000000,0.000000,0.000000,0.000000,0.000000,0.200000,0.200000,0,0,0,0,0,0,32.0141827137,34.8668660995,107.687958,-0.162413,-0.728813,121.399933,72.646553,2.487351,0.420839,0.000009,4.939989,69.635223,-114.096046,12.000000,40.000000,0.000000,0.000000,-109.999855,-110.000000,107.687958,0.000001,0.000670,254.945511,145.591446,0.002761,-2.474797,-1544.325684,0.000000
0.000000,0.000000,0.000000,0.000000,0.000000,0.000000,0.200000,0.200000,0,0,0,0,0,0,32.0141827138,34.8668660995,107.687958,-0.162441,-0.728786,121.399940,71.692474,2.512851,0.347097,0.000009,5.664544,66.761856,-116.969421,12.000000,40.000000,0.000000,0.000000,-119.999855,-120.000000,107.687958,0.000001,0.000536,254.945511,143.789246,0.002746,-2.476228,-1542.365967,0.000000
0.000000,0.000000,0.000000,0.000000,0.000000,0.000000,0.200000,0.200000,0,0,0,0,0,0,32.0141827138,34.8668660995,107.687958,-0.162472,-0.728750,121.399940,70.757759,2.539035,0.285918,0.000009,5.864532,63.689819,-120.041458,12.000000,40.000000,0.000000,0.000000,-119.999855,-120.000000,107.687958,0.000001,0.000837,254.945511,141.936340,0.002734,-2.477578,-1548.794312,0.000000
0.000000,0.000000,0.000000,0.000000,0.000000,0.000000,0.200000,0.200000,0,0,0,0,0,0,32.0141827138,34.8668660995,107.687958,-0.162511,-0.728711,121.399940,69.777603,2.567827,0.372720,0.000012,5.812112,60.285168,-123.446106,12.000000,40.000000,0.000000,0.000000,-119.999855,-120.000000,107.687958,0.000001,0.000737,254.945511,139.901855,0.002723,-2.478939,-1559.582153,0.000000
0.000000,0.000000,0.000000,0.000000,0.000000,0.000000,0.200000,0.200000,0,0,0,0,0,0,32.0141827138,34.8668660995,107.687965,-0.162550,-0.728675,121.399940,68.882622,2.595362,0.388643,0.000013,5.904190,57.171124,-126.560150,12.000000,40.000000,0.000000,0.000000,-119.999855,-120.000000,107.687965,0.000001,0.000837,254.945511,137.963531,0.002716,-2.480135,-1566.325073,0.000000
0.000000,0.000000,0.000000,0.000000,0.000000,0.000000,0.200000,0.200000,0,0,0,0,0,0,32.0141827138,34.8668660995,107.687965,-0.162594,-0.728634,121.399940,67.944794,2.625556,0.403889,0.000014,5.821514,53.753605,-129.977676,12.000000,40.000000,0.000000,0.000000,-129.999863,-130.000000,107.687965,0.000001,0.000770,254.945511,135.851547,0.002708,-2.481341,-1576.074463,0.000000
0.000000,0.000000,0.000000,0.000000,0.000000,0.000000,0.200000,0.200000,0,0,0,0,0,0,32.0141827138,34.8668660995,107.687965,-0.162606,-0.728592,121.399940,67.057625,2.630622,0.442145,0.000010,5.683134,50.089073,-133.642197,12.000000,40.000000,0.000000,0.000000,-129.999863,-130.000000,107.687965,0.000001,0.000636,254.945511,133.566833,0.002711,-2.482547,-1586.126587,0.000000
0.000000,0.000000,0.000000,0.000000,0.000000,0.000000,0.200000,0.200000,0,0,0,0,0,0,32.0141827138,34.8668660994,107.687965,-0.162586,-0.728563,121.399940,66.312828,2.625837,0.413956,0.000009,5.866699,47.014271,-136.717010,12.000000,40.000000,0.000000,0.000000,-129.999863,-130.000000,107.687965,0.000001,0.000100,254.945511,131.547501,0.002713,-2.483538,-1589.143799,0.000000
0.000000,0.000000,0.000000,0.000000,0.000000,0.000000,0.200000,0.200000,0,0,0,0,0,0,32.0141827138,34.8668660994,107.687965,-0.162425,-0.728482,121.399933,64.063530,2.614136,0.372222,0.000005,2.566745,36.538334,-147.192947,12.000000,40.000000,0.000000,0.000000,-149.999863,-150.000000,107.687965,0.000001,0.000033,254.945511,125.436119,0.002682,-2.486186,-1624.032349,0.000000
0.000000,0.000000,0.000000,0.000000,0.000000,0.000000,0.200000,0.200000,0,0,0,0,0,0,32.0141827137,34.8668660993,107.687973,-0.162041,-0.728329,121.399925,57.567276,2.603183,1.055997,0.000002,1.002986,9.224021,-174.507248,12.000000,40.000000,0.000000,0.000000,-169.999863,-170.000000,107.687973,0.000001,0.000000,254.945511,108.650963,0.002609,-2.491630,-1465.470581,0.000000
0.000000,0.000000,0.000000,0.000000,0.000000,0.000000,0.200000,0.200000,0,0,0,0,0,0,32.0141827137,34.8668660993,107.687973,-0.162005,-0.728314,121.399925,56.374420,2.604823,0.020471,0.000000,4.624743,4.997432,-178.733841,12.000000,40.000000,0.000000,0.000000,-179.999863,-180.000000,107.687973,0.000001,-0.000100,254.945511,105.849892,0.002608,-2.492364,-1457.493530,0.000000
0.000000,0.000000,0.000000,0.000000,0.000000,0.000000,0.200000,0.200000,0,0,0,0,0,0,32.0141827137,34.8668660993,107.687973,-0.161971,-0.728301,121.399925,55.507954,2.606722,0.102342,0.000002,5.570071,1.739092,-181.992188,12.000000,40.000000,0.000000,0.000000,-179.999863,-180.000000,107.687973,0.000001,-0.000033,254.945511,103.890549,0.002600,-2.492858,-1461.554077,0.000000
0.000000,0.000000,0.000000,0.000000,0.000000,0.000000,0.200000,0.200000,0,0,0,0,0,0,32.0141827137,34.8668660993,107.687973,-0.161940,-0.728288,121.399925,54.750938,2.608871,0.264418,0.000005,5.987940,-1.241174,-184.972443,12.000000,40.000000,0.000000,0.000000,-179.999863,-180.000000,107.687973,0.000001,0.000301,254.945511,102.234482,0.002593,-2.493263,-1470.723022,0.000000
0.000000,0.000000,0.000000,0.000000,0.000000,0.000000,0.200000,0.200000,0,0,0,0,0,0,32.0141827137,34.8668660993,107.687973,-0.161901,-0.728274,121.399925,53.887424,2.611884,0.178533,0.000004,5.902633,-4.890813,-188.622086,12.000000,40.000000,0.000000,0.000000,-189.999863,-190.000000,107.687973,0.000001,-0.000134,254.945511,100.412804,0.002589,-2.493699,-1490.264404,0.000000
0.000000,0.000000,0.000000,0.000000,0.000000,0.000000,0.200000,0.200000,0,0,0,0,0,0,32.0141827137,34.8668660993,107.687973,-0.161867,-0.728260,121.399925,53.079800,2.615245,0.301320,0.000006,5.993990,-8.233948,-191.965225,12.000000,40.000000,0.000000,0.000000,-189.999863,-190.000000,107.687973,0.000001,0.000134,254.945511,98.777489,0.002581,-2.494081,-1503.611938,0.000000
0.000000,0.000000,0.000000,0.000000,0.000000,0.000000,0.200000,0.200000,0,0,0,0,0,0,32.0141827137,34.8668660993,107.687973,-0.161830,-0.728242,121.399925,52.220776,2.619402,0.234986,0.000004,5.918281,-11.877489,-195.608765,12.000000,40.000000,0.000000,0.000000,-189.999863,-190.000000,107.687973,0.000001,0.000335,254.945511,97.114304,0.002575,-2.494464,-1519.531738,0.000000
0.000000,0.000000,0.000000,0.000000,0.000000,0.000000,0.200000,0.200000,0,0,0,0,0,0,32.0141827137,34.8668660992,107.687973,-0.161721,-0.728184,121.399925,49.927254,2.633473,0.566514,0.000005,3.039139,-22.512585,-206.243866,12.000000,40.000000,0.000000,0.000000,-209.999863,-210.000000,107.687973,0.000001,0.000536,254.945511,93.086021,0.002556,-2.495374,-1566.279663,0.000000
0.000000,0.000000,0.000000,0.000000,0.000000,0.000000,0.200000,0.200000,0,0,0,0,0,0,32.0141827137,34.8668660992,107.687981,-0.161510,-0.728032,121.399918,43.693237,2.694569,-0.569949,-0.000001,1.767834,-49.808010,-233.539291,12.000000,40.000000,0.000000,0.000000,-229.999863,-230.000000,107.687981,0.000001,0.000000,254.945511,85.568169,0.002500,-2.497197,-1427.676880,0.000000
0.000000,0.000000,0.000000,0.000000,0.000000,0.000000,0.200000,0.200000,0,0,0,0,0,0,32.0141827137,34.8668660992,107.687981,-0.161485,-0.728017,121.399918,42.534130,2.709829,0.279392,0.000004,4.769131,-54.290539,-238.021820,12.000000,40.000000,0.000000,0.000000,-239.999863,-240.000000,107.687981,0.000001,0.000067,254.945511,84.778572,0.002498,-2.497454,-1426.314819,0.000000
0.000000,0.000000,0.000000,0.000000,0.000000,0.000000,0.200000,0.200000,0,0,0,0,0,0,32.0141827137,34.8668660992,107.687981,-0.161467,-0.728001,121.399918,41.735550,2.721091,0.294816,0.000004,5.748682,-57.526104,-241.257385,12.000000,40.000000,0.000000,0.000000,-239.999863,-240.000000,107.687981,0.000001,0.000335,254.945511,84.352180,0.002496,-2.497618,-1432.213257,0.000000
0.000000,0.000000,0.000000,0.000000,0.000000,0.000000,0.200000,0.200000,0,0,0,0,0,0,32.0141827136,34.8668660991,107.687981,-0.161449,-0.727983,121.399918,40.992962,2.732129,0.442109,0.000007,6.077212,-60.769505,-244.500778,12.000000,40.000000,0.000000,0.000000,-239.999863,-240.000000,107.687981,0.000000,0.000201,254.945511,84.042885,0.002494,-2.497763,-1446.651367,0.000000
0.000000,0.000000,0.000000,0.000000,0.000000,0.000000,0.200000,0.200000,0,0,0,0,0,0,32.0141827136,34.8668660991,107.687981,-0.161428,-0.727961,121.399918,40.207539,2.744402,0.368851,0.000006,6.069311,-64.385254,-248.116531,12.000000,40.000000,0.000000,0.000000,-249.999863,-250.000000,107.687981,0.000000,0.000201,254.945511,83.808044,0.002490,-2.497907,-1467.066284,0.000000
0.000000,0.000000,0.000000,0.000000,0.000000,0.000000,0.200000,0.200000,0,0,0,0,0,0,32.0141827136,34.8668660991,107.687981,-0.161412,-0.727940,121.399918,39.429169,2.757190,0.555027,0.000008,6.076320,-67.993011,-251.724289,12.000000,40.000000,0.000000,0.000000,-249.999863,-250.000000,107.687981,0.000000,0.000402,254.945511,83.669632,0.002486,-2.498043,-1484.992065,0.000000
0.000000,0.000000,0.000000,0.000000,0.000000,0.000000,0.200000,0.200000,0,0,0,0,0,0,32.0141827136,34.8668660991,107.687988,-0.161394,-0.727920,121.399918,38.658127,2.770481,0.451861,0.000006,6.088021,-71.598793,-255.330063,12.000000,40.000000,0.000000,0.000000,-249.999863,-250.000000,107.687988,0.000000,0.000335,254.945511,83.625580,0.002484,-2.498169,-1500.993408,0.000000
0.000000,0.000000,0.000000,0.000000,0.000000,0.000000,0.200000,0.200000,0,0,0,0,0,0,32.0141827136,34.8668660991,107.687988,-0.161376,-0.727900,121.399918,37.847054,2.785148,0.491059,0.000007,5.994169,-75.477440,-259.208710,12.000000,40.000000,0.000000,0.000000,-259.999847,-260.000000,107.687988,0.000000,0.000201,254.945511,83.679565,0.002480,-2.498295,-1518.002686,0.000000
0.000000,0.000000,0.000000,0.000000,0.000000,0.000000,0.200000,0.200000,0,0,0,0,0,0,32.0141827136,34.8668660991,107.687988,-0.161360,-0.727877,121.399918,37.044601,2.800368,0.443688,0.000007,5.983392,-79.318878,-263.050140,12.000000,40.000000,0.000000,0.000000,-259.999847,-260.000000,107.687988,0.000000,0.000435,254.945511,83.834328,0.002479,-2.498411,-1531.682983,0.000000
0.000000,0.000000,0.000000,0.000000,0.000000,0.000000,0.200000,0.200000,0,0,0,0,0,0,32.0141827136,34.8668660991,107.687988,-0.161342,-0.727858,121.399918,36.343830,2.814251,0.596334,0.000009,6.195863,-82.608429,-266.339691,12.000000,40.000000,0.000000,0.000000,-259.999847,-260.000000,107.687988,0.000000,0.000368,254.945511,84.051849,0.002474,-2.498508,-1538.794556,0.000000
0.000000,0.000000,0.000000,0.000000,0.000000,0.000000,0.200000,0.200000,0,0,0,0,0,0,32.0141827136,34.8668660991,107.687988,-0.161291,-0.727786,121.399918,34.373722,2.856339,0.764351,0.000007,3.498738,-93.262115,-276.993408,12.000000,40.000000,0.000000,0.000000,-279.999847,-280.000000,107.687988,0.000000,0.000368,254.945511,85.071915,0.002463,-2.498753,-1581.158569,0.000000
0.000000,0.000000,0.000000,0.000000,0.000000,0.000000,0.200000,0.200000,0,0,0,0,0,0,32.0141827136,34.8668660990,107.688004,-0.161200,-0.727588,121.399910,29.192734,2.989548,0.736344,0.000002,2.528063,-99.765244,-283.496521,12.000000,40.000000,0.000000,0.000000,-279.999847,-280.000000,107.688004,0.000000,0.000167,254.945511,90.502586,0.002438,-2.499244,-765.416382,0.000000
0.000000,0.000000,0.000000,0.000000,0.000000,0.000000,0.200000,0.200000,0,0,0,0,0,0,32.0141827136,34.8668660990,107.688004,-0.161197,-0.727575,121.399910,28.646139,3.005677,0.650873,0.000003,2.565842,-99.775612,-283.506897,12.000000,40.000000,0.000000,0.000000,-279.999847,-280.000000,107.688004,0.000000,0.000201,254.945511,91.936958,0.002436,-2.499316,-548.101685,0.000000
0.000000,0.000000,0.000000,0.000000,0.000000,0.000000,0.200000,0.200000,0,0,0,0,0,0,32.0141827136,34.8668660990,107.688004,-0.161194,-0.727570,121.399910,28.646139,3.005535,0.693679,0.000002,2.568761,105.516396,-283.516388,12.000000,40.000000,0.000000,0.000000,-279.999847,-280.000000,107.688004,0.000000,0.000000,254.945511,93.195221,0.002434,-2.499371,-366.924500,0.000000
0.000000,0.000000,0.000000,0.000000,0.000000,0.000000,0.200000,0.200000,0,0,0,0,0,0,32.0141827136,34.8668660990,107.688004,-0.161193,-0.727566,121.399910,28.646124,3.005420,-0.014362,-0.000000,2.571245,105.508827,-283.523987,12.000000,40.000000,0.000000,0.000000,-279.999847,-280.000000,107.688004,0.000000,0.000033,254.945511,94.236748,0.002431,-2.499412,-221.744827,0.000000
0.000000,0.000000,0.000000,0.000000,0.000000,0.000000,0.200000,0.200000,0,0,0,0,0,0,32.0141827136,34.8668660990,107.688004,-0.161192,-0.727558,121.399910,28.646090,3.005314,0.646949,0.000002,2.572336,105.501495,-283.531311,12.000000,40.000000,0.000000,0.000000,-279.999847,-280.000000,107.688004,0.000000,0.000201,254.945511,95.237053,0.002429,-2.484477,-84.983871,0.000000
0.000000,0.000000,0.000000,0.000000,0.000000,0.000000,0.200000,0.200000,0,0,0,0,0,0,32.0141827136,34.8668660990,107.688004,-0.161211,-0.727698,121.399910,28.644661,3.005314,-0.170467,-0.000038,2.572687,105.494011,-283.538788,12.000000,40.000000,0.000000,0.000000,-279.999847,-280.000000,107.688004,0.000000,-0.002009,254.945511,96.256729,0.002421,-2.445092,-10.167238,0.000000
0.000000,0.000000,0.000000,0.000000,0.000000,0.000000,0.200000,0.200000,0,0,0,0,0,0,32.0141827136,34.8668660992,107.687988,-0.161278,-0.728353,121.399918,28.642576,3.005366,-0.247811,-0.000141,2.572314,105.485863,-283.546936,12.000000,40.000000,0.000000,0.000000,-279.999847,-280.000000,107.687988,0.000000,-0.005559,254.945511,97.361641,0.002409,-2.381567,-10.170968,0.000000
0.000000,0.000000,0.000000,0.000000,0.000000,0.000000,0.200000,0.200000,0,0,0,0,0,0,32.0141827134,34.8668660995,107.687973,-0.161382,-0.729459,121.399918,28.640963,3.005384,-0.292960,-0.000246,2.572825,105.478401,-283.554413,12.000000,40.000000,0.000000,0.000000,-279.999847,-280.000000,107.687973,0.000000,-0.010481,254.945511,98.409889,0.002404,-2.306368,-7.083038,0.000000
0.000000,0.000000,0.000000,0.000000,0.000000,0.000000,0.200000,0.200000,0,0,0,0,0,0,32.0141827133,34.8668660999,107.687943,-0.161542,-0.731147,121.399925,28.639582,3.005368,-0.329235,-0.000352,2.571846,105.469635,-283.563171,11.899473,39.664909,-0.000000,-0.000000,-279.999847,-280.000000,107.687943,0.000000,-0.014935,254.945511,99.607841,0.002405,-2.207694,-12.833608,0.000000
0.000000,0.000000,0.000000,0.000000,0.000000,0.000000,0.200000,0.200000,0,0,0,0,0,0,32.0141827131,34.8668661004,107.687904,-0.161725,-0.733052,121.399933,28.638615,3.005327,-0.348399,-0.000429,2.572182,105.461624,-283.571167,11.649041,38.830139,-0.000000,-0.000000,-279.999847,-280.000000,107.687904,0.000000,-0.020192,254.945511,100.740639,0.002408,-2.105859,-13.202118,0.000000
0.000000,0.000000,0.000000,0.000000,0.000000,0.000000,0.200000,0.200000,0,0,0,0,0,0,32.0141827129,34.8668661009,107.687851,-0.161915,-0.735038,121.399940,28.638014,3.005269,-0.366659,-0.000492,2.572809,105.454170,-283.578644,11.378650,37.928833,-0.000000,-0.000000,-279.999847,-280.000000,107.687851,0.000000,-0.022871,254.945511,101.803558,0.002421,-2.005591,-10.353996,0.000000
0.000000,0.000000,0.000000,0.000000,0.000000,0.000000,0.200000,0.200000,0,0,0,0,0,0,32.0141827126,34.8668661015,107.687798,-0.162142,-0.737442,121.399948,28.637629,3.005179,-0.381403,-0.000539,2.571779,105.445389,-283.587402,11.040307,36.801022,-0.000000,-0.000000,-279.999847,-280.000000,107.687798,0.000000,-0.026387,254.945511,103.005035,0.002438,-1.889395,-13.227850,0.000000
0.000000,0.000000,0.000000,0.000000,0.000000,0.000000,0.200000,0.200000,0,0,0,0,0,0,32.0141827124,34.8668661021,107.687729,-0.162373,-0.739920,121.399956,28.637535,3.005065,-0.395792,-0.000568,2.571473,105.436752,-283.596039,10.671577,35.571926,-0.000000,-0.000000,-279.999847,-280.000000,107.687729,0.000000,-0.028362,254.945511,104.198647,0.002463,-1.773219,-15.907453,0.000000
0.000000,0.000000,0.000000,0.000000,0.000000,0.000000,0.200000,0.200000,0,0,0,0,0,0,32.0141827121,34.8668661027,107.687668,-0.162589,-0.742250,121.399971,28.637663,3.004942,-0.406885,-0.000578,2.571883,105.428741,-283.604065,10.301340,34.337803,-0.000000,-0.000000,-279.999847,-280.000000,107.687668,0.000000,-0.028597,254.945465,105.310814,0.002489,-1.665946,-16.303551,0.000000
0.000000,0.000000,0.000000,0.000000,0.000000,0.000000,0.200000,0.200000,0,0,0,0,0,0,32.0141827119,34.8668661033,107.687607,-0.162785,-0.744387,121.399979,28.637939,3.004815,-0.418587,-0.000578,2.572456,105.421272,-283.611511,9.938093,33.126984,-0.000001,-0.000000,-279.999847,-280.000000,107.687607,0.000000,-0.028630,254.945313,106.340279,0.002509,-1.568538,-13.911839,0.000000
0.000000,0.000000,0.000000,0.000000,0.000000,0.000000,0.200000,0.200000,0,0,0,0,0,0,32.0141827117,34.8668661038,107.687546,-0.162972,-0.746448,121.399986,28.638283,3.004681,-0.424938,-0.000563,2.572518,105.413712,-283.619080,9.563382,31.877954,-0.000004,-0.000001,-279.999847,-280.000000,107.687546,0.000000,-0.027793,254.944870,107.354057,0.002539,-1.475098,-11.606391,0.000000
0.000000,0.000000,0.000000,0.000000,0.000000,0.000000,0.200000,0.200000,0,0,0,0,0,0,32.0141827113,34.8668661046,107.687454,-0.163261,-0.749644,121.399994,28.639063,3.004442,-0.435542,-0.000522,2.566579,105.400040,-283.632751,8.929165,29.763952,-0.000022,-0.000005,-279.999847,-280.000000,107.687454,0.000000,-0.026789,254.942062,109.001389,0.002584,-1.329671,-11.008191,0.000000
0.000000,0.000000,0.000000,0.000000,0.000000,0.000000,0.200000,0.200000,0,0,0,0,0,0,32.0141827111,34.8668661050,107.687393,-0.163427,-0.751509,121.400002,28.639593,3.004286,-0.440722,-0.000490,2.570219,105.392609,-283.640198,8.511930,28.373280,-0.000057,-0.000012,-279.999847,-280.000000,107.687393,0.000000,-0.024813,254.936798,110.023254,0.002613,-1.243781,-19.423676,0.000000
0.000000,0.000000,0.000000,0.000000,0.000000,0.000000,0.200000,0.200000,0,0,0,0,0,0,32.0141827110,34.8668661054,107.687347,-0.163570,-0.753124,121.400009,28.640120,3.004138,-0.448977,-0.000460,2.571513,105.385292,-283.647491,8.118601,27.062393,-0.000125,-0.000027,-279.999847,-280.000000,107.687347,0.000000,-0.023407,254.926315,110.955162,0.002642,-1.168275,-16.786346,0.000000
0.000000,0.000000,0.000000,0.000000,0.000000,0.000000,0.200000,0.200000,0,0,0,0,0,0,32.0141827107,34.8668661060,107.687294,-0.163735,-0.754640,121.400017,28.624359,3.005404,-0.104605,-0.000386,2.572243,105.377174,-283.655640,7.699676,25.666430,-0.000271,-0.000059,-279.999847,-280.000000,107.687294,0.000000,-0.021498,254.903961,111.918762,0.002639,-1.092780,-16.681271,0.000000
0.000000,0.000000,0.000000,0.000000,0.000000,0.000000,0.200000,0.200000,0,0,0,0,0,0,32.0141827079,34.8668661117,107.687263,-0.164407,-0.755108,121.399963,28.467710,3.019933,-0.002697,-0.000086,2.587085,105.369087,-283.663727,7.245567,24.153635,-0.000560,-0.000122,-279.999847,-280.000000,107.687263,0.000236,-0.007769,254.859680,112.848389,0.002499,-1.022186,-16.592207,0.000000
0.000000,0.000000,0.000000,0.000000,0.000000,0.000000,0.200000,0.200000,0,0,0,0,0,0,32.0141826946,34.8668661381,107.687271,-0.165778,-0.754591,121.399841,28.099424,3.055785,0.003974,0.000402,2.625225,105.359802,-283.673004,6.661026,22.207319,-0.001252,-0.000273,-279.999847,-280.000000,107.687271,0.001341,0.015002,254.753860,113.850525,0.002297,-0.948234,-9.384705,0.000000
0.000000,0.000000,0.000000,0.000000,0.000000,0.000000,0.200000,0.200000,0,0,0,0,0,0,32.0141826624,34.8668662009,107.687340,-0.167379,-0.753600,121.399551,27.553120,3.111303,0.004880,0.001014,2.686970,105.350723,-283.682068,6.022568,20.083918,-0.002792,-0.000614,-279.999847,-280.000000,107.687340,0.003956,0.042359,254.517822,114.803284,0.002347,-0.879664,-14.340649,0.000000
0.000000,0.000000,0.000000,0.000000,0.000000,0.000000,0.200000,0.200000,0,0,0,0,0,0,32.0141825864,34.8668663479,107.687523,-0.169257,-0.752211,121.398895,26.706591,3.202186,0.004973,0.001893,2.787021,105.339325,-283.693481,5.228289,17.450201,-0.007255,-0.001613,-279.999847,-280.000000,107.687523,0.010018,0.082576,253.832306,115.896492,0.001751,-0.802619,-15.670494,0.000000
0.000000,0.000000,0.000000,0.000000,0.000000,0.000000,0.200000,0.200000,0,0,0,0,0,0,32.0141822352,34.8668670246,107.688339,-0.172176,-0.749701,121.394150,24.575064,3.460154,0.004770,0.004127,3.069123,105.313843,-283.718964,3.630676,12.240904,-0.044639,-0.010146,-279.999847,-280.000000,107.688339,0.037338,0.186047,248.045380,117.989418,-0.001349,-0.657672,-17.245308,0.000000
0.000000,0.000000,0.000000,0.000000,0.000000,0.000000,0.200000,0.200000,0,0,0,0,0,0,32.0141800484,34.8668712332,107.693169,-0.173244,-0.748445,121.363846,20.211664,4.167951,0.004621,0.009987,3.846387,105.254066,-283.778717,0.336225,3.009187,-0.608814,-0.140944,-279.999847,-280.000000,107.693169,0.196841,0.434310,150.609406,121.314240,-0.014035,-0.402567,-7.976695,0.000000
0.000000,0.000000,0.000000,0.000000,0.000000,0.000000,0.200000,0.200000,0,0,0,0,0,0,32.0141792537,34.8668727635,107.694893,-0.172797,-0.748685,121.355064,19.499548,4.319057,0.004731,0.011509,4.012116,105.245026,-283.787781,-0.158869,1.689609,-0.715355,-0.165345,-279.999847,-280.000000,107.694893,0.251777,0.423393,126.722702,121.698158,-0.015816,-0.358033,-14.992208,0.000000
0.000000,0.000000,0.000000,0.000000,0.000000,0.000000,0.200000,0.200000,0,0,0,0,0,0,32.0141787763,34.8668736832,107.695930,-0.172594,-0.748834,121.350121,19.139399,4.397460,0.004722,0.012151,4.099921,105.239677,-283.793121,-0.351592,1.119130,-0.738462,-0.170436,-279.999847,-280.000000,107.695930,0.284148,0.452191,120.236557,121.841377,-0.016345,-0.335689,-15.293028,0.000000
0.000000,0.000000,0.000000,0.000000,0.000000,0.000000,0.200000,0.200000,0,0,0,0,0,0,32.0141780443,34.8668750936,107.697525,-0.172384,-0.749051,121.342987,18.654814,4.504216,0.004633,0.012813,4.214543,105.229057,-283.803741,-0.550515,0.486036,-0.747997,-0.172237,-279.999847,-280.000000,107.697525,0.332920,0.540158,116.853539,121.963699,-0.016649,-0.306081,-16.105146,0.000000
0.000000,0.000000,0.000000,0.000000,0.000000,0.000000,0.200000,0.200000,0,0,0,0,0,0,32.0141775050,34.8668761332,107.698692,-0.172187,-0.749193,121.338020,18.357649,4.575137,0.004638,0.013415,4.291545,105.222954,-283.809845,-0.645685,0.172280,-0.749031,-0.172208,-279.999847,-280.000000,107.698692,0.368232,0.561153,116.374367,121.992004,-0.016603,-0.287100,-18.694073,0.000000
0.000000,0.000000,0.000000,0.000000,0.000000,0.000000,0.200000,0.200000,0,0,0,0,0,0,32.0141769061,34.8668772879,107.699989,-0.171924,-0.749331,121.332748,18.076509,4.647801,0.004705,0.014218,4.369123,105.215706,-283.817078,-0.712680,-0.049979,-0.749288,-0.172007,-279.999847,-280.000000,107.699989,0.406851,0.540057,116.287064,121.972443,-0.016409,-0.268272,-14.893884,0.000000
0.000000,0.000000,0.000000,0.000000,0.000000,0.000000,0.200000,0.200000,0,0,0,0,0,0,32.0141761689,34.8668787096,107.701591,-0.171733,-0.749475,121.326591,17.756615,4.729292,0.004700,0.014886,4.455163,105.206734,-283.826080,-0.747946,-0.166786,-0.749449,-0.171795,-279.999847,-280.000000,107.701591,0.453574,0.569726,116.273590,121.885971,-0.015981,-0.247762,-17.959368,0.000000
0.000000,0.000000,0.000000,0.000000,0.000000,0.000000,0.200000,0.200000,0,0,0,0,0,0,32.0141755548,34.8668798941,107.702927,-0.171609,-0.749571,121.321640,17.518826,4.791997,0.004699,0.015407,4.522257,105.200447,-283.832336,-0.749554,-0.171658,-0.749554,-0.171658,-279.999847,-280.000000,107.702927,0.491843,0.591659,116.268303,121.769127,-0.015522,-0.232548,-8.923119,0.000000
0.000000,0.000000,0.000000,0.000000,0.000000,0.000000,0.200000,0.200000,0,0,0,0,0,0,32.0141748390,34.8668812750,107.704483,-0.171482,-0.749660,121.316025,17.267553,4.860204,0.004696,0.015968,4.594451,105.192703,-283.840088,-0.749650,-0.171521,-0.749650,-0.171521,-279.999847,-280.000000,107.704483,0.535732,0.615969,116.262421,121.589081,-0.015022,-0.216612,-8.289867,0.000000
0.000000,0.000000,0.000000,0.000000,0.000000,0.000000,0.200000,0.200000,0,0,0,0,0,0,32.0141740558,34.8668827861,107.706192,-0.171424,-0.749731,121.310051,17.009716,4.929638,0.004655,0.016405,4.667766,105.184593,-283.848206,-0.749724,-0.171414,-0.749724,-0.171414,-279.999847,-280.000000,107.706192,0.582915,0.672761,116.256371,121.345665,-0.014365,-0.201049,-9.995448,0.000000
0.000000,0.000000,0.000000,0.000000,0.000000,0.000000,0.200000,0.200000,0,0,0,0,0,0,32.0141734181,34.8668840169,107.707573,-0.171299,-0.749770,121.305290,16.832073,4.983415,0.004693,0.016986,4.724821,105.178932,-283.853851,-0.749765,-0.171329,-0.749765,-0.171329,-279.999847,-280.000000,107.707573,0.620718,0.659032,116.251625,121.116653,-0.013829,-0.189612,-12.005032,0.000000
0.000000,0.000000,0.000000,0.000000,0.000000,0.000000,0.200000,0.200000,0,0,0,0,0,0,32.0141727636,34.8668852801,107.709000,-0.171295,-0.749796,121.300514,16.645576,5.035661,0.004655,0.017281,4.780504,105.172913,-283.859894,-0.749793,-0.171282,-0.749793,-0.171282,-279.999847,-280.000000,107.709000,0.658962,0.707787,116.246857,120.856750,-0.013292,-0.178873,-15.379036,0.000000
0.000000,0.000000,0.000000,0.000000,0.000000,0.000000,0.200000,0.200000,0,0,0,0,0,0,32.0141718200,34.8668871020,107.711052,-0.171194,-0.749810,121.293770,16.415089,5.107766,0.004691,0.018015,4.854988,105.163383,-283.869415,-0.749810,-0.171217,-0.749810,-0.171217,-279.999847,-280.000000,107.711052,0.713172,0.700655,116.240120,120.443985,-0.012632,-0.164936,-9.513687,0.000000
0.000000,0.000000,0.000000,0.000000,0.000000,0.000000,0.200000,0.200000,0,0,0,0,0,0,32.0141710331,34.8668886216,107.712769,-0.171219,-0.749800,121.288254,16.223534,5.164712,0.004661,0.018371,4.915203,105.156952,-283.875854,-0.749802,-0.171203,-0.749802,-0.171203,-279.999847,-280.000000,107.712769,0.757574,0.747568,116.234619,120.070778,-0.012119,-0.154522,-15.362385,0.000000
0.000000,0.000000,0.000000,0.000000,0.000000,0.000000,0.200000,0.200000,0,0,0,0,0,0,32.0141703221,34.8668899951,107.714317,-0.171169,-0.749782,121.283348,16.073425,5.214667,0.004689,0.018894,4.967958,105.151314,-283.881470,-0.749785,-0.171187,-0.749785,-0.171187,-279.999847,-280.000000,107.714317,0.797101,0.738628,116.229729,119.714554,-0.011627,-0.145937,-16.467154,0.000000
0.000000,0.000000,0.000000,0.000000,0.000000,0.000000,0.200000,0.200000,0,0,0,0,0,0,32.0141694974,34.8668915883,107.716118,-0.171217,-0.749748,121.277740,15.894587,5.270333,0.004663,0.019251,5.026394,105.144302,-283.888489,-0.749753,-0.171200,-0.749753,-0.171200,-279.999847,-280.000000,107.716118,0.842266,0.781422,116.224129,119.282570,-0.011120,-0.136842,-11.946185,0.000000
0.000000,0.000000,0.000000,0.000000,0.000000,0.000000,0.200000,0.200000,0,0,0,0,0,0,32.0141685524,34.8668934145,107.718170,-0.171207,-0.749756,121.271416,15.711918,5.332305,0.004673,0.019801,5.090597,105.136360,-283.896423,-0.749748,-0.171212,-0.749748,-0.171212,-279.999847,-280.000000,107.718170,0.893172,0.782494,116.217819,118.767220,-0.009982,-0.127423,-11.466485,0.000000
0.000000,0.000000,0.000000,0.000000,0.000000,0.000000,0.200000,0.200000,0,0,0,0,0,0,32.0141676861,34.8668950888,107.720055,-0.171253,-0.749816,121.265701,15.547904,5.387270,0.004664,0.020217,5.148151,105.129898,-283.902893,-0.749810,-0.171246,-0.749810,-0.171246,-279.999847,-280.000000,107.720055,0.939078,0.807809,116.212120,118.279839,-0.008640,-0.119613,-16.969868,0.000000
0.000000,0.000000,0.000000,0.000000,0.000000,0.000000,0.200000,0.200000,0,0,0,0,0,0,32.0141669057,34.8668965978,107.721756,-0.171289,-0.749854,121.260628,15.408491,5.435633,0.004667,0.020630,5.198997,105.124374,-283.908417,-0.749849,-0.171284,-0.749849,-0.171284,-279.999847,-280.000000,107.721756,0.979849,0.820735,116.207054,117.831329,-0.007233,-0.113175,-17.804058,0.000000
0.000000,0.000000,0.000000,0.000000,0.000000,0.000000,0.200000,0.200000,0,0,0,0,0,0,32.0141661101,34.8668981362,107.723488,-0.171335,-0.749883,121.255516,15.271461,5.483873,0.004667,0.021023,5.249538,105.118622,-283.914185,-0.749879,-0.171329,-0.749879,-0.171329,-279.999847,-280.000000,107.723488,1.020859,0.837846,116.201950,117.367401,-0.005942,-0.107134,-19.268354,0.000000
