aileron,elevator,rudder,flaps,slats,speedbrake,throttle,throttle,engine-pump,engine-pump,electric-pump,electric-pump,external-power,APU-generator,latitude-deg,longitude-deg,altitude-ft,roll-deg,pitch-deg,heading-deg,side-slip-deg,airspeed-kt,glideslope,vertical-speed-fps,airspeed-indicator_indicated-speed-kt,altimeter_indicated-altitude-ft,altimeter_pressure-alt-ft,attitude-indicator_indicated-pitch-deg,attitude-indicator_indicated-roll-deg,attitude-indicator_internal-pitch-deg,attitude-indicator_internal-roll-deg,encoder_indicated-altitude-ft,encoder_pressure-alt-ft,gps_indicated-altitude-ft,gps_indicated-ground-speed-kt,gps_indicated-vertical-speed,indicated-heading-deg,magnetic-compass_indicated-heading-deg,slip-skid-ball_indicated-slip-skid,turn-indicator_indicated-turn-rate,vertical-speed-indicator_indicated-speed-fpm,engine_rpm
0.000000,0.000000,0.000000,1.000000,0.000000,0.000000,0.000000,0.000000,0,0,0,0,0,0,32.0177231700,34.8926918800,-9999.000000,0.000000,0.424000,260.000000,0.000000,0.000000,0.000000,0.000000,0.000000,0.000000,0.000000,0.000000,0.000000,0.000000,0.000000,0.000000,0.000000,0.000000,0.000000,0.000000,0.000000,0.000000,0.000000,0.000000,0.000000,0.000000
0.000000,0.000000,0.000000,1.000000,0.000000,0.000000,0.000000,0.000000,0,0,0,0,0,0,32.0177231700,34.8926918800,-9999.000000,0.000000,0.424000,260.000000,0.000000,0.000000,0.000000,0.000000,0.000000,390.226257,1.193444,12.000000,40.000000,0.000000,0.000000,0.000000,0.000000,0.000000,0.000000,0.000000,254.951645,0.000000,0.000000,0.000000,0.000000,0.000000
0.000000,0.000000,0.000000,1.000000,0.000000,0.000000,0.000000,0.000000,0,0,0,0,0,0,32.0141825072,34.8668671716,-9999.000000,0.000000,0.424000,121.400002,0.000000,0.000000,0.000000,0.000000,0.000000,390.226257,1.193444,12.000000,40.000000,0.000000,0.000000,0.000000,0.000000,0.000000,0.000000,0.000000,254.951645,0.000000,0.000000,0.000000,0.000000,0.000000
0.000000,0.000000,0.000000,1.000000,0.000000,0.000000,0.000000,0.000000,0,0,0,0,0,0,32.0141825072,34.8668671716,-9999.000000,0.000000,0.424000,121.400002,0.000000,0.000000,0.000000,0.000000,0.000000,390.226257,1.193444,12.000000,40.000000,0.000000,0.000000,0.000000,0.000000,0.000000,0.000000,0.000000,254.951645,0.000000,0.000000,0.000000,0.000000,0.000000
0.000000,0.000000,0.000000,1.000000,0.000000,0.000000,0.000000,0.000000,0,0,0,0,0,0,32.0141825072,34.8668671716,-9999.000000,0.000000,0.424000,121.400002,0.000000,0.000000,0.000000,0.000000,0.000000,390.226257,1.193444,12.000000,40.000000,0.000000,0.000000,0.000000,0.000000,0.000000,0.000000,0.000000,254.951645,0.000000,0.000000,0.000000,0.000000,0.000000
0.000000,0.000000,0.000000,1.000000,0.000000,0.000000,0.000000,0.000000,0,0,0,0,0,0,32.0141825072,34.8668671716,-9999.000000,0.000000,0.424000,121.400002,0.000000,0.000000,0.000000,0.000000,0.000000,390.226257,1.193444,12.000000,40.000000,0.000000,0.000000,0.000000,0.000000,0.000000,0.000000,0.000000,254.951645,0.000000,0.000000,0.000000,0.000000,0.000000
0.000000,0.000000,0.000000,1.000000,0.000000,0.000000,0.000000,0.000000,0,0,0,0,0,0,32.0141825072,34.8668671716,-9999.000000,0.000000,0.424000,121.400002,0.000000,0.000000,0.000000,0.000000,0.000000,390.226257,1.193444,12.000000,40.000000,0.000000,0.000000,0.000000,0.000000,0.000000,0.000000,0.000000,254.951645,0.000000,0.000000,0.000000,0.000000,0.000000
0.000000,0.000000,0.000000,1.000000,0.000000,0.000000,0.000000,0.000000,0,0,0,0,0,0,32.0141825072,34.8668671716,-9999.000000,0.000000,0.424000,121.400002,0.000000,0.000000,0.000000,0.000000,0.000000,390.226257,1.193444,12.000000,40.000000,0.000000,0.000000,0.000000,0.000000,0.000000,0.000000,0.000000,254.951645,0.000000,0.000000,0.000000,0.000000,0.000000
0.000000,0.000000,0.000000,1.000000,0.000000,0.000000,0.000000,0.000000,0,0,0,0,0,0,32.0141825072,34.8668671716,-9999.000000,0.000000,0.424000,121.400002,0.000000,0.000000,0.000000,0.000000,0.000000,390.226257,1.193444,12.000000,40.000000,0.000000,0.000000,0.000000,0.000000,0.000000,0.000000,0.000000,254.951645,0.000000,0.000000,0.000000,0.000000,0.000000
0.000000,0.000000,0.000000,1.000000,0.000000,0.000000,0.000000,0.000000,0,0,0,0,0,0,32.0141825072,34.8668671716,-9999.000000,0.000000,0.424000,121.400002,0.000000,0.000000,0.000000,0.000000,0.000000,390.226257,1.193444,12.000000,40.000000,0.000000,0.000000,0.000000,0.000000,0.000000,0.000000,0.000000,254.951645,0.000000,0.000000,0.000000,0.000000,0.000000
0.000000,0.000000,0.000000,1.000000,0.000000,0.000000,0.000000,0.000000,0,0,0,0,0,0,32.0141825072,34.8668671716,-9999.000000,0.000000,0.424000,121.400002,0.000000,0.000000,0.000000,0.000000,0.000000,390.226257,1.193444,12.000000,40.000000,0.000000,0.000000,0.000000,0.000000,0.000000,0.000000,0.000000,254.951645,0.000000,0.000000,0.000000,0.000000,0.000000
0.000000,0.000000,0.000000,1.000000,0.000000,0.000000,0.000000,0.000000,0,0,0,0,0,0,32.0141825072,34.8668671716,-9999.000000,0.000000,0.424000,121.400002,0.000000,0.000000,0.000000,0.000000,0.000000,390.226257,1.193444,12.000000,40.000000,0.000000,0.000000,0.000000,0.000000,0.000000,0.000000,0.000000,254.951645,0.000000,0.000000,0.000000,0.000000,0.000000
0.000000,0.000000,0.000000,1.000000,0.000000,0.000000,0.000000,0.000000,0,0,0,0,0,0,32.0141825072,34.8668671716,-9999.000000,0.000000,0.424000,121.400002,0.000000,0.000000,0.000000,0.000000,0.000000,390.226257,1.193444,12.000000,40.000000,0.000000,0.000000,0.000000,0.000000,0.000000,0.000000,0.000000,254.951645,0.000000,0.000000,0.000000,0.000000,0.000000
0.000000,0.000000,0.000000,1.000000,0.000000,0.000000,0.000000,0.000000,0,0,0,0,0,0,32.0141825072,34.8668671716,-9999.000000,0.000000,0.424000,121.400002,0.000000,0.000000,0.000000,0.000000,0.000000,390.226257,1.193444,12.000000,40.000000,0.000000,0.000000,0.000000,0.000000,0.000000,0.000000,0.000000,254.951645,0.000000,0.000000,0.000000,0.000000,0.000000
0.000000,0.000000,0.000000,1.000000,0.000000,0.000000,0.000000,0.000000,0,0,0,0,0,0,32.0141825072,34.8668671716,-9999.000000,0.000000,0.424000,121.400002,0.000000,0.000000,0.000000,0.000000,0.000000,390.226257,1.193444,12.000000,40.000000,0.000000,0.000000,0.000000,0.000000,0.000000,0.000000,0.000000,254.951645,0.000000,0.000000,0.000000,0.000000,0.000000
0.000000,0.000000,0.000000,1.000000,0.000000,0.000000,0.000000,0.000000,0,0,0,0,0,0,32.0141825072,34.8668671716,-9999.000000,0.000000,0.424000,121.400002,0.000000,0.000000,0.000000,0.000000,0.000000,390.226257,1.193444,12.000000,40.000000,0.000000,0.000000,0.000000,0.000000,0.000000,0.000000,0.000000,254.951645,0.000000,0.000000,0.000000,0.000000,0.000000
0.000000,0.000000,0.000000,1.000000,0.000000,0.000000,0.000000,0.000000,0,0,0,0,0,0,32.0141825072,34.8668671716,-9999.000000,0.000000,0.424000,121.400002,0.000000,0.000000,0.000000,0.000000,0.000000,390.226257,1.193444,12.000000,40.000000,0.000000,0.000000,0.000000,0.000000,0.000000,0.000000,0.000000,254.951645,0.000000,0.000000,0.000000,0.000000,0.000000
0.000000,0.000000,0.000000,1.000000,0.000000,0.000000,0.000000,0.000000,0,0,0,0,0,0,32.0141825072,34.8668671716,-9999.000000,0.000000,0.424000,121.400002,0.000000,0.000000,0.000000,0.000000,0.000000,390.226257,1.193444,12.000000,40.000000,0.000000,0.000000,0.000000,0.000000,0.000000,0.000000,0.000000,254.951645,0.000000,0.000000,0.000000,0.000000,0.000000
0.000000,0.000000,0.000000,1.000000,0.000000,0.000000,0.000000,0.000000,0,0,0,0,0,0,32.0141825072,34.8668671716,-9999.000000,0.000000,0.424000,121.400002,0.000000,0.000000,0.000000,0.000000,0.000000,390.226257,1.193444,12.000000,40.000000,0.000000,0.000000,0.000000,0.000000,0.000000,0.000000,0.000000,254.951645,0.000000,0.000000,0.000000,0.000000,0.000000
0.000000,0.000000,0.000000,1.000000,0.000000,0.000000,0.000000,0.000000,0,0,0,0,0,0,32.0141825072,34.8668671716,-9999.000000,0.000000,0.424000,121.400002,0.000000,0.000000,0.000000,0.000000,0.000000,390.226257,1.193444,12.000000,40.000000,0.000000,0.000000,0.000000,0.000000,0.000000,0.000000,0.000000,254.951645,0.000000,0.000000,0.000000,0.000000,0.000000
0.000000,0.000000,0.000000,1.000000,0.000000,0.000000,0.000000,0.000000,0,0,0,0,0,0,32.0141825072,34.8668671716,-9999.000000,0.000000,0.424000,121.400002,0.000000,0.000000,0.000000,0.000000,0.000000,390.226257,1.193444,12.000000,40.000000,0.000000,0.000000,0.000000,0.000000,0.000000,0.000000,0.000000,254.951645,0.000000,0.000000,0.000000,0.000000,0.000000
0.000000,0.000000,0.000000,1.000000,0.000000,0.000000,0.000000,0.000000,0,0,0,0,0,0,32.0141825072,34.8668671716,-9999.000000,0.000000,0.424000,121.400002,0.000000,0.000000,0.000000,0.000000,0.000000,390.226257,1.193444,12.000000,40.000000,0.000000,0.000000,0.000000,0.000000,0.000000,0.000000,0.000000,254.951645,0.000000,0.000000,0.000000,0.000000,0.000000
0.000000,0.000000,0.000000,1.000000,0.000000,0.000000,0.000000,0.000000,0,0,0,0,0,0,32.0141825072,34.8668671716,-9999.000000,0.000000,0.424000,121.400002,0.000000,0.000000,0.000000,0.000000,0.000000,390.226257,1.193444,12.000000,40.000000,0.000000,0.000000,0.000000,0.000000,0.000000,0.000000,0.000000,254.951645,0.000000,0.000000,0.000000,0.000000,0.000000
0.000000,0.000000,0.000000,1.000000,0.000000,0.000000,0.000000,0.000000,0,0,0,0,0,0,32.0141825072,34.8668671716,-9999.000000,0.000000,0.424000,121.400002,0.000000,0.000000,0.000000,0.000000,0.000000,390.226257,1.193444,12.000000,40.000000,0.000000,0.000000,0.000000,0.000000,0.000000,0.000000,0.000000,254.951645,0.000000,0.000000,0.000000,0.000000,0.000000
0.000000,0.000000,0.000000,1.000000,0.000000,0.000000,0.000000,0.000000,0,0,0,0,0,0,32.0141825072,34.8668671716,-9999.000000,0.000000,0.424000,121.400002,0.000000,0.000000,0.000000,0.000000,0.000000,390.226257,1.193444,12.000000,40.000000,0.000000,0.000000,0.000000,0.000000,0.000000,0.000000,0.000000,254.951645,0.000000,0.000000,0.000000,0.000000,0.000000
0.000000,0.000000,0.000000,1.000000,0.000000,0.000000,0.000000,0.000000,0,0,0,0,0,0,32.0141825072,34.8668671716,-9999.000000,0.000000,0.424000,121.400002,0.000000,0.000000,0.000000,0.000000,0.000000,390.226257,1.193444,12.000000,40.000000,0.000000,0.000000,0.000000,0.000000,0.000000,0.000000,0.000000,254.951645,0.000000,0.000000,0.000000,0.000000,0.000000
0.000000,0.000000,0.000000,1.000000,0.000000,0.000000,0.000000,0.000000,0,0,0,0,0,0,32.0141825072,34.8668671716,-9999.000000,0.000000,0.424000,121.400002,0.000000,0.000000,0.000000,0.000000,0.000000,390.226257,1.193444,12.000000,40.000000,0.000000,0.000000,0.000000,0.000000,0.000000,0.000000,0.000000,254.951645,0.000000,0.000000,0.000000,0.000000,0.000000
0.000000,0.000000,0.000000,1.000000,0.000000,0.000000,0.000000,0.000000,0,0,0,0,0,0,32.0141825072,34.8668671716,-9999.000000,0.000000,0.424000,121.400002,0.000000,0.000000,0.000000,0.000000,0.000000,390.226257,1.193444,12.000000,40.000000,0.000000,0.000000,0.000000,0.000000,0.000000,0.000000,0.000000,254.951645,0.000000,0.000000,0.000000,0.000000,0.000000
0.000000,0.000000,0.000000,1.000000,0.000000,0.000000,0.000000,0.000000,0,0,0,0,0,0,32.0141825072,34.8668671716,-9999.000000,0.000000,0.424000,121.400002,0.000000,0.000000,0.000000,0.000000,0.000000,390.226257,1.193444,12.000000,40.000000,0.000000,0.000000,0.000000,0.000000,0.000000,0.000000,0.000000,254.951645,0.000000,0.000000,0.000000,0.000000,0.000000
0.000000,0.000000,0.000000,1.000000,0.000000,0.000000,0.000000,0.000000,0,0,0,0,0,0,32.0141825072,34.8668671716,-9999.000000,0.000000,0.424000,121.400002,0.000000,0.000000,0.000000,0.000000,0.000000,390.226257,1.193444,12.000000,40.000000,0.000000,0.000000,0.000000,0.000000,0.000000,0.000000,0.000000,254.951645,0.000000,0.000000,0.000000,0.000000,0.000000
0.000000,0.000000,0.000000,1.000000,0.000000,0.000000,0.000000,0.000000,0,0,0,0,0,0,32.0141825072,34.8668671716,-9999.000000,0.000000,0.424000,121.400002,0.000000,0.000000,0.000000,0.000000,0.000000,390.226257,1.193444,12.000000,40.000000,0.000000,0.000000,0.000000,0.000000,0.000000,0.000000,0.000000,254.951645,0.000000,0.000000,0.000000,0.000000,0.000000
0.000000,0.000000,0.000000,1.000000,0.000000,0.000000,0.000000,0.000000,0,0,0,0,0,0,32.0141825072,34.8668671716,-9999.000000,0.000000,0.424000,121.400002,0.000000,0.000000,0.000000,0.000000,0.000000,390.226257,1.193444,12.000000,40.000000,0.000000,0.000000,0.000000,0.000000,0.000000,0.000000,0.000000,254.951645,0.000000,0.000000,0.000000,0.000000,0.000000
0.000000,0.000000,0.000000,1.000000,0.000000,0.000000,0.000000,0.000000,0,0,0,0,0,0,32.0141825072,34.8668671716,-9999.000000,0.000000,0.424000,121.400002,0.000000,0.000000,0.000000,0.000000,0.000000,390.226257,1.193444,12.000000,40.000000,0.000000,0.000000,0.000000,0.000000,0.000000,0.000000,0.000000,254.951645,0.000000,0.000000,0.000000,0.000000,0.000000
0.000000,0.000000,0.000000,1.000000,0.000000,0.000000,0.000000,0.000000,0,0,0,0,0,0,32.0141825072,34.8668671716,-9999.000000,0.000000,0.424000,121.400002,0.000000,0.000000,0.000000,0.000000,0.000000,390.226257,1.193444,12.000000,40.000000,0.000000,0.000000,0.000000,0.000000,0.000000,0.000000,0.000000,254.951645,0.000000,0.000000,0.000000,0.000000,0.000000
0.000000,0.000000,0.000000,1.000000,0.000000,0.000000,0.000000,0.000000,0,0,0,0,0,0,32.0141825072,34.8668671716,-9999.000000,0.000000,0.424000,121.400002,0.000000,0.000000,0.000000,0.000000,0.000000,390.226257,1.193444,12.000000,40.000000,0.000000,0.000000,0.000000,0.000000,0.000000,0.000000,0.000000,254.951645,0.000000,0.000000,0.000000,0.000000,0.000000
0.000000,0.000000,0.000000,1.000000,0.000000,0.000000,0.000000,0.000000,0,0,0,0,0,0,32.0141825072,34.8668671716,-9999.000000,0.000000,0.424000,121.400002,0.000000,0.000000,0.000000,0.000000,0.000000,390.226257,1.193444,12.000000,40.000000,0.000000,0.000000,0.000000,0.000000,0.000000,0.000000,0.000000,254.951645,0.000000,0.000000,0.000000,0.000000,0.000000
0.000000,0.000000,0.000000,1.000000,0.000000,0.000000,0.000000,0.000000,0,0,0,0,0,0,32.0141825072,34.8668671716,-9999.000000,0.000000,0.424000,121.400002,0.000000,0.000000,0.000000,0.000000,0.000000,390.226257,1.193444,12.000000,40.000000,0.000000,0.000000,0.000000,0.000000,0.000000,0.000000,0.000000,254.951645,0.000000,0.000000,0.000000,0.000000,0.000000
0.000000,0.000000,0.000000,1.000000,0.000000,0.000000,0.000000,0.000000,0,0,0,0,0,0,32.0141825072,34.8668671716,-9999.000000,0.000000,0.424000,121.400002,0.000000,0.000000,0.000000,0.000000,0.000000,390.226257,1.193444,12.000000,40.000000,0.000000,0.000000,0.000000,0.000000,0.000000,0.000000,0.000000,254.951645,0.000000,0.000000,0.000000,0.000000,0.000000
0.000000,0.000000,0.000000,1.000000,0.000000,0.000000,0.000000,0.000000,0,0,0,0,0,0,32.0141825072,34.8668671716,-9999.000000,0.000000,0.424000,121.400002,0.000000,0.000000,0.000000,0.000000,0.000000,390.226257,1.193444,12.000000,40.000000,0.000000,0.000000,0.000000,0.000000,0.000000,0.000000,0.000000,254.951645,0.000000,0.000000,0.000000,0.000000,0.000000
0.000000,0.000000,0.000000,1.000000,0.000000,0.000000,0.000000,0.000000,0,0,0,0,0,0,32.0141825072,34.8668671716,-9999.000000,0.000000,0.424000,121.400002,0.000000,0.000000,0.000000,0.000000,0.000000,390.226257,1.193444,12.000000,40.000000,0.000000,0.000000,0.000000,0.000000,0.000000,0.000000,0.000000,254.951645,0.000000,0.000000,0.000000,0.000000,0.000000
0.000000,0.000000,0.000000,1.000000,0.000000,0.000000,0.000000,0.000000,0,0,0,0,0,0,32.0141825072,34.8668671716,-9999.000000,0.000000,0.424000,121.400002,0.000000,0.000000,0.000000,0.000000,0.000000,390.226257,1.193444,12.000000,40.000000,0.000000,0.000000,0.000000,0.000000,0.000000,0.000000,0.000000,254.951645,0.000000,0.000000,0.000000,0.000000,0.000000
0.000000,0.000000,0.000000,1.000000,0.000000,0.000000,0.000000,0.000000,0,0,0,0,0,0,32.0141825072,34.8668671716,-9999.000000,0.000000,0.424000,121.400002,0.000000,0.000000,0.000000,0.000000,0.000000,390.226257,1.193444,12.000000,40.000000,0.000000,0.000000,0.000000,0.000000,0.000000,0.000000,0.000000,254.951645,0.000000,0.000000,0.000000,0.000000,0.000000
0.000000,0.000000,0.000000,1.000000,0.000000,0.000000,0.000000,0.000000,0,0,0,0,0,0,32.0141825072,34.8668671716,-9999.000000,0.000000,0.424000,121.400002,0.000000,0.000000,0.000000,0.000000,0.000000,390.226257,1.193444,12.000000,40.000000,0.000000,0.000000,0.000000,0.000000,0.000000,0.000000,0.000000,254.951645,0.000000,0.000000,0.000000,0.000000,0.000000
0.000000,0.000000,0.000000,1.000000,0.000000,0.000000,0.000000,0.000000,0,0,0,0,0,0,32.0141825072,34.8668671716,-9999.000000,0.000000,0.424000,121.400002,0.000000,0.000000,0.000000,0.000000,0.000000,390.226257,1.193444,12.000000,40.000000,0.000000,0.000000,0.000000,0.000000,0.000000,0.000000,0.000000,254.951645,0.000000,0.000000,0.000000,0.000000,0.000000
0.000000,0.000000,0.000000,1.000000,0.000000,0.000000,0.000000,0.000000,0,0,0,0,0,0,32.0141825072,34.8668671716,-9999.000000,0.000000,0.424000,121.400002,0.000000,0.000000,0.000000,0.000000,0.000000,390.226257,1.193444,12.000000,40.000000,0.000000,0.000000,0.000000,0.000000,0.000000,0.000000,0.000000,254.951645,0.000000,0.000000,0.000000,0.000000,0.000000
0.000000,0.000000,0.000000,1.000000,0.000000,0.000000,0.000000,0.000000,0,0,0,0,0,0,32.0141825072,34.8668671716,-9999.000000,0.000000,0.424000,121.400002,0.000000,0.000000,0.000000,0.000000,0.000000,390.226257,1.193444,12.000000,40.000000,0.000000,0.000000,0.000000,0.000000,0.000000,0.000000,0.000000,254.951645,0.000000,0.000000,0.000000,0.000000,0.000000
0.000000,0.000000,0.000000,1.000000,0.000000,0.000000,0.000000,0.000000,0,0,0,0,0,0,32.0141825072,34.8668671716,-9999.000000,0.000000,0.424000,121.400002,0.000000,0.000000,0.000000,0.000000,0.000000,390.226257,1.193444,12.000000,40.000000,0.000000,0.000000,0.000000,0.000000,0.000000,0.000000,0.000000,254.951645,0.000000,0.000000,0.000000,0.000000,0.000000
0.000000,0.000000,0.000000,1.000000,0.000000,0.000000,0.000000,0.000000,0,0,0,0,0,0,32.0141825072,34.8668671716,-9999.000000,0.000000,0.424000,121.400002,0.000000,0.000000,0.000000,0.000000,0.000000,390.226257,1.193444,12.000000,40.000000,0.000000,0.000000,0.000000,0.000000,0.000000,0.000000,0.000000,254.951645,0.000000,0.000000,0.000000,0.000000,0.000000
0.000000,0.000000,0.000000,1.000000,0.000000,0.000000,0.000000,0.000000,0,0,0,0,0,0,32.0141825072,34.8668671716,-9999.000000,0.000000,0.424000,121.400002,0.000000,0.000000,0.000000,0.000000,0.000000,390.226257,1.193444,12.000000,40.000000,0.000000,0.000000,0.000000,0.000000,0.000000,0.000000,0.000000,254.951645,0.000000,0.000000,0.000000,0.000000,0.000000
0.000000,0.000000,0.000000,1.000000,0.000000,0.000000,0.000000,0.000000,0,0,0,0,0,0,32.0141825072,34.8668671716,-9999.000000,0.000000,0.424000,121.400002,0.000000,0.000000,0.000000,0.000000,0.000000,390.226257,1.193444,12.000000,40.000000,0.000000,0.000000,0.000000,0.000000,0.000000,0.000000,0.000000,254.951645,0.000000,0.000000,0.000000,0.000000,0.000000
0.000000,0.000000,0.000000,1.000000,0.000000,0.000000,0.000000,0.000000,0,0,0,0,0,0,32.0141825072,34.8668671716,-9999.000000,0.000000,0.424000,121.400002,0.000000,0.000000,0.000000,0.000000,0.000000,390.226257,1.193444,12.000000,40.000000,0.000000,0.000000,0.000000,0.000000,0.000000,0.000000,0.000000,254.951645,0.000000,0.000000,0.000000,0.000000,0.000000
0.000000,0.000000,0.000000,1.000000,0.000000,0.000000,0.000000,0.000000,0,0,0,0,0,0,32.0141825072,34.8668671716,-9999.000000,0.000000,0.424000,121.400002,0.000000,0.000000,0.000000,0.000000,0.000000,390.226257,1.193444,12.000000,40.000000,0.000000,0.000000,0.000000,0.000000,0.000000,0.000000,0.000000,254.951645,0.000000,0.000000,0.000000,0.000000,0.000000
0.000000,0.000000,0.000000,1.000000,0.000000,0.000000,0.000000,0.000000,0,0,0,0,0,0,32.0141825072,34.8668671716,-9999.000000,0.000000,0.424000,121.400002,0.000000,0.000000,0.000000,0.000000,0.000000,390.226257,1.193444,12.000000,40.000000,0.000000,0.000000,0.000000,0.000000,0.000000,0.000000,0.000000,254.951645,0.000000,0.000000,0.000000,0.000000,0.000000
0.000000,0.000000,0.000000,1.000000,0.000000,0.000000,0.000000,0.000000,0,0,0,0,0,0,32.0141825072,34.8668671716,-9999.000000,0.000000,0.424000,121.400002,0.000000,0.000000,0.000000,0.000000,0.000000,390.226257,1.193444,12.000000,40.000000,0.000000,0.000000,0.000000,0.000000,0.000000,0.000000,0.000000,254.951645,0.000000,0.000000,0.000000,0.000000,0.000000
0.000000,0.000000,0.000000,1.000000,0.000000,0.000000,0.000000,0.000000,0,0,0,0,0,0,32.0141825072,34.8668671716,-9999.000000,0.000000,0.424000,121.400002,0.000000,0.000000,0.000000,0.000000,0.000000,390.226257,1.193444,12.000000,40.000000,0.000000,0.000000,0.000000,0.000000,0.000000,0.000000,0.000000,254.951645,0.000000,0.000000,0.000000,0.000000,0.000000
0.000000,0.000000,0.000000,1.000000,0.000000,0.000000,0.000000,0.000000,0,0,0,0,0,0,32.0141825072,34.8668671716,-9999.000000,0.000000,0.424000,121.400002,0.000000,0.000000,0.000000,0.000000,0.000000,390.226257,1.193444,12.000000,40.000000,0.000000,0.000000,0.000000,0.000000,0.000000,0.000000,0.000000,254.951645,0.000000,0.000000,0.000000,0.000000,0.000000
0.000000,0.000000,0.000000,1.000000,0.000000,0.000000,0.000000,0.000000,0,0,0,0,0,0,32.0141825072,34.8668671716,-9999.000000,0.000000,0.424000,121.400002,0.000000,0.000000,0.000000,0.000000,0.000000,390.226257,1.193444,12.000000,40.000000,0.000000,0.000000,0.000000,0.000000,0.000000,0.000000,0.000000,254.951645,0.000000,0.000000,0.000000,0.000000,0.000000
0.000000,0.000000,0.000000,0.000000,0.000000,0.000000,0.000000,0.000000,0,0,0,0,0,0,32.0141827131,34.8668660992,107.687912,-0.159268,-0.729272,121.399879,0.000000,0.000000,0.000000,0.000000,0.000000,390.226257,1.193444,12.000000,40.000000,0.000000,0.000000,0.000000,0.000000,0.000000,0.000000,0.000000,254.951645,0.000000,0.000000,0.000000,0.000000,0.000000
0.000000,0.000000,0.000000,0.000000,0.000000,0.000000,0.000000,0.000000,0,0,0,0,0,0,32.0141827140,34.8668661024,107.687698,-0.168711,-0.737100,121.400063,31.309732,3.016499,-0.836149,-0.000044,0.000000,500.325531,111.292717,12.000000,40.000000,0.000000,0.000000,110.000145,110.000000,107.687698,0.000007,-0.002746,254.951614,10.175203,0.002483,-0.985256,2747.019531,0.000000
0.000000,0.000000,0.000000,0.000000,0.000000,0.000000,0.000000,0.000000,0,0,0,0,0,0,32.0141827141,34.8668661019,107.687737,-0.168402,-0.735368,121.400055,37.493694,2.737261,0.826880,0.000009,0.000000,471.954346,82.921539,12.000000,40.000000,0.000000,0.000000,80.000145,80.000000,107.687737,0.000006,0.000603,254.951614,36.224037,0.003245,-1.582221,848.530151,0.000000
0.000000,0.000000,0.000000,0.000000,0.000000,0.000000,0.000000,0.000000,0,0,0,0,0,0,32.0141827143,34.8668661015,107.687782,-0.168205,-0.733733,121.400047,44.975079,2.496702,0.856596,0.000009,0.000000,443.579163,54.546349,12.000000,40.000000,0.000000,0.000000,50.000141,50.000000,107.687782,0.000005,0.000536,254.951614,70.620522,0.003499,-1.943920,-730.909180,0.000000
0.000000,0.000000,0.000000,0.000000,0.000000,0.000000,0.000000,0.000000,0,0,0,0,0,0,32.0141827144,34.8668661013,107.687798,-0.168177,-0.733060,121.400047,49.169754,2.396279,0.811257,0.000024,1.226369,429.709381,40.676571,12.000000,40.000000,0.000000,0.000000,40.000141,40.000000,107.687798,0.000004,0.001507,254.951614,88.227524,0.003553,-2.065340,-1039.757813,0.000000
0.000000,0.000000,0.000000,0.000000,0.000000,0.000000,0.000000,0.000000,0,0,0,0,0,0,32.0141827144,34.8668661013,107.687805,-0.168176,-0.732936,121.400047,50.593288,2.366832,0.424408,0.000030,4.734005,426.010162,36.977367,12.000000,40.000000,0.000000,0.000000,40.000141,40.000000,107.687805,0.000004,0.001708,254.951614,93.790939,0.003566,-2.098490,-1087.345459,0.000000
0.000000,0.000000,0.000000,0.000000,0.000000,0.000000,0.000000,0.000000,0,0,0,0,0,0,32.0141827144,34.8668661013,107.687805,-0.168180,-0.732837,121.400047,51.510635,2.348996,0.381521,0.000031,5.781116,423.603912,34.571098,12.000000,40.000000,0.000000,0.000000,40.000141,40.000000,107.687805,0.000004,0.001808,254.951614,97.256775,0.003573,-2.118111,-1118.260254,0.000000
0.000000,0.000000,0.000000,0.000000,0.000000,0.000000,0.000000,0.000000,0,0,0,0,0,0,32.0141827144,34.8668661012,107.687805,-0.168186,-0.732713,121.400047,52.520077,2.330362,0.392518,0.000036,6.030049,420.636414,31.603615,12.000000,40.000000,0.000000,0.000000,30.000143,30.000000,107.687805,0.000004,0.001775,254.951614,100.961121,0.003577,-2.138288,-1166.435791,0.000000
0.000000,0.000000,0.000000,0.000000,0.000000,0.000000,0.000000,0.000000,0,0,0,0,0,0,32.0141827144,34.8668661012,107.687813,-0.168197,-0.732580,121.400047,53.545567,2.312460,0.401991,0.000038,6.104435,417.596771,28.563974,12.000000,40.000000,0.000000,0.000000,30.000143,30.000000,107.687813,0.000004,0.002009,254.951614,104.605850,0.003585,-2.157398,-1212.016724,0.000000
0.000000,0.000000,0.000000,0.000000,0.000000,0.000000,0.000000,0.000000,0,0,0,0,0,0,32.0141827145,34.8668661012,107.687813,-0.168213,-0.732418,121.400047,54.748337,2.292738,0.412808,0.000041,5.909335,413.956085,24.923296,12.000000,40.000000,0.000000,0.000000,30.000143,30.000000,107.687813,0.000004,0.002277,254.951614,108.727859,0.003590,-2.178197,-1263.624512,0.000000
0.000000,0.000000,0.000000,0.000000,0.000000,0.000000,0.000000,0.000000,0,0,0,0,0,0,32.0141827145,34.8668661011,107.687820,-0.168234,-0.732256,121.400047,55.971527,2.274040,0.427859,0.000042,5.851432,410.383728,21.350937,12.000000,40.000000,0.000000,0.000000,20.000143,20.000000,107.687820,0.000004,0.002277,254.951614,112.750412,0.003597,-2.197734,-1305.172974,0.000000
0.000000,0.000000,0.000000,0.000000,0.000000,0.000000,0.000000,0.000000,0,0,0,0,0,0,32.0141827146,34.8668661010,107.687836,-0.168350,-0.731712,121.400047,59.499889,2.227363,0.684262,0.000039,2.635599,399.414764,10.381971,12.000000,40.000000,0.000000,0.000000,10.000142,10.000000,107.687836,0.000003,0.001875,254.951614,123.401901,0.003615,-2.246353,-1410.781982,0.000000
0.000000,0.000000,0.000000,0.000000,0.000000,0.000000,0.000000,0.000000,0,0,0,0,0,0,32.0141827149,34.8668661008,107.687874,-0.168991,-0.730428,121.400055,70.250389,2.143936,0.819542,0.000008,0.000000,371.605347,-17.427441,12.000000,40.000000,0.000000,0.000000,-19.999857,-20.000000,107.687874,0.000003,0.000469,254.951614,147.550629,0.003726,-2.346316,-1341.711914,0.000000
0.000000,0.000000,0.000000,0.000000,0.000000,0.000000,0.000000,0.000000,0,0,0,0,0,0,32.0141827149,34.8668661008,107.687881,-0.169143,-0.730265,121.400055,72.758347,2.135993,0.341167,0.000022,3.904410,366.100067,-22.932737,12.000000,40.000000,0.000000,0.000000,-19.999857,-20.000000,107.687881,0.000003,0.001038,254.951614,151.493286,0.003730,-2.362701,-1363.938965,0.000000
0.000000,0.000000,0.000000,0.000000,0.000000,0.000000,0.000000,0.000000,0,0,0,0,0,0,32.0141827150,34.8668661008,107.687881,-0.169313,-0.730090,121.400063,74.813042,2.132570,0.294421,0.000025,4.664522,361.377563,-27.655241,12.000000,40.000000,0.000000,0.000000,-29.999857,-30.000000,107.687881,0.000002,0.001641,254.951614,154.270508,0.003754,-2.374751,-1391.660645,0.000000
0.000000,0.000000,0.000000,0.000000,0.000000,0.000000,0.000000,0.000000,0,0,0,0,0,0,32.0141827152,34.8668661007,107.687897,-0.169944,-0.729522,121.400070,79.677406,2.135446,0.634104,0.000025,1.693793,348.976654,-40.056152,12.000000,40.000000,0.000000,0.000000,-39.999859,-40.000000,107.687897,0.000002,0.001507,254.951614,159.260056,0.003829,-2.399195,-1457.564697,0.000000
0.000000,0.000000,0.000000,0.000000,0.000000,0.000000,0.000000,0.000000,0,0,0,0,0,0,32.0141827152,34.8668661007,107.687904,-0.170159,-0.729366,121.400070,81.816994,2.141582,0.297924,0.000027,4.358951,344.375946,-44.656853,12.000000,40.000000,0.000000,0.000000,-39.999859,-40.000000,107.687904,0.000002,0.001373,254.951614,160.761978,0.003844,-2.408426,-1458.232666,0.000000
0.000000,0.000000,0.000000,0.000000,0.000000,0.000000,0.000000,0.000000,0,0,0,0,0,0,32.0141827155,34.8668661007,107.687912,-0.170953,-0.728818,121.400085,86.318459,2.164576,0.490522,0.000026,1.907672,332.778534,-56.254276,12.000000,40.000000,0.000000,0.000000,-59.999859,-60.000000,107.687912,0.000002,0.001339,254.951614,162.551514,0.003955,-2.425369,-1503.007080,0.000000
0.000000,0.000000,0.000000,0.000000,0.000000,0.000000,0.000000,0.000000,0,0,0,0,0,0,32.0141827137,34.8668660998,107.687988,-0.162728,-0.729938,121.399940,88.759209,2.206059,0.212108,0.000056,1.384457,320.321594,-68.711212,12.000000,40.000000,0.000000,0.000000,-69.999855,-70.000000,107.687988,0.000002,0.002478,254.951614,162.380203,0.003586,-2.440682,-1513.178955,0.000000
0.000000,0.000000,0.000000,0.000000,0.000000,0.000000,0.000000,0.000000,0,0,0,0,0,0,32.0141827137,34.8668660995,107.687958,-0.162263,-0.728978,121.399933,78.855583,2.348442,-1.148058,-0.000004,0.000000,293.170990,-95.861801,12.000000,40.000000,0.000000,0.000000,-99.999855,-100.000000,107.687958,0.000002,-0.000134,254.951614,155.090836,0.002924,-2.464059,-1394.822754,0.000000
0.000000,0.000000,0.000000,0.000000,0.000000,0.000000,0.000000,0.000000,0,0,0,0,0,0,32.0141827137,34.8668660995,107.687958,-0.162282,-0.728957,121.399933,77.330933,2.378528,0.078161,0.000001,4.560671,289.453552,-99.579247,12.000000,40.000000,0.000000,0.000000,-99.999855,-100.000000,107.687958,0.000001,-0.000234,254.951614,153.116257,0.002874,-2.466939,-1390.958984,0.000000
0.000000,0.000000,0.000000,0.000000,0.000000,0.000000,0.000000,0.000000,0,0,0,0,0,0,32.0141827137,34.8668660995,107.687958,-0.162314,-0.728911,121.399933,75.771881,2.411892,0.250105,0.000005,4.847191,284.817841,-104.214966,12.000000,40.000000,0.000000,0.000000,-99.999855,-100.000000,107.687958,0.000001,0.000201,254.951614,150.856461,0.002834,-2.469714,-1419.349243,0.000000
0.000000,0.000000,0.000000,0.000000,0.000000,0.000000,0.000000,0.000000,0,0,0,0,0,0,32.0141827137,34.8668660995,107.687958,-0.162335,-0.728885,121.399933,74.828522,2.433421,0.326621,0.000008,5.721664,282.231293,-106.801514,12.000000,40.000000,0.000000,0.000000,-99.999855,-100.000000,107.687958,0.000001,0.000268,254.951614,149.370483,0.002812,-2.471314,-1423.655151,0.000000
0.000000,0.000000,0.000000,0.000000,0.000000,0.000000,0.000000,0.000000,0,0,0,0,0,0,32.0141827137,34.8668660995,107.687958,-0.162359,-0.728856,121.399933,73.901924,2.455599,0.326253,0.000009,5.983903,279.412048,-109.620743,12.000000,40.000000,0.000000,0.000000,-109.999855,-110.000000,107.687958,0.000001,0.000167,254.951614,147.823776,0.002790,-2.472830,-1438.024414,0.000000
0.000000,0.000000,0.000000,0.000000,0.000000,0.000000,0.000000,0.000000,0,0,0,0,0,0,32.0141827137,34.8668660995,107.687958,-0.162389,-0.728824,121.399933,72.992096,2.478408,0.264405,0.000008,6.065504,276.517761,-112.515053,12.000000,40.000000,0.000000,0.000000,-109.999855,-110.000000,107.687958,0.000001,0.000469,254.951614,146.221222,0.002771,-2.474265,-1454.462891,0.000000
0.000000,0.000000,0.000000,0.000000,0.000000,0.000000,0.000000,0.000000,0,0,0,0,0,0,32.0141827137,34.8668660995,107.687958,-0.162422,-0.728787,121.399933,72.031029,2.503661,0.344411,0.000011,5.984913,273.324615,-115.708176,12.000000,40.000000,0.000000,0.000000,-109.999855,-110.000000,107.687958,0.000001,0.000636,254.951614,144.438599,0.002758,-2.475727,-1473.723267,0.000000
0.000000,0.000000,0.000000,0.000000,0.000000,0.000000,0.000000,0.000000,0,0,0,0,0,0,32.0141827138,34.8668660995,107.687958,-0.162458,-0.728751,121.399940,71.089355,2.529606,0.364706,0.000011,5.958125,270.158020,-118.874779,12.000000,40.000000,0.000000,0.000000,-119.999855,-120.000000,107.687958,0.000001,0.000402,254.951614,142.603088,0.002742,-2.477105,-1490.052002,0.000000
0.000000,0.000000,0.000000,0.000000,0.000000,0.000000,0.000000,0.000000,0,0,0,0,0,0,32.0141827138,34.8668660995,107.687965,-0.162490,-0.728719,121.399940,70.232246,2.554297,0.417531,0.000013,6.053225,267.272522,-121.760269,12.000000,40.000000,0.000000,0.000000,-119.999855,-120.000000,107.687965,0.000001,0.000435,254.951614,140.856705,0.002733,-2.478314,-1501.678101,0.000000
0.000000,0.000000,0.000000,0.000000,0.000000,0.000000,0.000000,0.000000,0,0,0,0,0,0,32.0141827138,34.8668660995,107.687965,-0.162525,-0.728685,121.399940,69.391716,2.579550,0.321441,0.000011,6.085254,264.356842,-124.675964,12.000000,40.000000,0.000000,0.000000,-119.999855,-120.000000,107.687965,0.000001,0.000804,254.951614,139.074982,0.002724,-2.479460,-1513.635376,0.000000
0.000000,0.000000,0.000000,0.000000,0.000000,0.000000,0.000000,0.000000,0,0,0,0,0,0,32.0141827138,34.8668660995,107.687965,-0.162566,-0.728645,121.399940,68.504913,2.607355,0.387131,0.000014,5.988297,261.156525,-127.876266,12.000000,40.000000,0.000000,0.000000,-129.999863,-130.000000,107.687965,0.000001,0.000469,254.951614,137.122253,0.002714,-2.480626,-1527.811768,0.000000
0.000000,0.000000,0.000000,0.000000,0.000000,0.000000,0.000000,0.000000,0,0,0,0,0,0,32.0141827138,34.8668660995,107.687965,-0.162602,-0.728608,121.399940,67.698341,2.633724,0.351980,0.000013,6.061041,258.261444,-130.771347,12.000000,40.000000,0.000000,0.000000,-129.999863,-130.000000,107.687965,0.000001,0.001038,254.951614,135.282669,0.002710,-2.481650,-1536.794800,0.000000
0.000000,0.000000,0.000000,0.000000,0.000000,0.000000,0.000000,0.000000,0,0,0,0,0,0,32.0141827138,34.8668660995,107.687965,-0.162614,-0.728577,121.399940,67.004494,2.630267,0.556396,0.000012,6.087271,255.343399,-133.689407,12.000000,40.000000,0.000000,0.000000,-129.999863,-130.000000,107.687965,0.000001,0.000703,254.951614,133.422668,0.002716,-2.482620,-1546.025879,0.000000
0.000000,0.000000,0.000000,0.000000,0.000000,0.000000,0.000000,0.000000,0,0,0,0,0,0,32.0141827138,34.8668660994,107.687965,-0.162593,-0.728550,121.399940,66.312881,2.625839,0.375799,0.000010,6.096615,252.417969,-136.614838,12.000000,40.000000,0.000000,0.000000,-129.999863,-130.000000,107.687965,0.000001,0.000335,254.951614,131.547028,0.002722,-2.483538,-1554.837524,0.000000
0.000000,0.000000,0.000000,0.000000,0.000000,0.000000,0.000000,0.000000,0,0,0,0,0,0,32.0141827138,34.8668660994,107.687965,-0.162556,-0.728524,121.399940,65.618935,2.621789,0.277004,0.000008,6.100523,249.490158,-139.542648,12.000000,40.000000,0.000000,0.000000,-139.999863,-140.000000,107.687965,0.000001,0.000335,254.951614,129.660416,0.002712,-2.484407,-1563.060913,0.000000
0.000000,0.000000,0.000000,0.000000,0.000000,0.000000,0.000000,0.000000,0,0,0,0,0,0,32.0141827138,34.8668660994,107.687973,-0.162510,-0.728499,121.399940,64.869263,2.617858,0.271232,0.000008,5.995945,246.286636,-142.746155,12.000000,40.000000,0.000000,0.000000,-139.999863,-140.000000,107.687973,0.000001,0.000000,254.951614,127.621712,0.002707,-2.485293,-1573.130005,0.000000
0.000000,0.000000,0.000000,0.000000,0.000000,0.000000,0.000000,0.000000,0,0,0,0,0,0,32.0141827138,34.8668660994,107.687973,-0.162463,-0.728480,121.399933,64.117447,2.614375,0.179476,0.000005,5.963597,243.117813,-145.914993,12.000000,40.000000,0.000000,0.000000,-139.999863,-140.000000,107.687973,0.000001,0.000502,254.951614,125.581314,0.002702,-2.486128,-1580.956787,0.000000
0.000000,0.000000,0.000000,0.000000,0.000000,0.000000,0.000000,0.000000,0,0,0,0,0,0,32.0141827138,34.8668660994,107.687973,-0.162410,-0.728459,121.399933,63.309830,2.611142,0.175053,0.000005,5.843819,239.684464,-149.348343,12.000000,40.000000,0.000000,0.000000,-149.999863,-150.000000,107.687973,0.000001,0.000234,254.951614,123.399574,0.002696,-2.486970,-1590.017334,0.000000
0.000000,0.000000,0.000000,0.000000,0.000000,0.000000,0.000000,0.000000,0,0,0,0,0,0,32.0141827138,34.8668660994,107.687973,-0.162359,-0.728440,121.399933,62.500301,2.608430,0.113296,0.000003,5.810681,236.290298,-152.742508,12.000000,40.000000,0.000000,0.000000,-149.999863,-150.000000,107.687973,0.000001,0.000100,254.951614,121.228859,0.002684,-2.487761,-1596.721802,0.000000
0.000000,0.000000,0.000000,0.000000,0.000000,0.000000,0.000000,0.000000,0,0,0,0,0,0,32.0141827138,34.8668660994,107.687973,-0.162307,-0.728421,121.399933,61.635113,2.606111,0.138218,0.000004,5.688497,232.632553,-156.400238,12.000000,40.000000,0.000000,0.000000,-149.999863,-150.000000,107.687973,0.000001,0.000335,254.951614,118.932823,0.002678,-2.488552,-1604.553101,0.000000
0.000000,0.000000,0.000000,0.000000,0.000000,0.000000,0.000000,0.000000,0,0,0,0,0,0,32.0141827137,34.8668660993,107.687973,-0.162154,-0.728363,121.399933,59.412544,2.602883,0.330660,0.000004,2.987580,222.480133,-166.552658,12.000000,40.000000,0.000000,0.000000,-169.999863,-170.000000,107.687973,0.000001,0.000234,254.951614,113.191406,0.002656,-2.490353,-1633.524902,0.000000
0.000000,0.000000,0.000000,0.000000,0.000000,0.000000,0.000000,0.000000,0,0,0,0,0,0,32.0141827137,34.8668660993,107.687973,-0.161822,-0.728220,121.399925,52.918312,2.615975,0.864337,0.000002,1.280306,195.148865,-193.883942,12.000000,40.000000,0.000000,0.000000,-189.999863,-190.000000,107.687973,0.000001,0.000201,254.951614,98.458817,0.002572,-2.494155,-1471.417969,0.000000
0.000000,0.000000,0.000000,0.000000,0.000000,0.000000,0.000000,0.000000,0,0,0,0,0,0,32.0141827137,34.8668660992,107.687981,-0.161724,-0.728167,121.399925,50.139484,2.631984,0.538914,0.000003,2.358334,183.558823,-205.473984,12.000000,40.000000,0.000000,0.000000,-199.999863,-200.000000,107.687981,0.000001,0.000234,254.951614,93.432274,0.002548,-2.495296,-1484.254395,0.000000
0.000000,0.000000,0.000000,0.000000,0.000000,0.000000,0.000000,1.000000,0,0,0,0,0,0,32.0141827137,34.8668660992,107.687981,-0.161508,-0.728009,121.399918,43.896156,2.692028,0.871615,0.000003,1.757416,156.394775,-232.638016,12.000000,40.000000,0.000000,0.000000,-229.999863,-230.000000,107.687981,0.000001,0.000134,254.951614,85.726807,0.002500,-2.497150,-1374.575806,0.000000
0.000000,0.000000,0.000000,0.000000,0.000000,0.000000,1.000000,1.000000,0,0,0,0,0,0,32.0141827137,34.8668660992,107.687981,-0.161485,-0.727993,121.399918,42.634361,2.708457,0.476829,0.000004,4.587759,151.400909,-237.631897,12.000000,40.000000,0.000000,0.000000,-239.999863,-240.000000,107.687981,0.000001,0.000435,254.951614,84.838860,0.002495,-2.497432,-1385.399170,0.000000
0.000000,0.000000,0.000000,0.000000,0.000000,0.000000,1.000000,1.000000,0,0,0,0,0,0,32.0141827137,34.8668660991,107.687988,-0.161460,-0.727972,121.399918,41.586533,2.723261,0.414693,0.000005,5.239090,146.893417,-242.139374,12.000000,40.000000,0.000000,0.000000,-239.999863,-240.000000,107.687988,0.000001,0.000167,254.951614,84.283318,0.002491,-2.497648,-1408.367676,0.000000
0.000000,0.000000,0.000000,0.000000,0.000000,0.000000,1.000000,1.000000,0,0,0,0,0,0,32.0141827137,34.8668660991,107.687988,-0.161445,-0.727956,121.399918,40.845127,2.734391,0.586696,0.000008,5.950722,143.800201,-245.232605,12.000000,40.000000,0.000000,0.000000,-239.999863,-240.000000,107.687988,0.000000,0.000033,254.951614,83.991402,0.002488,-2.497791,-1418.459106,0.000000
0.000000,0.000000,0.000000,0.000000,0.000000,0.000000,1.000000,1.000000,0,0,0,0,0,0,32.0141827136,34.8668660991,107.687988,-0.161428,-0.727942,121.399918,40.061020,2.746762,0.335214,0.000004,6.039950,140.226425,-248.806366,12.000000,40.000000,0.000000,0.000000,-249.999863,-250.000000,107.687988,0.000000,0.000335,254.951614,83.774811,0.002485,-2.497933,-1440.064697,0.000000
0.000000,0.000000,-0.001000,0.000000,0.000000,0.000000,1.000000,1.000000,0,0,0,0,0,0,32.0141827136,34.8668660991,107.687988,-0.161407,-0.727920,121.399918,39.187450,2.761289,0.402622,0.000006,5.853744,136.082550,-252.950256,12.000000,40.000000,0.000000,0.000000,-249.999863,-250.000000,107.687988,0.000000,0.000335,254.951614,83.645859,0.002482,-2.498083,-1466.412720,0.000000
0.000000,0.000000,-0.001000,0.000000,0.000000,0.000000,1.000000,1.000000,0,0,0,0,0,0,32.0141827136,34.8668660991,107.687988,-0.161387,-0.727902,121.399918,38.466541,2.773882,0.463741,0.000007,6.134071,132.821838,-256.210968,12.000000,40.000000,0.000000,0.000000,-249.999863,-250.000000,107.687988,0.000000,0.000201,254.951614,83.629089,0.002480,-2.498199,-1478.280273,0.000000
-0.572000,0.000000,-0.001000,0.000000,0.000000,0.000000,1.000000,1.000000,0,0,0,0,0,0,32.0141827136,34.8668660991,107.687988,-0.161366,-0.727876,121.399918,37.562855,2.790456,0.455039,0.000007,5.784351,128.379562,-260.653259,12.000000,40.000000,0.000000,0.000000,-259.999847,-260.000000,107.687988,0.000000,0.000301,254.951614,83.722916,0.002474,-2.498337,-1503.815308,0.000000
-0.572000,0.000000,-0.001000,0.000000,0.000000,0.000000,1.000000,1.000000,0,0,0,0,0,0,32.0141827139,34.8668660992,107.687988,-0.162356,-0.727796,121.399933,35.465366,2.832409,0.087539,0.000006,3.315247,117.411377,-271.621429,12.000000,40.000000,0.000000,0.000000,-269.999847,-270.000000,107.687988,0.000000,0.000033,254.951614,84.432297,0.002496,-2.498622,-1547.927246,0.000000
-0.572000,0.000000,-0.001000,0.000000,0.000000,0.000000,1.000000,1.000000,0,0,0,0,0,0,32.0141827139,34.8668660992,107.687996,-0.162446,-0.727777,121.399933,34.554287,2.852273,0.175244,0.000004,5.292090,113.511810,-275.520996,12.000000,40.000000,0.000000,0.000000,-269.999847,-270.000000,107.687996,0.000000,0.000536,254.951614,84.953514,0.002537,-2.498732,-1534.466431,0.000000
-0.572000,0.000000,-0.001000,0.000000,0.000000,0.000000,1.000000,1.000000,0,0,0,0,0,0,32.0141827139,34.8668660992,107.687996,-0.162473,-0.727756,121.399933,33.744915,2.870752,0.366448,0.000005,5.784139,109.646370,-279.386414,12.000000,40.000000,0.000000,0.000000,-279.999847,-280.000000,107.687996,0.000000,0.000402,254.951614,85.522972,0.002555,-2.498824,-1538.594849,0.000000
-0.572000,0.000000,-0.001000,0.000000,0.000000,0.000000,1.000000,1.000000,0,0,0,0,0,0,32.0141827139,34.8668660992,107.687996,-0.162492,-0.727675,121.399933,31.680758,2.921237,0.637788,0.000005,2.760531,105.632217,-283.400574,12.000000,40.000000,0.000000,0.000000,-279.999847,-280.000000,107.687996,0.000000,0.000368,254.951614,87.417908,0.002589,-2.499033,-1289.835327,0.000000
-0.572000,0.000000,-0.001000,0.000000,0.000000,0.000000,1.000000,1.000000,0,0,0,0,0,0,32.0141827139,34.8668660992,107.687996,-0.162495,-0.727655,121.399933,30.909454,2.941483,0.571586,0.000007,2.522320,105.571434,-283.461365,12.000000,40.000000,0.000000,0.000000,-279.999847,-280.000000,107.687996,0.000000,0.000268,254.951614,88.283981,0.002597,-2.499103,-1130.020508,0.000000
-0.572000,0.000000,-0.001000,0.000000,0.000000,0.000000,1.000000,1.000000,0,0,0,0,0,0,32.0141827139,34.8668660992,107.687996,-0.162499,-0.727637,121.399933,30.274912,2.958759,0.715897,0.000008,2.501813,105.554604,-283.478210,12.000000,40.000000,0.000000,0.000000,-279.999847,-280.000000,107.687996,0.000000,0.000402,254.951614,89.058319,0.002602,-2.499158,-995.028137,0.000000
-0.572000,0.000000,-0.001000,0.000000,0.000000,0.000000,1.000000,1.000000,0,0,0,0,0,0,32.0141827139,34.8668660992,107.688004,-0.162503,-0.727614,121.399933,29.523331,2.979957,0.514657,0.000007,2.525559,105.542946,-283.489868,12.000000,40.000000,0.000000,0.000000,-279.999847,-280.000000,107.688004,0.000000,0.000301,254.951614,90.045326,0.002610,-2.499219,-832.478149,0.000000
-0.572000,0.000000,-0.001000,0.000000,0.000000,0.000000,1.000000,1.000000,0,0,0,0,0,0,32.0141827139,34.8668660992,107.688004,-0.162511,-0.727582,121.399933,28.700912,3.004103,0.550521,0.000008,2.566767,105.532639,-283.500153,12.000000,40.000000,0.000000,0.000000,-279.999847,-280.000000,107.688004,0.000000,0.000469,254.951614,91.208755,0.002616,-2.499281,-651.604675,0.000000
-0.572000,0.000000,-0.001000,0.000000,0.000000,0.000000,1.000000,1.000000,0,0,0,0,0,0,32.0141827139,34.8668660992,107.688004,-0.162515,-0.727560,121.399933,28.646139,3.005625,0.851634,0.000007,2.570025,105.523163,-283.509644,12.000000,40.000000,0.000000,0.000000,-279.999847,-280.000000,107.688004,0.000000,0.000435,254.951614,92.371460,0.002623,-2.499336,-479.651031,0.000000
-0.572000,0.000000,-0.001000,0.000000,0.000000,0.000000,1.000000,1.000000,0,0,0,0,0,0,32.0141827139,34.8668660992,107.688004,-0.162515,-0.727552,121.399933,28.646124,3.005512,0.844160,0.000004,2.571620,105.515427,-283.517365,12.000000,40.000000,0.000000,0.000000,-279.999847,-280.000000,107.688004,0.000000,0.000402,254.951614,93.388390,0.002627,-2.499379,-334.699066,0.000000
-0.572000,0.000000,-0.001000,0.000000,0.000000,0.000000,1.000000,1.000000,0,0,0,0,0,0,32.0141827139,34.8668660992,107.688004,-0.162513,-0.727542,121.399933,28.646111,3.005191,0.314466,0.000001,2.560156,105.490723,-283.542084,12.000000,40.000000,0.000000,0.000000,-279.999847,-280.000000,107.688004,0.000000,0.000067,254.951614,96.393982,0.002634,-2.499485,-15.136452,0.000000
-0.572000,0.000000,-0.001000,0.000000,0.000000,0.000000,1.000000,1.000000,0,0,0,0,0,0,32.0141827139,34.8668660992,107.688004,-0.162511,-0.727539,121.399933,28.646103,3.004333,-0.098254,-0.000000,2.556680,105.429886,-283.602905,12.000000,40.000000,0.000000,0.000000,-279.999847,-280.000000,107.688004,0.000000,0.000000,254.951614,104.826042,0.002645,-2.499688,-10.305288,0.000000
-0.572000,0.000000,-0.001000,0.000000,0.000000,0.000000,1.000000,1.000000,0,0,0,0,0,0,32.0141827139,34.8668660992,107.688004,-0.162511,-0.727537,121.399933,28.646111,3.004169,0.761089,0.000001,2.565090,105.419884,-283.612915,12.000000,40.000000,0.000000,0.000000,-279.999847,-280.000000,107.688004,0.000000,0.000033,254.951614,106.408844,0.002646,-2.499717,-18.081110,0.000000
-0.572000,0.000000,-0.001000,0.000000,0.000000,0.000000,1.000000,1.000000,0,0,0,0,0,0,32.0141827139,34.8668660992,107.688004,-0.162509,-0.727535,121.399933,28.646126,3.004062,0.710379,0.000002,2.569867,105.413254,-283.619537,12.000000,40.000000,0.000000,0.000000,-279.999847,-280.000000,107.688004,0.000000,0.000033,254.951614,107.421692,0.002648,-2.499734,-11.481947,0.000000
-0.572000,0.000000,-0.001000,0.000000,0.000000,0.000000,1.000000,1.000000,0,0,0,0,0,0,32.0141827139,34.8668660992,107.688004,-0.162507,-0.727534,121.399933,28.646103,3.003955,1.505203,0.000001,2.571114,105.405968,-283.626831,12.000000,40.000000,0.000000,0.000000,-279.999847,-280.000000,107.688004,0.000000,0.000067,254.951614,108.415970,0.002648,-2.499750,-19.638721,0.000000
-0.572000,0.000000,-0.001000,0.000000,0.000000,0.000000,1.000000,1.000000,0,0,0,0,0,0,32.0141827139,34.8668660992,107.688004,-0.162507,-0.727534,121.399933,28.646105,3.003862,1.406178,0.000001,2.572430,105.399704,-283.633087,12.000000,40.000000,0.000000,0.000000,-279.999847,-280.000000,107.688004,0.000000,0.000100,254.951614,109.260635,0.002648,-2.499763,-12.391762,0.000000
-0.572000,0.000000,-0.001000,0.000000,0.000000,0.000000,1.000000,1.000000,0,0,0,0,0,0,32.0141827139,34.8668660992,107.688004,-0.162506,-0.727534,121.399933,28.646107,3.003755,0.355977,0.000000,2.571704,105.392044,-283.640747,12.000000,40.000000,0.000000,0.000000,-279.999847,-280.000000,107.688004,0.000000,-0.000067,254.951614,110.213356,0.002648,-2.499778,-11.586873,0.000000
-0.572000,0.000000,-0.001000,0.000000,0.000000,0.000000,1.000000,1.000000,0,0,0,0,0,0,32.0141827139,34.8668660992,107.688004,-0.162506,-0.727534,121.399933,28.646101,3.003654,0.873615,0.000000,2.571977,105.385086,-283.647705,12.000000,40.000000,0.000000,0.000000,-279.999847,-280.000000,107.688004,0.000000,0.000067,254.951614,111.079422,0.002648,-2.499790,-18.607456,0.000000
-0.572000,0.000000,-0.001000,0.000000,0.000000,0.000000,1.000000,1.000000,0,0,0,0,0,0,32.0141827139,34.8668660992,107.688004,-0.162506,-0.727534,121.399933,28.646107,3.003540,-0.144171,-0.000000,2.570847,105.376846,-283.655945,12.000000,40.000000,0.000000,0.000000,-279.999847,-280.000000,107.688004,0.000000,-0.000100,254.951614,112.039467,0.002649,-2.499804,-18.539503,0.000000
-0.572000,0.000000,-0.001000,0.000000,0.000000,0.000000,1.000000,1.000000,0,0,0,0,0,0,32.0141827139,34.8668660992,107.688004,-0.162506,-0.727534,121.399933,28.646105,3.003440,1.216396,0.000000,2.571586,105.369980,-283.662811,12.000000,40.000000,0.000000,0.000000,-279.999847,-280.000000,107.688004,0.000000,0.000100,254.951614,112.851578,0.002649,-2.499815,-12.286200,0.000000
-0.572000,0.000000,-0.001000,0.000000,0.000000,0.000000,1.000000,1.000000,0,0,0,0,0,0,32.0141827139,34.8668660992,107.688004,-0.162506,-0.727534,121.399933,28.646105,3.003333,1.078698,0.000000,2.571197,105.362396,-283.670410,12.000000,40.000000,0.000000,0.000000,-279.999847,-280.000000,107.688004,0.000000,0.000067,254.951614,113.690880,0.002650,-2.499826,-11.390906,0.000000
-0.572000,0.000000,-0.001000,0.000000,0.000000,0.000000,1.000000,1.000000,0,0,0,0,0,0,32.0141827139,34.8668660992,107.688004,-0.162506,-0.727534,121.399933,28.646103,3.003233,0.322963,0.000000,2.571570,105.355461,-283.677338,12.000000,40.000000,0.000000,0.000000,-279.999847,-280.000000,107.688004,0.000000,0.000033,254.951614,114.443909,0.002650,-2.499836,-17.762449,0.000000
-0.572000,0.000000,-0.001000,0.000000,0.000000,0.000000,1.000000,1.000000,0,0,0,0,0,0,32.0141827139,34.8668660992,107.688004,-0.162506,-0.727534,121.399933,28.646109,3.003133,-0.426204,-0.000000,2.571629,105.348457,-283.684357,12.000000,40.000000,0.000000,0.000000,-279.999847,-280.000000,107.688004,0.000000,-0.000100,254.951614,115.166275,0.002651,-2.499846,-12.422746,0.000000
-0.572000,0.000000,-0.001000,0.000000,0.000000,0.000000,1.000000,1.000000,0,0,0,0,0,0,32.0141827139,34.8668660992,107.688004,-0.162505,-0.727534,121.399933,28.646101,3.003026,0.643417,0.000000,2.571014,105.340828,-283.691956,12.000000,40.000000,0.000000,0.000000,-279.999847,-280.000000,107.688004,0.000000,-0.000000,254.951614,115.904823,0.002651,-2.499855,-11.504968,0.000000
-0.572000,0.000000,-0.001000,0.000000,0.000000,0.000000,1.000000,1.000000,0,0,0,0,0,0,32.0141827139,34.8668660992,107.688004,-0.162505,-0.727534,121.399933,28.646101,3.002919,0.591104,0.000000,2.570771,105.333275,-283.699524,12.000000,40.000000,0.000000,0.000000,-279.999847,-280.000000,107.688004,0.000000,0.000067,254.951614,116.605385,0.002651,-2.499864,-7.665080,0.000000
-0.572000,0.000000,-0.001000,0.000000,0.000000,0.000000,1.000000,1.000000,0,0,0,0,0,0,32.0141827139,34.8668660992,107.688004,-0.162505,-0.727535,121.399933,28.646099,3.002819,-0.483505,-0.000000,2.571192,105.326355,-283.706451,12.000000,40.000000,0.000000,0.000000,-279.999847,-280.000000,107.688004,0.000000,-0.000100,254.951614,117.223877,0.002651,-2.499871,-17.126894,0.000000
-0.572000,0.000000,-0.001000,0.000000,0.000000,0.000000,1.000000,1.000000,0,0,0,0,0,0,32.0141827139,34.8668660992,107.688004,-0.162505,-0.727535,121.399933,28.646103,3.002705,-0.929054,-0.000000,2.570109,105.318138,-283.714661,12.000000,40.000000,0.000000,0.000000,-279.999847,-280.000000,107.688004,0.000000,0.000134,254.951614,117.887787,0.002651,-2.499880,-16.939373,0.000000
-0.572000,0.000000,-0.001000,0.000000,0.000000,0.000000,1.000000,1.000000,0,0,0,0,0,0,32.0141827139,34.8668660992,107.688004,-0.162505,-0.727535,121.399933,28.646105,3.002605,1.096252,0.000001,2.570858,105.311279,-283.721527,12.000000,40.000000,0.000000,0.000000,-279.999847,-280.000000,107.688004,0.000000,0.000000,254.951614,118.430283,0.002651,-2.499887,-11.869750,0.000000
-0.572000,0.000000,-0.001000,0.000000,0.000000,0.000000,1.000000,1.000000,0,0,0,0,0,0,32.0141827139,34.8668660992,107.688004,-0.162505,-0.727535,121.399933,28.646105,3.002505,0.289851,0.000000,2.571035,105.304314,-283.728485,12.000000,40.000000,0.000000,0.000000,-279.999847,-280.000000,107.688004,0.000000,0.000033,254.951614,118.936249,0.002651,-2.499893,-18.689602,0.000000
-0.572000,0.000000,-0.001000,0.000000,0.000000,0.000000,1.000000,1.000000,0,0,0,0,0,0,32.0141827139,34.8668660992,107.688004,-0.162505,-0.727536,121.399933,28.646109,3.002398,-1.241573,-0.000002,2.570457,105.296700,-283.736115,12.000000,40.000000,0.000000,0.000000,-279.999847,-280.000000,107.688004,0.000000,-0.000033,254.951614,119.437225,0.002651,-2.499899,-16.854597,0.000000
-0.572000,0.000000,-0.001000,0.000000,0.000000,0.000000,1.000000,1.000000,0,0,0,0,0,0,32.0141827139,34.8668660992,107.688004,-0.162505,-0.727536,121.399933,28.646101,3.002291,-0.056135,-0.000000,2.570224,105.289154,-283.743652,12.000000,40.000000,0.000000,0.000000,-279.999847,-280.000000,107.688004,0.000000,-0.000100,254.951614,119.895180,0.002651,-2.499906,-14.958656,0.000000
-0.572000,0.000000,-0.001000,0.000000,0.000000,0.000000,1.000000,1.000000,0,0,0,0,0,0,32.0141827139,34.8668660992,107.688004,-0.162505,-0.727536,121.399933,28.646103,3.002191,-1.474499,-0.000001,2.570646,105.282234,-283.750580,12.000000,40.000000,0.000000,0.000000,-279.999847,-280.000000,107.688004,0.000000,-0.000033,254.951614,120.283478,0.002651,-2.499911,-8.151582,0.000000
-0.572000,0.000000,-0.001000,0.000000,0.000000,0.000000,1.000000,1.000000,0,0,0,0,0,0,32.0141827139,34.8668660992,107.688004,-0.162505,-0.727536,121.399933,28.646105,3.002077,0.962014,0.000000,2.569565,105.274025,-283.758759,12.000000,40.000000,0.000000,0.000000,-279.999847,-280.000000,107.688004,0.000000,0.000033,254.951614,120.680756,0.002650,-2.499917,-10.038272,0.000000
-0.572000,0.000000,-0.001000,0.000000,0.000000,0.000000,1.000000,1.000000,0,0,0,0,0,0,32.0141827139,34.8668660992,107.688004,-0.162504,-0.727536,121.399933,28.646105,3.001970,0.411691,0.000000,2.569773,105.266571,-283.766235,12.000000,40.000000,0.000000,0.000000,-279.999847,-280.000000,107.688004,0.000000,0.000000,254.951614,121.008095,0.002651,-2.499922,-19.762167,0.000000
-0.572000,0.000000,-0.001000,0.000000,0.000000,0.000000,1.000000,1.000000,0,0,0,0,0,0,32.0141827139,34.8668660992,107.688004,-0.162504,-0.727536,121.399933,28.646103,3.001863,0.534737,0.000000,2.569768,105.259071,-283.773743,12.000000,40.000000,0.000000,0.000000,-279.999847,-280.000000,107.688004,0.000000,-0.000134,254.951614,121.291847,0.002650,-2.499927,-17.247250,0.000000
-0.572000,0.000000,-0.001000,0.000000,0.000000,0.000000,1.000000,1.000000,0,0,0,0,0,0,32.0141827139,34.8668660992,107.688004,-0.162504,-0.727536,121.399933,28.646103,3.001742,-1.532810,-0.000001,2.568537,105.250343,-283.782471,12.000000,40.000000,0.000000,0.000000,-279.999847,-280.000000,107.688004,0.000000,0.000033,254.951614,121.561005,0.002650,-2.499932,-19.662315,0.000000
-0.572000,0.000000,-0.001000,0.000000,0.000000,0.000000,1.000000,1.000000,0,0,0,0,0,0,32.0141827139,34.8668660992,107.688004,-0.162504,-0.727537,121.399933,28.646103,3.001628,0.507604,0.000000,2.568730,105.242386,-283.790405,12.000000,40.000000,0.000000,0.000000,-279.999847,-280.000000,107.688004,0.000000,-0.000134,254.951614,121.763870,0.002650,-2.499936,-19.305618,0.000000
-0.572000,0.000000,-0.001000,0.000000,0.000000,0.000000,1.000000,1.000000,0,0,0,0,0,0,32.0141827139,34.8668660992,107.688004,-0.162503,-0.727537,121.399933,28.646105,3.001293,1.155972,0.000001,2.556490,105.216667,-283.816132,12.000000,40.000000,0.000000,0.000000,-279.999847,-280.000000,107.688004,0.000000,0.000000,254.951614,122.083023,0.002651,-2.499947,-12.052584,0.000000
-0.572000,0.000000,-0.001000,0.000000,0.000000,0.000000,1.000000,1.000000,0,0,0,0,0,0,32.0141827139,34.8668660992,107.688004,-0.162503,-0.727537,121.399933,28.646103,3.001143,-1.152004,-0.000000,2.563607,105.207474,-283.825317,12.000000,40.000000,0.000000,0.000000,-279.999847,-280.000000,107.688004,0.000000,-0.000067,254.951614,122.096474,0.002651,-2.499952,-17.684004,0.000000
-0.572000,0.000000,-0.001000,0.000000,0.000000,0.000000,1.000000,1.000000,0,0,0,0,0,0,32.0141827139,34.8668660992,107.688004,-0.162503,-0.727537,121.399933,28.646107,3.001029,0.688440,0.000000,2.567109,105.200134,-283.832672,12.000000,40.000000,0.000000,0.000000,-279.999847,-280.000000,107.688004,0.000000,0.000167,254.951614,122.055397,0.002651,-2.499955,-14.432238,0.000000
-0.572000,0.000000,-0.001000,0.000000,0.000000,0.000000,1.000000,1.000000,0,0,0,0,0,0,32.0141827139,34.8668660992,107.688004,-0.162502,-0.727538,121.399933,28.646103,3.000715,-0.690552,-0.000000,2.556511,105.176231,-283.856567,12.000000,40.000000,0.000000,0.000000,-279.999847,-280.000000,107.688004,0.000000,0.000000,254.951614,121.725357,0.002651,-2.499963,-17.390663,0.000000
-0.572000,0.000000,-0.001000,0.000000,0.000000,0.000000,1.000000,1.000000,0,0,0,0,0,0,32.0141827139,34.8668660992,107.688004,-0.162502,-0.727538,121.399933,28.646103,3.000602,-0.396424,-0.000000,2.565069,105.169815,-283.862976,12.000000,40.000000,0.000000,0.000000,-279.999847,-280.000000,107.688004,0.000000,-0.000033,254.951614,121.530907,0.002651,-2.499965,-9.145100,0.000000
-0.572000,0.000000,-0.001000,0.000000,0.000000,0.000000,1.000000,1.000000,0,0,0,0,0,0,32.0141827139,34.8668660992,107.688004,-0.162502,-0.727538,121.399933,28.646105,3.000480,-0.134429,-0.000000,2.566619,105.161613,-283.871185,12.000000,40.000000,0.000000,0.000000,-279.999847,-280.000000,107.688004,0.000000,-0.000000,254.951614,121.283730,0.002651,-2.499967,-11.027810,0.000000
-0.572000,0.000000,-0.001000,0.000000,0.000000,0.000000,1.000000,1.000000,0,0,0,0,0,0,32.0141827139,34.8668660992,107.688004,-0.162501,-0.727538,121.399933,28.646103,3.000381,-1.032585,-0.000001,2.568463,105.154984,-283.877808,12.000000,40.000000,0.000000,0.000000,-279.999847,-280.000000,107.688004,0.000000,0.000000,254.951614,121.050262,0.002651,-2.499969,-16.987932,0.000000
-0.572000,0.000000,-0.001000,0.000000,0.000000,0.000000,1.000000,1.000000,0,0,0,0,0,0,32.0141827139,34.8668660992,107.688004,-0.162501,-0.727540,121.399933,28.646099,3.000260,-0.490751,-0.000001,2.567258,105.146271,-283.886536,12.000000,40.000000,0.000000,0.000000,-279.999847,-280.000000,107.688004,0.000000,-0.000033,254.951614,120.732384,0.002650,-2.499971,-19.595249,0.000000
-0.572000,0.000000,-0.001000,0.000000,0.000000,0.000000,1.000000,1.000000,0,0,0,0,0,0,32.0141827139,34.8668660992,107.688004,-0.162501,-0.727541,121.399933,28.646103,3.000160,-0.511562,-0.000000,2.568517,105.139534,-283.893280,12.000000,40.000000,0.000000,0.000000,-279.999847,-280.000000,107.688004,0.000000,0.000033,254.951614,120.443817,0.002650,-2.499973,-15.009501,0.000000
-0.572000,0.000000,-0.001000,0.000000,0.000000,0.000000,1.000000,1.000000,0,0,0,0,0,0,32.0141827139,34.8668660992,107.688004,-0.162501,-0.727542,121.399933,28.646103,3.000046,-0.605285,-0.000000,2.567715,105.131401,-283.901398,12.000000,40.000000,0.000000,0.000000,-279.999847,-280.000000,107.688004,0.000000,0.000000,254.951614,120.086220,0.002650,-2.499975,-14.607599,0.000000
-0.572000,0.000000,-0.001000,0.000000,0.000000,0.000000,1.000000,1.000000,0,0,0,0,0,0,32.0141827139,34.8668660992,107.688004,-0.162500,-0.727542,121.399933,28.646105,2.999946,-0.604028,-0.000000,2.568527,105.124573,-283.908234,12.000000,40.000000,0.000000,0.000000,-279.999847,-280.000000,107.688004,0.000000,0.000000,254.951614,119.750526,0.002650,-2.499976,-7.735050,0.000000
-0.572000,0.000000,-0.001000,0.000000,0.000000,0.000000,1.000000,1.000000,0,0,0,0,0,0,32.0141827139,34.8668660992,107.688004,-0.162500,-0.727542,121.399933,28.646105,2.999840,-0.531931,-0.000000,2.568161,105.117027,-283.915771,12.000000,40.000000,0.000000,0.000000,-279.999847,-280.000000,107.688004,0.000000,0.000000,254.951614,119.368912,0.002650,-2.499978,-18.903654,0.000000
-0.572000,0.000000,-0.001000,0.000000,0.000000,0.000000,1.000000,1.000000,0,0,0,0,0,0,32.0141827139,34.8668660992,107.688004,-0.162500,-0.727542,121.399933,28.646105,2.999740,-0.382708,-0.000000,2.568540,105.110123,-283.922668,12.000000,40.000000,0.000000,0.000000,-279.999847,-280.000000,107.688004,0.000000,-0.000000,254.951614,118.993752,0.002650,-2.499979,-12.475372,0.000000
-0.572000,0.000000,-0.001000,0.000000,0.000000,0.000000,1.000000,1.000000,0,0,0,0,0,0,32.0141827139,34.8668660992,107.688004,-0.162500,-0.727542,121.399933,28.646105,2.999633,-0.394922,-0.000000,2.568035,105.102547,-283.930237,12.000000,40.000000,0.000000,0.000000,-279.999847,-280.000000,107.688004,0.000000,0.000000,254.951614,118.573112,0.002650,-2.499980,-11.382524,0.000000
-0.572000,0.000000,-0.001000,0.000000,0.000000,0.000000,1.000000,1.000000,0,0,0,0,0,0,32.0141827139,34.8668660992,107.688004,-0.162499,-0.727542,121.399933,28.646105,2.999534,-0.393772,-0.000000,2.568376,105.095642,-283.937164,12.000000,40.000000,0.000000,0.000000,-279.999847,-280.000000,107.688004,0.000000,0.000000,254.951614,118.164619,0.002650,-2.499981,-17.695240,0.000000
