aileron,elevator,rudder,flaps,slats,speedbrake,throttle,throttle,engine-pump,engine-pump,electric-pump,electric-pump,external-power,APU-generator,latitude-deg,longitude-deg,altitude-ft,roll-deg,pitch-deg,heading-deg,side-slip-deg,airspeed-kt,glideslope,vertical-speed-fps,airspeed-indicator_indicated-speed-kt,altimeter_indicated-altitude-ft,altimeter_pressure-alt-ft,attitude-indicator_indicated-pitch-deg,attitude-indicator_indicated-roll-deg,attitude-indicator_internal-pitch-deg,attitude-indicator_internal-roll-deg,encoder_indicated-altitude-ft,encoder_pressure-alt-ft,gps_indicated-altitude-ft,gps_indicated-ground-speed-kt,gps_indicated-vertical-speed,indicated-heading-deg,magnetic-compass_indicated-heading-deg,slip-skid-ball_indicated-slip-skid,turn-indicator_indicated-turn-rate,vertical-speed-indicator_indicated-speed-fpm,engine_rpm
0.000000,0.000000,0.000000,0.000000,0.000000,0.000000,0.000000,0.000000,0,0,0,0,0,0,32.0177231700,34.8926918800,-9999.000000,0.000000,0.424000,260.000000,0.000000,0.000000,0.000000,0.000000,0.000000,0.000000,0.000000,0.000000,0.000000,0.000000,0.000000,0.000000,0.000000,0.000000,0.000000,0.000000,0.000000,0.000000,0.000000,0.000000,0.000000,0.000000
0.000000,0.000000,0.000000,0.000000,0.000000,0.000000,0.000000,0.000000,0,0,0,0,0,0,32.0177231700,34.8926918800,-9999.000000,0.000000,0.424000,260.000000,0.000000,0.000000,0.000000,0.000000,0.000000,390.226257,1.193444,12.000000,40.000000,0.000000,0.000000,0.000000,0.000000,0.000000,0.000000,0.000000,254.944656,0.000000,0.000000,0.000000,0.000000,0.000000
0.000000,0.000000,0.000000,0.000000,0.000000,0.000000,0.000000,0.000000,0,0,0,0,0,0,32.0141825072,34.8668671716,-9999.000000,0.000000,0.424000,121.400002,0.000000,0.000000,0.000000,0.000000,0.000000,390.226257,1.193444,12.000000,40.000000,0.000000,0.000000,0.000000,0.000000,0.000000,0.000000,0.000000,254.944656,0.000000,0.000000,0.000000,0.000000,0.000000
0.000000,0.000000,0.000000,0.000000,0.000000,0.000000,0.000000,0.000000,0,0,0,0,0,0,32.0141825072,34.8668671716,-9999.000000,0.000000,0.424000,121.400002,0.000000,0.000000,0.000000,0.000000,0.000000,390.226257,1.193444,12.000000,40.000000,0.000000,0.000000,0.000000,0.000000,0.000000,0.000000,0.000000,254.944656,0.000000,0.000000,0.000000,0.000000,0.000000
0.000000,0.000000,0.000000,0.000000,0.000000,0.000000,0.000000,0.000000,0,0,0,0,0,0,32.0141825072,34.8668671716,-9999.000000,0.000000,0.424000,121.400002,0.000000,0.000000,0.000000,0.000000,0.000000,390.226257,1.193444,12.000000,40.000000,0.000000,0.000000,0.000000,0.000000,0.000000,0.000000,0.000000,254.944656,0.000000,0.000000,0.000000,0.000000,0.000000
0.000000,0.000000,0.000000,0.000000,0.000000,0.000000,0.000000,0.000000,0,0,0,0,0,0,32.0141825072,34.8668671716,-9999.000000,0.000000,0.424000,121.400002,0.000000,0.000000,0.000000,0.000000,0.000000,390.226257,1.193444,12.000000,40.000000,0.000000,0.000000,0.000000,0.000000,0.000000,0.000000,0.000000,254.944656,0.000000,0.000000,0.000000,0.000000,0.000000
0.000000,0.000000,0.000000,0.000000,0.000000,0.000000,0.000000,0.000000,0,0,0,0,0,0,32.0141825072,34.8668671716,-9999.000000,0.000000,0.424000,121.400002,0.000000,0.000000,0.000000,0.000000,0.000000,390.226257,1.193444,12.000000,40.000000,0.000000,0.000000,0.000000,0.000000,0.000000,0.000000,0.000000,254.944656,0.000000,0.000000,0.000000,0.000000,0.000000
0.000000,0.000000,0.000000,0.000000,0.000000,0.000000,0.000000,0.000000,0,0,0,0,0,0,32.0141825072,34.8668671716,-9999.000000,0.000000,0.424000,121.400002,0.000000,0.000000,0.000000,0.000000,0.000000,390.226257,1.193444,12.000000,40.000000,0.000000,0.000000,0.000000,0.000000,0.000000,0.000000,0.000000,254.944656,0.000000,0.000000,0.000000,0.000000,0.000000
0.000000,0.000000,0.000000,0.000000,0.000000,0.000000,0.000000,0.000000,0,0,0,0,0,0,32.0141825072,34.8668671716,-9999.000000,0.000000,0.424000,121.400002,0.000000,0.000000,0.000000,0.000000,0.000000,390.226257,1.193444,12.000000,40.000000,0.000000,0.000000,0.000000,0.000000,0.000000,0.000000,0.000000,254.944656,0.000000,0.000000,0.000000,0.000000,0.000000
0.000000,0.000000,0.000000,0.000000,0.000000,0.000000,0.000000,0.000000,0,0,0,0,0,0,32.0141825072,34.8668671716,-9999.000000,0.000000,0.424000,121.400002,0.000000,0.000000,0.000000,0.000000,0.000000,390.226257,1.193444,12.000000,40.000000,0.000000,0.000000,0.000000,0.000000,0.000000,0.000000,0.000000,254.944656,0.000000,0.000000,0.000000,0.000000,0.000000
0.000000,0.000000,0.000000,0.000000,0.000000,0.000000,0.000000,0.000000,0,0,0,0,0,0,32.0141825072,34.8668671716,-9999.000000,0.000000,0.424000,121.400002,0.000000,0.000000,0.000000,0.000000,0.000000,390.226257,1.193444,12.000000,40.000000,0.000000,0.000000,0.000000,0.000000,0.000000,0.000000,0.000000,254.944656,0.000000,0.000000,0.000000,0.000000,0.000000
0.000000,0.000000,0.000000,0.000000,0.000000,0.000000,0.000000,0.000000,0,0,0,0,0,0,32.0141825072,34.8668671716,-9999.000000,0.000000,0.424000,121.400002,0.000000,0.000000,0.000000,0.000000,0.000000,390.226257,1.193444,12.000000,40.000000,0.000000,0.000000,0.000000,0.000000,0.000000,0.000000,0.000000,254.944656,0.000000,0.000000,0.000000,0.000000,0.000000
0.000000,0.000000,0.000000,0.000000,0.000000,0.000000,0.000000,0.000000,0,0,0,0,0,0,32.0141825072,34.8668671716,-9999.000000,0.000000,0.424000,121.400002,0.000000,0.000000,0.000000,0.000000,0.000000,390.226257,1.193444,12.000000,40.000000,0.000000,0.000000,0.000000,0.000000,0.000000,0.000000,0.000000,254.944656,0.000000,0.000000,0.000000,0.000000,0.000000
0.000000,0.000000,0.000000,0.000000,0.000000,0.000000,0.000000,0.000000,0,0,0,0,0,0,32.0141825072,34.8668671716,-9999.000000,0.000000,0.424000,121.400002,0.000000,0.000000,0.000000,0.000000,0.000000,390.226257,1.193444,12.000000,40.000000,0.000000,0.000000,0.000000,0.000000,0.000000,0.000000,0.000000,254.944656,0.000000,0.000000,0.000000,0.000000,0.000000
0.000000,0.000000,0.000000,0.000000,0.000000,0.000000,0.000000,0.000000,0,0,0,0,0,0,32.0141825072,34.8668671716,-9999.000000,0.000000,0.424000,121.400002,0.000000,0.000000,0.000000,0.000000,0.000000,390.226257,1.193444,12.000000,40.000000,0.000000,0.000000,0.000000,0.000000,0.000000,0.000000,0.000000,254.944656,0.000000,0.000000,0.000000,0.000000,0.000000
0.000000,0.000000,0.000000,0.000000,0.000000,0.000000,0.000000,0.000000,0,0,0,0,0,0,32.0141825072,34.8668671716,-9999.000000,0.000000,0.424000,121.400002,0.000000,0.000000,0.000000,0.000000,0.000000,390.226257,1.193444,12.000000,40.000000,0.000000,0.000000,0.000000,0.000000,0.000000,0.000000,0.000000,254.944656,0.000000,0.000000,0.000000,0.000000,0.000000
0.000000,0.000000,0.000000,0.000000,0.000000,0.000000,0.000000,0.000000,0,0,0,0,0,0,32.0141825072,34.8668671716,-9999.000000,0.000000,0.424000,121.400002,0.000000,0.000000,0.000000,0.000000,0.000000,390.226257,1.193444,12.000000,40.000000,0.000000,0.000000,0.000000,0.000000,0.000000,0.000000,0.000000,254.944656,0.000000,0.000000,0.000000,0.000000,0.000000
0.000000,0.000000,0.000000,0.000000,0.000000,0.000000,0.000000,0.000000,0,0,0,0,0,0,32.0141825072,34.8668671716,-9999.000000,0.000000,0.424000,121.400002,0.000000,0.000000,0.000000,0.000000,0.000000,390.226257,1.193444,12.000000,40.000000,0.000000,0.000000,0.000000,0.000000,0.000000,0.000000,0.000000,254.944656,0.000000,0.000000,0.000000,0.000000,0.000000
0.000000,0.000000,0.000000,0.000000,0.000000,0.000000,0.000000,0.000000,0,0,0,0,0,0,32.0141825072,34.8668671716,-9999.000000,0.000000,0.424000,121.400002,0.000000,0.000000,0.000000,0.000000,0.000000,390.226257,1.193444,12.000000,40.000000,0.000000,0.000000,0.000000,0.000000,0.000000,0.000000,0.000000,254.944656,0.000000,0.000000,0.000000,0.000000,0.000000
0.000000,0.000000,0.000000,0.000000,0.000000,0.000000,0.000000,0.000000,0,0,0,0,0,0,32.0141825072,34.8668671716,-9999.000000,0.000000,0.424000,121.400002,0.000000,0.000000,0.000000,0.000000,0.000000,390.226257,1.193444,12.000000,40.000000,0.000000,0.000000,0.000000,0.000000,0.000000,0.000000,0.000000,254.944656,0.000000,0.000000,0.000000,0.000000,0.000000
0.000000,0.000000,0.000000,0.000000,0.000000,0.000000,0.000000,0.000000,0,0,0,0,0,0,32.0141825072,34.8668671716,-9999.000000,0.000000,0.424000,121.400002,0.000000,0.000000,0.000000,0.000000,0.000000,390.226257,1.193444,12.000000,40.000000,0.000000,0.000000,0.000000,0.000000,0.000000,0.000000,0.000000,254.944656,0.000000,0.000000,0.000000,0.000000,0.000000
0.000000,0.000000,0.000000,0.000000,0.000000,0.000000,0.000000,0.000000,0,0,0,0,0,0,32.0141825072,34.8668671716,-9999.000000,0.000000,0.424000,121.400002,0.000000,0.000000,0.000000,0.000000,0.000000,390.226257,1.193444,12.000000,40.000000,0.000000,0.000000,0.000000,0.000000,0.000000,0.000000,0.000000,254.944656,0.000000,0.000000,0.000000,0.000000,0.000000
0.000000,0.000000,0.000000,0.000000,0.000000,0.000000,0.000000,0.000000,0,0,0,0,0,0,32.0141825072,34.8668671716,-9999.000000,0.000000,0.424000,121.400002,0.000000,0.000000,0.000000,0.000000,0.000000,390.226257,1.193444,12.000000,40.000000,0.000000,0.000000,0.000000,0.000000,0.000000,0.000000,0.000000,254.944656,0.000000,0.000000,0.000000,0.000000,0.000000
0.000000,0.000000,0.000000,0.000000,0.000000,0.000000,0.000000,0.000000,0,0,0,0,0,0,32.0141825072,34.8668671716,-9999.000000,0.000000,0.424000,121.400002,0.000000,0.000000,0.000000,0.000000,0.000000,390.226257,1.193444,12.000000,40.000000,0.000000,0.000000,0.000000,0.000000,0.000000,0.000000,0.000000,254.944656,0.000000,0.000000,0.000000,0.000000,0.000000
0.000000,0.000000,0.000000,0.000000,0.000000,0.000000,0.000000,0.000000,0,0,0,0,0,0,32.0141825072,34.8668671716,-9999.000000,0.000000,0.424000,121.400002,0.000000,0.000000,0.000000,0.000000,0.000000,390.226257,1.193444,12.000000,40.000000,0.000000,0.000000,0.000000,0.000000,0.000000,0.000000,0.000000,254.944656,0.000000,0.000000,0.000000,0.000000,0.000000
0.000000,0.000000,0.000000,0.000000,0.000000,0.000000,0.000000,0.000000,0,0,0,0,0,0,32.0141825072,34.8668671716,-9999.000000,0.000000,0.424000,121.400002,0.000000,0.000000,0.000000,0.000000,0.000000,390.226257,1.193444,12.000000,40.000000,0.000000,0.000000,0.000000,0.000000,0.000000,0.000000,0.000000,254.944656,0.000000,0.000000,0.000000,0.000000,0.000000
0.000000,0.000000,0.000000,0.000000,0.000000,0.000000,0.000000,0.000000,0,0,0,0,0,0,32.0141825072,34.8668671716,-9999.000000,0.000000,0.424000,121.400002,0.000000,0.000000,0.000000,0.000000,0.000000,390.226257,1.193444,12.000000,40.000000,0.000000,0.000000,0.000000,0.000000,0.000000,0.000000,0.000000,254.944656,0.000000,0.000000,0.000000,0.000000,0.000000
0.000000,0.000000,0.000000,0.000000,0.000000,0.000000,0.000000,0.000000,0,0,0,0,0,0,32.0141825072,34.8668671716,-9999.000000,0.000000,0.424000,121.400002,0.000000,0.000000,0.000000,0.000000,0.000000,390.226257,1.193444,12.000000,40.000000,0.000000,0.000000,0.000000,0.000000,0.000000,0.000000,0.000000,254.944656,0.000000,0.000000,0.000000,0.000000,0.000000
0.000000,0.000000,0.000000,0.000000,0.000000,0.000000,0.000000,0.000000,0,0,0,0,0,0,32.0141825072,34.8668671716,-9999.000000,0.000000,0.424000,121.400002,0.000000,0.000000,0.000000,0.000000,0.000000,390.226257,1.193444,12.000000,40.000000,0.000000,0.000000,0.000000,0.000000,0.000000,0.000000,0.000000,254.944656,0.000000,0.000000,0.000000,0.000000,0.000000
0.000000,0.000000,0.000000,0.000000,0.000000,0.000000,0.000000,0.000000,0,0,0,0,0,0,32.0141825072,34.8668671716,-9999.000000,0.000000,0.424000,121.400002,0.000000,0.000000,0.000000,0.000000,0.000000,390.226257,1.193444,12.000000,40.000000,0.000000,0.000000,0.000000,0.000000,0.000000,0.000000,0.000000,254.944656,0.000000,0.000000,0.000000,0.000000,0.000000
0.000000,0.000000,0.000000,0.000000,0.000000,0.000000,0.000000,0.000000,0,0,0,0,0,0,32.0141825072,34.8668671716,-9999.000000,0.000000,0.424000,121.400002,0.000000,0.000000,0.000000,0.000000,0.000000,390.226257,1.193444,12.000000,40.000000,0.000000,0.000000,0.000000,0.000000,0.000000,0.000000,0.000000,254.944656,0.000000,0.000000,0.000000,0.000000,0.000000
0.000000,0.000000,0.000000,0.000000,0.000000,0.000000,0.000000,0.000000,0,0,0,0,0,0,32.0141825072,34.8668671716,-9999.000000,0.000000,0.424000,121.400002,0.000000,0.000000,0.000000,0.000000,0.000000,390.226257,1.193444,12.000000,40.000000,0.000000,0.000000,0.000000,0.000000,0.000000,0.000000,0.000000,254.944656,0.000000,0.000000,0.000000,0.000000,0.000000
0.000000,0.000000,0.000000,0.000000,0.000000,0.000000,0.000000,0.000000,0,0,0,0,0,0,32.0141825072,34.8668671716,-9999.000000,0.000000,0.424000,121.400002,0.000000,0.000000,0.000000,0.000000,0.000000,390.226257,1.193444,12.000000,40.000000,0.000000,0.000000,0.000000,0.000000,0.000000,0.000000,0.000000,254.944656,0.000000,0.000000,0.000000,0.000000,0.000000
0.000000,0.000000,0.000000,0.000000,0.000000,0.000000,0.000000,0.000000,0,0,0,0,0,0,32.0141825072,34.8668671716,-9999.000000,0.000000,0.424000,121.400002,0.000000,0.000000,0.000000,0.000000,0.000000,390.226257,1.193444,12.000000,40.000000,0.000000,0.000000,0.000000,0.000000,0.000000,0.000000,0.000000,254.944656,0.000000,0.000000,0.000000,0.000000,0.000000
0.000000,0.000000,0.000000,0.000000,0.000000,0.000000,0.000000,0.000000,0,0,0,0,0,0,32.0141825072,34.8668671716,-9999.000000,0.000000,0.424000,121.400002,0.000000,0.000000,0.000000,0.000000,0.000000,390.226257,1.193444,12.000000,40.000000,0.000000,0.000000,0.000000,0.000000,0.000000,0.000000,0.000000,254.944656,0.000000,0.000000,0.000000,0.000000,0.000000
0.000000,0.000000,0.000000,0.000000,0.000000,0.000000,0.000000,0.000000,0,0,0,0,0,0,32.0141825072,34.8668671716,-9999.000000,0.000000,0.424000,121.400002,0.000000,0.000000,0.000000,0.000000,0.000000,390.226257,1.193444,12.000000,40.000000,0.000000,0.000000,0.000000,0.000000,0.000000,0.000000,0.000000,254.944656,0.000000,0.000000,0.000000,0.000000,0.000000
0.000000,0.000000,0.000000,0.000000,0.000000,0.000000,0.000000,0.000000,0,0,0,0,0,0,32.0141825072,34.8668671716,-9999.000000,0.000000,0.424000,121.400002,0.000000,0.000000,0.000000,0.000000,0.000000,390.226257,1.193444,12.000000,40.000000,0.000000,0.000000,0.000000,0.000000,0.000000,0.000000,0.000000,254.944656,0.000000,0.000000,0.000000,0.000000,0.000000
0.000000,0.000000,0.000000,0.000000,0.000000,0.000000,0.000000,0.000000,0,0,0,0,0,0,32.0141825072,34.8668671716,-9999.000000,0.000000,0.424000,121.400002,0.000000,0.000000,0.000000,0.000000,0.000000,390.226257,1.193444,12.000000,40.000000,0.000000,0.000000,0.000000,0.000000,0.000000,0.000000,0.000000,254.944656,0.000000,0.000000,0.000000,0.000000,0.000000
0.000000,0.000000,0.000000,0.000000,0.000000,0.000000,0.000000,0.000000,0,0,0,0,0,0,32.0141825072,34.8668671716,-9999.000000,0.000000,0.424000,121.400002,0.000000,0.000000,0.000000,0.000000,0.000000,390.226257,1.193444,12.000000,40.000000,0.000000,0.000000,0.000000,0.000000,0.000000,0.000000,0.000000,254.944656,0.000000,0.000000,0.000000,0.000000,0.000000
0.000000,0.000000,0.000000,0.000000,0.000000,0.000000,0.000000,0.000000,0,0,0,0,0,0,32.0141825072,34.8668671716,-9999.000000,0.000000,0.424000,121.400002,0.000000,0.000000,0.000000,0.000000,0.000000,390.226257,1.193444,12.000000,40.000000,0.000000,0.000000,0.000000,0.000000,0.000000,0.000000,0.000000,254.944656,0.000000,0.000000,0.000000,0.000000,0.000000
0.000000,0.000000,0.000000,0.000000,0.000000,0.000000,0.000000,0.000000,0,0,0,0,0,0,32.0141825072,34.8668671716,-9999.000000,0.000000,0.424000,121.400002,0.000000,0.000000,0.000000,0.000000,0.000000,390.226257,1.193444,12.000000,40.000000,0.000000,0.000000,0.000000,0.000000,0.000000,0.000000,0.000000,254.944656,0.000000,0.000000,0.000000,0.000000,0.000000
0.000000,0.000000,0.000000,0.000000,0.000000,0.000000,0.000000,0.000000,0,0,0,0,0,0,32.0141825072,34.8668671716,-9999.000000,0.000000,0.424000,121.400002,0.000000,0.000000,0.000000,0.000000,0.000000,390.226257,1.193444,12.000000,40.000000,0.000000,0.000000,0.000000,0.000000,0.000000,0.000000,0.000000,254.944656,0.000000,0.000000,0.000000,0.000000,0.000000
0.000000,0.000000,0.000000,0.000000,0.000000,0.000000,0.000000,0.000000,0,0,0,0,0,0,32.0141825072,34.8668671716,-9999.000000,0.000000,0.424000,121.400002,0.000000,0.000000,0.000000,0.000000,0.000000,390.226257,1.193444,12.000000,40.000000,0.000000,0.000000,0.000000,0.000000,0.000000,0.000000,0.000000,254.944656,0.000000,0.000000,0.000000,0.000000,0.000000
0.000000,0.000000,0.000000,0.000000,0.000000,0.000000,0.000000,0.000000,0,0,0,0,0,0,32.0141825072,34.8668671716,-9999.000000,0.000000,0.424000,121.400002,0.000000,0.000000,0.000000,0.000000,0.000000,390.226257,1.193444,12.000000,40.000000,0.000000,0.000000,0.000000,0.000000,0.000000,0.000000,0.000000,254.944656,0.000000,0.000000,0.000000,0.000000,0.000000
0.000000,0.000000,0.000000,0.000000,0.000000,0.000000,0.000000,0.000000,0,0,0,0,0,0,32.0141825072,34.8668671716,-9999.000000,0.000000,0.424000,121.400002,0.000000,0.000000,0.000000,0.000000,0.000000,390.226257,1.193444,12.000000,40.000000,0.000000,0.000000,0.000000,0.000000,0.000000,0.000000,0.000000,254.944656,0.000000,0.000000,0.000000,0.000000,0.000000
0.000000,0.000000,0.000000,0.000000,0.000000,0.000000,0.000000,0.000000,0,0,0,0,0,0,32.0141825072,34.8668671716,-9999.000000,0.000000,0.424000,121.400002,0.000000,0.000000,0.000000,0.000000,0.000000,390.226257,1.193444,12.000000,40.000000,0.000000,0.000000,0.000000,0.000000,0.000000,0.000000,0.000000,254.944656,0.000000,0.000000,0.000000,0.000000,0.000000
0.000000,0.000000,0.000000,0.000000,0.000000,0.000000,0.000000,0.000000,0,0,0,0,0,0,32.0141825072,34.8668671716,-9999.000000,0.000000,0.424000,121.400002,0.000000,0.000000,0.000000,0.000000,0.000000,390.226257,1.193444,12.000000,40.000000,0.000000,0.000000,0.000000,0.000000,0.000000,0.000000,0.000000,254.944656,0.000000,0.000000,0.000000,0.000000,0.000000
0.000000,0.000000,0.000000,0.000000,0.000000,0.000000,0.000000,0.000000,0,0,0,0,0,0,32.0141825072,34.8668671716,-9999.000000,0.000000,0.424000,121.400002,0.000000,0.000000,0.000000,0.000000,0.000000,390.226257,1.193444,12.000000,40.000000,0.000000,0.000000,0.000000,0.000000,0.000000,0.000000,0.000000,254.944656,0.000000,0.000000,0.000000,0.000000,0.000000
0.000000,0.000000,0.000000,0.000000,0.000000,0.000000,0.000000,0.000000,0,0,0,0,0,0,32.0141825072,34.8668671716,-9999.000000,0.000000,0.424000,121.400002,0.000000,0.000000,0.000000,0.000000,0.000000,390.226257,1.193444,12.000000,40.000000,0.000000,0.000000,0.000000,0.000000,0.000000,0.000000,0.000000,254.944656,0.000000,0.000000,0.000000,0.000000,0.000000
0.000000,0.000000,0.000000,0.000000,0.000000,0.000000,0.000000,0.000000,0,0,0,0,0,0,32.0141825072,34.8668671716,-9999.000000,0.000000,0.424000,121.400002,0.000000,0.000000,0.000000,0.000000,0.000000,390.226257,1.193444,12.000000,40.000000,0.000000,0.000000,0.000000,0.000000,0.000000,0.000000,0.000000,254.944656,0.000000,0.000000,0.000000,0.000000,0.000000
0.000000,0.000000,0.000000,0.000000,0.000000,0.000000,0.000000,0.000000,0,0,0,0,0,0,32.0141825072,34.8668671716,-9999.000000,0.000000,0.424000,121.400002,0.000000,0.000000,0.000000,0.000000,0.000000,390.226257,1.193444,12.000000,40.000000,0.000000,0.000000,0.000000,0.000000,0.000000,0.000000,0.000000,254.944656,0.000000,0.000000,0.000000,0.000000,0.000000
0.000000,0.000000,0.000000,0.000000,0.000000,0.000000,0.000000,0.000000,0,0,0,0,0,0,32.0141825072,34.8668671716,-9999.000000,0.000000,0.424000,121.400002,0.000000,0.000000,0.000000,0.000000,0.000000,390.226257,1.193444,12.000000,40.000000,0.000000,0.000000,0.000000,0.000000,0.000000,0.000000,0.000000,254.944656,0.000000,0.000000,0.000000,0.000000,0.000000
0.000000,0.000000,0.000000,0.000000,0.000000,0.000000,0.000000,0.000000,0,0,0,0,0,0,32.0141825072,34.8668671716,-9999.000000,0.000000,0.424000,121.400002,0.000000,0.000000,0.000000,0.000000,0.000000,390.226257,1.193444,12.000000,40.000000,0.000000,0.000000,0.000000,0.000000,0.000000,0.000000,0.000000,254.944656,0.000000,0.000000,0.000000,0.000000,0.000000
0.000000,0.000000,0.000000,0.000000,0.000000,0.000000,0.000000,0.000000,0,0,0,0,0,0,32.0141825072,34.8668671716,-9999.000000,0.000000,0.424000,121.400002,0.000000,0.000000,0.000000,0.000000,0.000000,390.226257,1.193444,12.000000,40.000000,0.000000,0.000000,0.000000,0.000000,0.000000,0.000000,0.000000,254.944656,0.000000,0.000000,0.000000,0.000000,0.000000
0.000000,0.000000,0.000000,0.000000,0.000000,0.000000,0.000000,0.000000,0,0,0,0,0,0,32.0141825072,34.8668671716,-9999.000000,0.000000,0.424000,121.400002,0.000000,0.000000,0.000000,0.000000,0.000000,390.226257,1.193444,12.000000,40.000000,0.000000,0.000000,0.000000,0.000000,0.000000,0.000000,0.000000,254.944656,0.000000,0.000000,0.000000,0.000000,0.000000
0.000000,0.000000,0.000000,0.000000,0.000000,0.000000,0.000000,0.000000,0,0,0,0,0,0,32.0141825072,34.8668671716,-9999.000000,0.000000,0.424000,121.400002,0.000000,0.000000,0.000000,0.000000,0.000000,390.226257,1.193444,12.000000,40.000000,0.000000,0.000000,0.000000,0.000000,0.000000,0.000000,0.000000,254.944656,0.000000,0.000000,0.000000,0.000000,0.000000
0.000000,0.000000,0.000000,0.000000,0.000000,0.000000,0.000000,0.000000,0,0,0,0,0,0,32.0141825072,34.8668671716,-9999.000000,0.000000,0.424000,121.400002,0.000000,0.000000,0.000000,0.000000,0.000000,390.226257,1.193444,12.000000,40.000000,0.000000,0.000000,0.000000,0.000000,0.000000,0.000000,0.000000,254.944656,0.000000,0.000000,0.000000,0.000000,0.000000
0.000000,0.000000,0.000000,0.000000,0.000000,0.000000,0.000000,0.000000,0,0,0,0,0,0,32.0141825072,34.8668671716,-9999.000000,0.000000,0.424000,121.400002,0.000000,0.000000,0.000000,0.000000,0.000000,390.226257,1.193444,12.000000,40.000000,0.000000,0.000000,0.000000,0.000000,0.000000,0.000000,0.000000,254.944656,0.000000,0.000000,0.000000,0.000000,0.000000
0.000000,0.000000,0.000000,0.000000,0.000000,0.000000,0.000000,0.000000,0,0,0,0,0,0,32.0141825072,34.8668671716,-9999.000000,0.000000,0.424000,121.400002,0.000000,0.000000,0.000000,0.000000,0.000000,390.226257,1.193444,12.000000,40.000000,0.000000,0.000000,0.000000,0.000000,0.000000,0.000000,0.000000,254.944656,0.000000,0.000000,0.000000,0.000000,0.000000
0.000000,0.000000,0.000000,0.000000,0.000000,0.000000,0.000000,0.000000,0,0,0,0,0,0,32.0141825072,34.8668671716,-9999.000000,0.000000,0.424000,121.400002,0.000000,0.000000,0.000000,0.000000,0.000000,390.226257,1.193444,12.000000,40.000000,0.000000,0.000000,0.000000,0.000000,0.000000,0.000000,0.000000,254.944656,0.000000,0.000000,0.000000,0.000000,0.000000
0.000000,0.000000,0.000000,0.000000,0.000000,0.000000,0.000000,0.000000,0,0,0,0,0,0,32.0141825072,34.8668671716,-9999.000000,0.000000,0.424000,121.400002,0.000000,0.000000,0.000000,0.000000,0.000000,390.226257,1.193444,12.000000,40.000000,0.000000,0.000000,0.000000,0.000000,0.000000,0.000000,0.000000,254.944656,0.000000,0.000000,0.000000,0.000000,0.000000
0.000000,0.000000,0.000000,0.000000,0.000000,0.000000,0.000000,0.000000,0,0,0,0,0,0,32.0141827157,34.8668660921,107.688179,-0.159245,-0.727356,121.399879,0.000000,0.000000,0.000000,0.000000,0.000000,390.226257,1.193444,12.000000,40.000000,0.000000,0.000000,0.000000,0.000000,0.000000,0.000000,0.000000,254.944656,0.000000,0.000000,0.000000,0.000000,0.000000
0.000000,0.000000,0.000000,0.000000,0.000000,0.000000,0.000000,0.000000,0,0,0,0,0,0,32.0141827163,34.8668660957,107.687706,-0.168707,-0.736944,121.400070,31.310062,3.016446,-0.831489,-0.000083,0.000000,500.325806,111.292992,12.000000,40.000000,0.000000,0.000000,110.000145,110.000000,107.687706,0.000020,-0.004688,254.944626,10.175228,0.002317,-0.985256,2747.024170,0.000000
0.000000,0.000000,0.000000,0.000000,0.000000,0.000000,0.000000,0.000000,0,0,0,0,0,0,32.0141827165,34.8668660952,107.687729,-0.168402,-0.735354,121.400055,37.493919,2.737227,0.857628,0.000007,0.000000,471.954346,82.921547,12.000000,40.000000,0.000000,0.000000,80.000145,80.000000,107.687729,0.000016,0.000435,254.944626,36.223961,0.003185,-1.582221,848.527344,0.000000
0.000000,0.000000,0.000000,0.000000,0.000000,0.000000,0.000000,0.000000,0,0,0,0,0,0,32.0141827166,34.8668660948,107.687775,-0.168202,-0.733727,121.400055,44.975391,2.496671,0.749974,0.000009,0.000000,443.579132,54.546341,12.000000,40.000000,0.000000,0.000000,50.000141,50.000000,107.687775,0.000013,0.000536,254.944626,70.620201,0.003478,-1.943920,-730.910767,0.000000
0.000000,0.000000,0.000000,0.000000,0.000000,0.000000,0.000000,0.000000,0,0,0,0,0,0,32.0141827167,34.8668660947,107.687798,-0.168176,-0.732990,121.400047,49.541466,2.388351,0.863382,0.000023,0.923163,428.502563,39.469749,12.000000,40.000000,0.000000,0.000000,40.000141,40.000000,107.687798,0.000012,0.001272,254.944626,89.699013,0.003545,-2.074320,-1046.331299,0.000000
0.000000,0.000000,0.000000,0.000000,0.000000,0.000000,0.000000,0.000000,0,0,0,0,0,0,32.0141827168,34.8668660945,107.687805,-0.168205,-0.732470,121.400047,53.308666,2.316479,0.708690,0.000029,1.904484,417.022034,27.989220,12.000000,40.000000,0.000000,0.000000,30.000143,30.000000,107.687805,0.000011,0.001540,254.944626,103.769821,0.003580,-2.153080,-1195.633179,0.000000
0.000000,0.000000,0.000000,0.000000,0.000000,0.000000,0.000000,0.000000,0,0,0,0,0,0,32.0141827170,34.8668660943,107.687851,-0.168535,-0.731154,121.400055,63.432194,2.187089,0.756451,0.000008,0.000000,388.509064,-0.523724,12.000000,40.000000,0.000000,0.000000,0.000142,0.000000,107.687851,0.000009,0.000368,254.944626,133.644806,0.003657,-2.289802,-1222.532349,0.000000
0.000000,0.000000,0.000000,0.000000,0.000000,0.000000,0.000000,0.000000,0,0,0,0,0,0,32.0141827171,34.8668660943,107.687851,-0.168597,-0.731050,121.400055,65.311859,2.171922,0.312878,0.000018,4.504072,384.536743,-4.496055,12.000000,40.000000,0.000000,0.000000,0.000142,0.000000,107.687851,0.000009,0.000837,254.944626,137.957825,0.003654,-2.307448,-1245.497803,0.000000
0.000000,0.000000,0.000000,0.000000,0.000000,0.000000,0.000000,0.000000,0,0,0,0,0,0,32.0141827171,34.8668660942,107.687851,-0.168680,-0.730916,121.400055,66.942947,2.160805,0.297062,0.000023,5.199096,380.724640,-8.308166,12.000000,40.000000,0.000000,0.000000,-9.999858,-10.000000,107.687851,0.000009,0.001440,254.944626,141.400711,0.003656,-2.321389,-1283.196899,0.000000
0.000000,0.000000,0.000000,0.000000,0.000000,0.000000,0.000000,0.000000,0,0,0,0,0,0,32.0141827171,34.8668660942,107.687859,-0.168773,-0.730772,121.400055,68.497948,2.151929,0.305109,0.000026,5.445896,376.989014,-12.043783,12.000000,40.000000,0.000000,0.000000,-9.999858,-10.000000,107.687859,0.000008,0.001741,254.944626,144.429047,0.003665,-2.333627,-1320.631470,0.000000
0.000000,0.000000,0.000000,0.000000,0.000000,0.000000,0.000000,0.000000,0,0,0,0,0,0,32.0141827172,34.8668660942,107.687859,-0.168864,-0.730640,121.400055,69.879929,2.145422,0.349312,0.000033,5.719990,373.721558,-15.311250,12.000000,40.000000,0.000000,0.000000,-9.999858,-10.000000,107.687859,0.000008,0.001473,254.944626,146.916138,0.003675,-2.343728,-1348.651489,0.000000
0.000000,0.000000,0.000000,0.000000,0.000000,0.000000,0.000000,0.000000,0,0,0,0,0,0,32.0141827173,34.8668660941,107.687874,-0.169247,-0.730171,121.400063,73.692429,2.134084,0.541013,0.000032,2.706628,363.560516,-25.472277,12.000000,40.000000,0.000000,0.000000,-19.999857,-20.000000,107.687874,0.000008,0.002076,254.944626,152.803375,0.003730,-2.368315,-1439.296631,0.000000
0.000000,0.000000,0.000000,0.000000,0.000000,0.000000,0.000000,0.000000,0,0,0,0,0,0,32.0141827178,34.8668660941,107.687912,-0.170759,-0.728905,121.400085,84.861244,2.155617,0.930114,0.000008,0.000000,336.219940,-52.812859,12.000000,40.000000,0.000000,0.000000,-49.999859,-50.000000,107.687912,0.000006,0.000368,254.944626,162.173431,0.003965,-2.420213,-1357.737183,0.000000
0.000000,0.000000,0.000000,0.000000,0.000000,0.000000,0.000000,0.000000,0,0,0,0,0,0,32.0141827178,34.8668660941,107.687912,-0.170969,-0.728789,121.400093,86.862419,2.168259,0.193255,0.000018,4.392612,331.991943,-57.040863,12.000000,40.000000,0.000000,0.000000,-59.999859,-60.000000,107.687912,0.000006,0.000469,254.944626,162.640701,0.003956,-2.427215,-1364.152344,0.000000
0.000000,0.000000,0.000000,0.000000,0.000000,0.000000,0.000000,0.000000,0,0,0,0,0,0,32.0141827179,34.8668660941,107.687912,-0.171175,-0.728680,121.400093,88.299980,2.179114,0.158508,0.000020,5.367383,328.732483,-60.300308,12.000000,40.000000,0.000000,0.000000,-59.999859,-60.000000,107.687912,0.000006,0.000502,254.944626,162.748947,0.003981,-2.431919,-1378.130005,0.000000
0.000000,0.000000,0.000000,0.000000,0.000000,0.000000,0.000000,0.000000,0,0,0,0,0,0,32.0141827179,34.8668660941,107.687912,-0.171408,-0.728656,121.400093,89.609818,2.190538,-0.061354,-0.000008,5.690986,325.482605,-63.550209,12.000000,40.000000,0.000000,0.000000,-59.999859,-60.000000,107.687912,0.000006,-0.000871,254.944626,162.677994,0.004019,-2.436052,-1398.903442,0.000000
0.000000,0.000000,0.000000,0.000000,0.000000,0.000000,0.000000,0.000000,0,0,0,0,0,0,32.0141827171,34.8668660937,107.687958,-0.167873,-0.729397,121.400040,89.009453,2.204821,0.106087,0.000292,5.775827,322.137238,-66.895569,12.000000,40.000000,0.000000,0.000000,-59.999859,-60.000000,107.687958,0.000006,0.017011,254.944626,162.444595,0.005684,-2.439934,-1421.788452,0.000000
0.000000,0.000000,0.000000,0.000000,0.000000,0.000000,0.000000,0.000000,0,0,0,0,0,0,32.0141827164,34.8668660933,107.687958,-0.164445,-0.729744,121.399979,87.632874,2.218696,0.027473,0.000034,5.684346,318.492218,-70.540596,12.000000,40.000000,0.000000,0.000000,-69.999855,-70.000000,107.687958,0.000005,0.001005,254.944626,162.021942,0.004811,-2.443816,-1446.741699,0.000000
0.000000,0.000000,0.000000,0.000000,0.000000,0.000000,0.000000,0.000000,0,0,0,0,0,0,32.0141827160,34.8668660929,107.687950,-0.162339,-0.729166,121.399940,83.903717,2.265144,0.040412,0.000003,2.381310,307.611481,-81.421318,12.000000,40.000000,0.000000,0.000000,-79.999855,-80.000000,107.687950,0.000005,0.000938,254.944626,159.986771,0.003794,-2.453245,-1512.330078,0.000000
0.000000,0.000000,0.000000,0.000000,0.000000,0.000000,0.000000,0.000000,0,0,0,0,0,0,32.0141827161,34.8668660928,107.687950,-0.162373,-0.728836,121.399940,74.612183,2.438490,0.187544,0.000000,0.000000,280.323761,-108.709045,12.000000,40.000000,0.000000,0.000000,-109.999855,-110.000000,107.687950,0.000004,0.000033,254.944626,149.017120,0.003037,-2.471671,-1397.862793,0.000000
0.000000,0.000000,0.000000,0.000000,0.000000,0.000000,0.000000,0.000000,0,0,0,0,0,0,32.0141827162,34.8668660928,107.687965,-0.162593,-0.728522,121.399940,66.844139,2.629207,0.193417,0.000000,0.000000,253.278198,-135.754608,12.000000,40.000000,0.000000,0.000000,-139.999863,-140.000000,107.687965,0.000003,0.000167,254.944626,132.989410,0.002802,-2.482836,-1323.394897,0.000000
0.000000,0.000000,0.000000,0.000000,0.000000,0.000000,0.000000,0.000000,0,0,0,0,0,0,32.0141827161,34.8668660927,107.687965,-0.162189,-0.728374,121.399933,60.388054,2.603810,1.396785,0.000003,0.000000,226.241562,-162.791245,12.000000,40.000000,0.000000,0.000000,-159.999863,-160.000000,107.687965,0.000003,-0.000100,254.944626,115.680634,0.002671,-2.489600,-1280.902710,0.000000
0.000000,0.000000,0.000000,0.000000,0.000000,0.000000,0.000000,0.000000,0,0,0,0,0,0,32.0141827161,34.8668660927,107.687965,-0.162157,-0.728363,121.399933,59.303295,2.602828,-0.000065,-0.000000,4.759346,222.525497,-166.507309,12.000000,40.000000,0.000000,0.000000,-169.999863,-170.000000,107.687965,0.000003,0.000134,254.944626,112.916565,0.002664,-2.490433,-1291.026978,0.000000
0.000000,0.000000,0.000000,0.000000,0.000000,0.000000,0.000000,0.000000,0,0,0,0,0,0,32.0141827161,34.8668660927,107.687965,-0.162126,-0.728351,121.399933,58.543556,2.602693,0.068308,0.000001,5.744066,219.747192,-169.285614,12.000000,40.000000,0.000000,0.000000,-169.999863,-170.000000,107.687965,0.000003,0.000201,254.944626,111.023849,0.002657,-2.490977,-1307.128662,0.000000
0.000000,0.000000,0.000000,0.000000,0.000000,0.000000,0.000000,0.000000,0,0,0,0,0,0,32.0141827161,34.8668660927,107.687965,-0.162087,-0.728335,121.399933,57.729538,2.603057,0.122716,0.000003,5.915107,216.433350,-172.599442,12.000000,40.000000,0.000000,0.000000,-169.999863,-170.000000,107.687965,0.000003,-0.000167,254.944626,109.040009,0.002647,-2.491524,-1338.413940,0.000000
0.000000,0.000000,0.000000,0.000000,0.000000,0.000000,0.000000,0.000000,0,0,0,0,0,0,32.0141827161,34.8668660927,107.687965,-0.162048,-0.728319,121.399933,56.915836,2.603944,0.193704,0.000004,5.965758,213.071564,-175.961243,12.000000,40.000000,0.000000,0.000000,-169.999863,-170.000000,107.687965,0.000002,-0.000134,254.944626,107.106644,0.002640,-2.492039,-1368.322510,0.000000
0.000000,0.000000,0.000000,0.000000,0.000000,0.000000,0.000000,0.000000,0,0,0,0,0,0,32.0141827161,34.8668660926,107.687965,-0.162013,-0.728305,121.399933,56.157001,2.605246,0.273338,0.000006,6.089561,209.969543,-179.063263,12.000000,40.000000,0.000000,0.000000,-179.999863,-180.000000,107.687965,0.000002,0.000134,254.944626,105.351891,0.002634,-2.492491,-1391.757202,0.000000
0.000000,0.000000,0.000000,0.000000,0.000000,0.000000,0.000000,0.000000,0,0,0,0,0,0,32.0141827161,34.8668660926,107.687965,-0.161979,-0.728289,121.399933,55.399033,2.607003,0.243551,0.000005,6.133110,206.830688,-182.202118,12.000000,40.000000,0.000000,0.000000,-179.999863,-180.000000,107.687965,0.000002,0.000402,254.944626,103.648834,0.002621,-2.492917,-1414.493286,0.000000
0.000000,0.000000,0.000000,0.000000,0.000000,0.000000,0.000000,0.000000,0,0,0,0,0,0,32.0141827161,34.8668660926,107.687965,-0.161943,-0.728274,121.399933,54.642185,2.609219,0.196927,0.000005,6.151960,203.680908,-185.351883,12.000000,40.000000,0.000000,0.000000,-179.999863,-180.000000,107.687965,0.000002,-0.000033,254.944626,102.000870,0.002616,-2.493320,-1435.466187,0.000000
0.000000,0.000000,0.000000,0.000000,0.000000,0.000000,0.000000,0.000000,0,0,0,0,0,0,32.0141827160,34.8668660926,107.687965,-0.161806,-0.728212,121.399925,52.059109,2.620248,0.704582,0.000004,2.630043,191.729401,-197.303406,12.000000,40.000000,0.000000,0.000000,-199.999863,-200.000000,107.687965,0.000002,0.000234,254.944626,96.810547,0.002579,-2.494533,-1506.679321,0.000000
0.000000,0.000000,0.000000,0.000000,0.000000,0.000000,0.000000,0.000000,0,0,0,0,0,0,32.0141827160,34.8668660926,107.687965,-0.161781,-0.728201,121.399925,51.096920,2.625752,0.270664,0.000004,5.137355,188.373322,-200.659485,12.000000,40.000000,0.000000,0.000000,-199.999863,-200.000000,107.687965,0.000002,0.000167,254.944626,95.062943,0.002571,-2.494929,-1492.624023,0.000000
0.000000,0.000000,0.000000,0.000000,0.000000,0.000000,0.000000,0.000000,0,0,0,0,0,0,32.0141827160,34.8668660926,107.687973,-0.161755,-0.728185,121.399925,50.298241,2.630902,0.319738,0.000005,5.824646,185.264252,-203.768539,12.000000,40.000000,0.000000,0.000000,-199.999863,-200.000000,107.687973,0.000002,0.000268,254.944626,93.694885,0.002566,-2.495236,-1495.768188,0.000000
0.000000,0.000000,0.000000,0.000000,0.000000,0.000000,0.000000,0.000000,0,0,0,0,0,0,32.0141827160,34.8668660926,107.687973,-0.161727,-0.728173,121.399925,49.555721,2.636168,0.299416,0.000005,6.104954,182.228409,-206.804382,12.000000,40.000000,0.000000,0.000000,-199.999863,-200.000000,107.687973,0.000002,0.000402,254.944626,92.492546,0.002562,-2.495507,-1504.310181,0.000000
0.000000,0.000000,0.000000,0.000000,0.000000,0.000000,0.000000,0.000000,0,0,0,0,0,0,32.0141827160,34.8668660926,107.687973,-0.161701,-0.728159,121.399925,48.816254,2.641874,0.362818,0.000007,6.193612,179.109085,-209.923721,12.000000,40.000000,0.000000,0.000000,-209.999863,-210.000000,107.687973,0.000002,0.000268,254.944626,91.363792,0.002555,-2.495762,-1515.650879,0.000000
0.000000,0.000000,0.000000,0.000000,0.000000,0.000000,0.000000,0.000000,0,0,0,0,0,0,32.0141827160,34.8668660926,107.687973,-0.161672,-0.728141,121.399925,48.027588,2.648474,0.236283,0.000004,6.121960,175.690796,-213.342010,12.000000,40.000000,0.000000,0.000000,-209.999863,-210.000000,107.687973,0.000002,0.000134,254.944626,90.237572,0.002551,-2.496019,-1529.729736,0.000000
0.000000,0.000000,0.000000,0.000000,0.000000,0.000000,0.000000,0.000000,0,0,0,0,0,0,32.0141827160,34.8668660925,107.687973,-0.161577,-0.728075,121.399925,45.789856,2.670154,0.643797,0.000005,3.155414,164.990662,-224.042145,12.000000,40.000000,0.000000,0.000000,-219.999863,-220.000000,107.687973,0.000002,0.000368,254.944626,87.496567,0.002526,-2.496674,-1576.298096,0.000000
0.000000,0.000000,0.000000,0.000000,0.000000,0.000000,0.000000,0.000000,0,0,0,0,0,0,32.0141827160,34.8668660925,107.687973,-0.161563,-0.728066,121.399925,44.966953,2.679257,0.382021,0.000004,5.423018,162.086212,-226.946579,12.000000,40.000000,0.000000,0.000000,-229.999863,-230.000000,107.687973,0.000002,0.000167,254.944626,86.663826,0.002524,-2.496888,-1555.210815,0.000000
0.000000,0.000000,0.000000,0.000000,0.000000,0.000000,0.000000,0.000000,0,0,0,0,0,0,32.0141827160,34.8668660925,107.687973,-0.161546,-0.728053,121.399925,44.251621,2.687673,0.469298,0.000008,6.045848,159.188324,-229.844482,12.000000,40.000000,0.000000,0.000000,-229.999863,-230.000000,107.687973,0.000002,0.000000,254.944626,86.018967,0.002522,-2.497065,-1553.108276,0.000000
0.000000,0.000000,0.000000,0.000000,0.000000,0.000000,0.000000,0.000000,0,0,0,0,0,0,32.0141827160,34.8668660925,107.687973,-0.161522,-0.728034,121.399925,43.439587,2.697801,0.450018,0.000007,6.023964,155.564606,-233.468201,12.000000,40.000000,0.000000,0.000000,-229.999863,-230.000000,107.687973,0.000002,0.000402,254.944626,85.377647,0.002515,-2.497255,-1563.310425,0.000000
0.000000,0.000000,0.000000,0.000000,0.000000,0.000000,0.000000,0.000000,0,0,0,0,0,0,32.0141827160,34.8668660925,107.687973,-0.161499,-0.728014,121.399925,42.633732,2.708465,0.395798,0.000006,6.025741,151.954880,-237.077911,12.000000,40.000000,0.000000,0.000000,-229.999863,-230.000000,107.687973,0.000002,0.000301,254.944626,84.837936,0.002508,-2.497432,-1571.985352,0.000000
0.000000,0.000000,0.000000,0.000000,0.000000,0.000000,0.000000,0.000000,0,0,0,0,0,0,32.0141827160,34.8668660925,107.687973,-0.161481,-0.727997,121.399925,41.933922,2.718237,0.376143,0.000006,6.236853,148.892700,-240.140091,12.000000,40.000000,0.000000,0.000000,-239.999863,-240.000000,107.687973,0.000002,0.000469,254.944626,84.448441,0.002508,-2.497578,-1575.293213,0.000000
0.000000,0.000000,0.000000,0.000000,0.000000,0.000000,0.000000,0.000000,0,0,0,0,0,0,32.0141827160,34.8668660925,107.687981,-0.161459,-0.727977,121.399925,41.140320,2.729895,0.385449,0.000006,6.099190,145.217117,-243.815689,12.000000,40.000000,0.000000,0.000000,-239.999863,-240.000000,107.687981,0.000001,0.000134,254.944626,84.096886,0.002503,-2.497735,-1585.498169,0.000000
0.000000,0.000000,0.000000,0.000000,0.000000,0.000000,0.000000,0.000000,0,0,0,0,0,0,32.0141827160,34.8668660925,107.687981,-0.161427,-0.727950,121.399925,40.109150,2.745985,0.425157,0.000006,5.505133,140.226456,-248.806335,12.000000,40.000000,0.000000,0.000000,-249.999863,-250.000000,107.687981,0.000001,0.000435,254.944626,83.784653,0.002498,-2.497925,-1602.654053,0.000000
0.000000,0.000000,0.000000,0.000000,0.000000,0.000000,0.000000,0.000000,0,0,0,0,0,0,32.0141827160,34.8668660925,107.687981,-0.161405,-0.727929,121.399918,39.235043,2.760476,0.454935,0.000006,5.740405,136.260803,-252.771988,12.000000,40.000000,0.000000,0.000000,-249.999863,-250.000000,107.687981,0.000001,0.000268,254.944626,83.649040,0.002491,-2.498075,-1604.176758,0.000000
0.000000,0.000000,0.000000,0.000000,0.000000,0.000000,0.000000,0.000000,0,0,0,0,0,0,32.0141827160,34.8668660925,107.687981,-0.161378,-0.727892,121.399918,38.084038,2.780787,0.558972,0.000008,5.136910,130.606064,-258.426758,12.000000,40.000000,0.000000,0.000000,-259.999847,-260.000000,107.687981,0.000001,0.000469,254.944626,83.652321,0.002483,-2.498259,-1618.155884,0.000000
0.000000,0.000000,0.000000,0.000000,0.000000,0.000000,0.000000,0.000000,0,0,0,0,0,0,32.0141827160,34.8668660924,107.687981,-0.161353,-0.727850,121.399918,36.856384,2.804041,0.462464,0.000006,4.868892,124.641167,-264.391632,12.000000,40.000000,0.000000,0.000000,-259.999847,-260.000000,107.687981,0.000001,0.000502,254.944626,83.884315,0.002478,-2.498438,-1624.381104,0.000000
0.000000,0.000000,0.000000,0.000000,0.000000,0.000000,0.000000,0.000000,0,0,0,0,0,0,32.0141827160,34.8668660924,107.687981,-0.161331,-0.727825,121.399918,35.879848,2.823752,0.551358,0.000007,5.374690,120.088867,-268.943939,12.000000,40.000000,0.000000,0.000000,-269.999847,-270.000000,107.687981,0.000001,0.000435,254.944626,84.237053,0.002471,-2.498569,-1620.064453,0.000000
0.000000,0.000000,0.000000,0.000000,0.000000,0.000000,0.000000,0.000000,0,0,0,0,0,0,32.0141827160,34.8668660924,107.687981,-0.161309,-0.727801,121.399918,34.962593,2.843276,0.601819,0.000008,5.574016,115.653702,-273.379089,12.000000,40.000000,0.000000,0.000000,-269.999847,-270.000000,107.687981,0.000001,0.000469,254.944626,84.703293,0.002466,-2.498683,-1620.476074,0.000000
0.000000,0.000000,0.000000,0.000000,0.000000,0.000000,0.000000,0.000000,0,0,0,0,0,0,32.0141827160,34.8668660924,107.687988,-0.161294,-0.727778,121.399918,34.147896,2.861461,0.501012,0.000007,5.832494,111.698082,-277.334717,12.000000,40.000000,0.000000,0.000000,-279.999847,-280.000000,107.687988,0.000001,0.000234,254.944626,85.225975,0.002462,-2.498779,-1619.821655,0.000000
0.000000,0.000000,0.000000,0.000000,0.000000,0.000000,0.000000,0.200000,0,0,0,0,0,0,32.0141827160,34.8668660924,107.687988,-0.161279,-0.727752,121.399918,33.343578,2.880221,0.595520,0.000009,5.898799,107.663185,-281.369629,12.000000,40.000000,0.000000,0.000000,-279.999847,-280.000000,107.687988,0.000001,0.000469,254.944626,85.840912,0.002459,-2.498867,-1622.308472,0.000000
0.000000,0.000000,0.000000,0.000000,0.000000,0.000000,0.200000,0.200000,0,0,0,0,0,0,32.0141827160,34.8668660924,107.687988,-0.161268,-0.727733,121.399918,32.681358,2.896160,0.176164,0.000002,4.598474,105.120514,-282.891907,12.000000,40.000000,0.000000,0.000000,-279.999847,-280.000000,107.687988,0.000001,0.000033,254.944626,86.419899,0.002457,-2.498936,-1550.548096,0.000000
0.000000,0.000000,0.000000,0.000000,0.000000,0.000000,0.200000,0.200000,0,0,0,0,0,0,32.0141827160,34.8668660924,107.687988,-0.161257,-0.727717,121.399918,32.069916,2.911330,0.211289,0.000002,3.214170,104.717110,-283.295319,12.000000,40.000000,0.000000,0.000000,-279.999847,-280.000000,107.687988,0.000001,0.000134,254.944626,87.011787,0.002453,-2.498996,-1441.796387,0.000000
0.000000,0.000000,0.000000,0.000000,0.000000,0.000000,0.200000,0.200000,0,0,0,0,0,0,32.0141827160,34.8668660924,107.687988,-0.161243,-0.727692,121.399918,31.378946,2.929069,1.029088,0.000007,2.649243,104.584145,-283.428284,12.000000,40.000000,0.000000,0.000000,-279.999847,-280.000000,107.687988,0.000001,0.000201,254.944626,87.745514,0.002449,-2.482167,-1303.320435,0.000000
0.000000,0.000000,0.000000,0.000000,0.000000,0.000000,0.200000,0.200000,0,0,0,0,0,0,32.0141827158,34.8668660928,107.687965,-0.161380,-0.729274,121.399925,29.600712,2.977970,-0.275982,-0.000216,2.513520,104.522064,-283.490356,12.000000,40.000000,0.000000,0.000000,-279.999847,-280.000000,107.687965,0.000001,-0.009309,254.944626,89.932098,0.002421,-2.322091,-925.945374,0.000000
0.000000,0.000000,0.000000,0.000000,0.000000,0.000000,0.200000,0.200000,0,0,0,0,0,0,32.0141827156,34.8668660934,107.687927,-0.161587,-0.731522,121.399933,28.652878,3.005868,-0.326426,-0.000357,2.567003,104.511246,-283.501160,11.926435,39.754784,-0.000000,-0.000000,-279.999847,-280.000000,107.687927,0.000001,-0.017413,254.944626,91.267998,0.002421,-2.188828,-717.887695,0.000000
0.000000,0.000000,0.000000,0.000000,0.000000,0.000000,0.200000,0.200000,0,0,0,0,0,0,32.0141827154,34.8668660939,107.687881,-0.161782,-0.733588,121.399940,28.638479,3.006227,-0.352176,-0.000443,2.571285,104.503311,-283.509094,11.651653,38.838844,-0.000000,-0.000000,-279.999847,-280.000000,107.687881,0.000001,-0.020895,254.944626,92.308350,0.002426,-2.079153,-564.027954,0.000000
0.000000,0.000000,0.000000,0.000000,0.000000,0.000000,0.200000,0.200000,0,0,0,0,0,0,32.0141827151,34.8668660944,107.687828,-0.161986,-0.735748,121.399948,28.637886,3.006159,-0.369651,-0.000504,2.572611,104.495461,-283.516968,11.353924,37.846413,-0.000000,-0.000000,-279.999847,-280.000000,107.687828,0.000001,-0.024277,254.944626,93.323235,0.002439,-1.971267,-419.171570,0.000000
0.000000,0.000000,0.000000,0.000000,0.000000,0.000000,0.200000,0.200000,0,0,0,0,0,0,32.0141827145,34.8668660960,107.687668,-0.162567,-0.741967,121.399971,28.637629,3.005874,-0.403441,-0.000574,2.561402,104.471756,-283.540649,10.481753,34.939178,-0.000000,-0.000000,-279.999847,-280.000000,107.687668,0.000001,-0.029166,254.944595,96.187302,0.002490,-1.678912,-23.330782,0.000000
0.000000,0.000000,0.000000,0.000000,0.000000,0.000000,0.200000,0.200000,0,0,0,0,0,0,32.0141827134,34.8668660985,107.687370,-0.163482,-0.752070,121.400009,28.639765,3.005153,-0.442078,-0.000479,2.557810,104.431831,-283.580566,8.660337,28.867933,-0.000046,-0.000010,-279.999847,-280.000000,107.687370,0.000001,-0.024646,254.937515,101.659477,0.002632,-1.217874,-10.556970,0.000000
0.000000,0.000000,0.000000,0.000000,0.000000,0.000000,0.200000,0.200000,0,0,0,0,0,0,32.0141827132,34.8668660990,107.687309,-0.163664,-0.754135,121.400017,28.640371,3.004963,-0.442211,-0.000434,2.567348,104.423264,-283.589142,8.129171,27.097631,-0.000127,-0.000028,-279.999847,-280.000000,107.687309,0.000001,-0.022302,254.925186,103.072495,0.002669,-1.120306,-13.772108,0.000000
0.000000,0.000000,0.000000,0.000000,0.000000,0.000000,0.200000,0.200000,0,0,0,0,0,0,32.0141827085,34.8668661086,107.687256,-0.164678,-0.755064,121.399986,28.402052,3.027077,0.000302,0.000013,2.588584,104.409874,-283.602539,7.435425,24.786079,-0.000426,-0.000093,-279.999847,-280.000000,107.687256,0.000384,-0.003315,254.879303,104.891304,0.002556,-1.005089,-11.671038,0.000000
0.000000,0.000000,0.000000,0.000000,0.000000,0.000000,0.200000,0.200000,0,0,0,0,0,0,32.0141826944,34.8668661364,107.687271,-0.165956,-0.754495,121.399864,28.045101,3.062035,0.004226,0.000471,2.631629,104.402626,-283.609802,6.889922,22.969166,-0.000885,-0.000193,-279.999847,-280.000000,107.687271,0.001549,0.017145,254.809097,105.993927,0.002577,-0.940192,-19.155508,0.000000
0.000000,0.000000,0.000000,0.000000,0.000000,0.000000,0.200000,0.200000,0,0,0,0,0,0,32.0141826671,34.8668661897,107.687325,-0.167292,-0.753656,121.399612,27.584702,3.108839,0.004854,0.000977,2.685460,104.395401,-283.617004,6.340326,21.139986,-0.001787,-0.000393,-279.999847,-280.000000,107.687325,0.003768,0.041221,254.670929,107.012177,0.002760,-0.883189,-16.529654,0.000000
0.000000,0.000000,0.000000,0.000000,0.000000,0.000000,0.200000,0.200000,0,0,0,0,0,0,32.0141826216,34.8668662779,107.687431,-0.168603,-0.752712,121.399208,27.032951,3.167863,0.005112,0.001602,2.751953,104.387985,-283.624420,5.780194,19.278477,-0.003588,-0.000795,-279.999847,-280.000000,107.687431,0.007414,0.058500,254.394608,108.012535,0.003139,-0.829662,-13.823077,0.000000
0.000000,0.000000,0.000000,0.000000,0.000000,0.000000,0.200000,0.200000,0,0,0,0,0,0,32.0141825542,34.8668664080,107.687599,-0.169821,-0.751771,121.398529,26.406082,3.236905,0.004938,0.002195,2.829695,104.380562,-283.631866,5.235840,17.474566,-0.006998,-0.001562,-279.999847,-280.000000,107.687599,0.012752,0.097243,253.870300,108.992302,0.003628,-0.779436,-11.261193,0.000000
0.000000,0.000000,0.000000,0.000000,0.000000,0.000000,0.200000,0.200000,0,0,0,0,0,0,32.0141824620,34.8668665858,107.687813,-0.170804,-0.750907,121.397537,25.753666,3.314559,0.005042,0.002976,2.916466,104.373169,-283.639252,4.709916,15.740423,-0.013095,-0.002945,-279.999847,-280.000000,107.687813,0.019987,0.106786,252.930923,109.948883,0.004522,-0.732312,-7.094806,0.000000
0.000000,0.000000,0.000000,0.000000,0.000000,0.000000,0.200000,0.200000,0,0,0,0,0,0,32.0141823425,34.8668668158,107.688095,-0.171689,-0.750156,121.395889,25.064842,3.397835,0.004807,0.003591,3.009924,104.365829,-283.646576,4.203398,14.084139,-0.023436,-0.005307,-279.999847,-280.000000,107.688095,0.029259,0.161435,251.332840,110.879852,0.006021,-0.688149,-18.374008,0.000000
0.000000,0.000000,0.000000,0.000000,0.000000,0.000000,0.200000,0.200000,0,0,0,0,0,0,32.0141821944,34.8668671011,107.688431,-0.172285,-0.749537,121.393463,24.405689,3.486148,0.004934,0.004494,3.107854,104.358543,-283.653870,3.715919,12.511045,-0.040137,-0.009141,-279.999847,-280.000000,107.688431,0.040649,0.158119,248.741592,111.782944,0.007887,-0.646784,-14.675364,0.000000
0.000000,0.000000,0.000000,0.000000,0.000000,0.000000,0.200000,0.200000,0,0,0,0,0,0,32.0141819904,34.8668674935,107.688896,-0.172915,-0.749003,121.390152,23.650394,3.588514,0.004712,0.005190,3.221010,104.350113,-283.662292,3.184647,10.833177,-0.070123,-0.016056,-279.999847,-280.000000,107.688896,0.056152,0.233194,244.059799,112.770065,0.009939,-0.603022,-15.696030,0.000000
0.000000,0.000000,0.000000,0.000000,0.000000,0.000000,0.200000,0.200000,0,0,0,0,0,0,32.0141817630,34.8668679312,107.689400,-0.173259,-0.748651,121.386551,22.986879,3.686489,0.004679,0.005999,3.329367,104.342545,-283.669861,2.702358,9.357988,-0.112818,-0.025934,-279.999847,-280.000000,107.689400,0.073242,0.268589,237.329880,113.661362,0.012063,-0.564647,-14.584638,0.000000
0.000000,0.000000,0.000000,0.000000,0.000000,0.000000,0.200000,0.200000,0,0,0,0,0,0,32.0141815186,34.8668684016,107.689941,-0.173349,-0.748436,121.382820,22.420053,3.778694,0.004827,0.007000,3.430602,104.335594,-283.676819,2.263447,8.067864,-0.168571,-0.038861,-279.999847,-280.000000,107.689941,0.091405,0.245249,228.423950,114.461700,0.014178,-0.530976,-9.285961,0.000000
0.000000,0.000000,0.000000,0.000000,0.000000,0.000000,0.200000,0.200000,0,0,0,0,0,0,32.0141812442,34.8668689294,107.690552,-0.173524,-0.748321,121.378876,21.850599,3.868720,0.004638,0.007494,3.529962,104.328598,-283.683807,1.836278,6.868299,-0.240908,-0.055653,-279.999847,-280.000000,107.690552,0.111561,0.333853,216.649948,115.226273,0.015719,-0.499387,-17.874779,0.000000
0.000000,0.000000,0.000000,0.000000,0.000000,0.000000,0.200000,0.200000,0,0,0,0,0,0,32.0141809617,34.8668694730,107.691170,-0.173522,-0.748282,121.375008,21.371393,3.951631,0.004631,0.008181,3.620812,104.322243,-283.690186,1.449503,5.831161,-0.322205,-0.074532,-279.999847,-280.000000,107.691170,0.132084,0.362717,203.075882,115.906288,0.017672,-0.471661,-9.893652,0.000000
0.000000,0.000000,0.000000,0.000000,0.000000,0.000000,0.200000,0.200000,0,0,0,0,0,0,32.0141806544,34.8668700645,107.691841,-0.173463,-0.748300,121.371033,20.924213,4.032564,0.004627,0.008855,3.709024,104.315834,-283.696594,1.078482,4.874642,-0.412563,-0.095507,-279.999847,-280.000000,107.691841,0.154169,0.389305,187.467819,116.552773,0.019034,-0.445524,-16.238813,0.000000
0.000000,0.000000,0.000000,0.000000,0.000000,0.000000,0.200000,0.200000,0,0,0,0,0,0,32.0141802984,34.8668707500,107.692612,-0.173245,-0.748364,121.366692,20.499903,4.117314,0.004758,0.009832,3.800098,104.308861,-283.703552,0.706766,3.940950,-0.511018,-0.118330,-279.999847,-280.000000,107.692612,0.179456,0.353542,169.628494,117.207130,0.020688,-0.419176,-12.714551,0.000000
0.000000,0.000000,0.000000,0.000000,0.000000,0.000000,0.200000,0.200000,0,0,0,0,0,0,32.0141799155,34.8668714868,107.693451,-0.173206,-0.748468,121.362312,20.067032,4.198135,0.004617,0.010220,3.888013,104.302040,-283.710388,0.372886,3.103833,-0.599930,-0.138887,-279.999847,-280.000000,107.693451,0.206306,0.445628,152.409546,117.820854,0.022105,-0.394436,-19.397083,0.000000
0.000000,0.000000,0.000000,0.000000,0.000000,0.000000,0.200000,0.200000,0,0,0,0,0,0,32.0141795070,34.8668722736,107.694336,-0.172924,-0.748590,121.357750,19.704426,4.277083,0.004736,0.011153,3.972605,104.295296,-283.717133,0.086895,2.365073,-0.669059,-0.154775,-279.999847,-280.000000,107.694336,0.234601,0.407856,137.776993,118.393051,0.023152,-0.371224,-14.714152,0.000000
0.000000,0.000000,0.000000,0.000000,0.000000,0.000000,0.200000,0.200000,0,0,0,0,0,0,32.0141790737,34.8668731080,107.695282,-0.172831,-0.748728,121.353142,19.333076,4.352102,0.004626,0.011521,4.053848,104.288612,-283.723785,-0.146794,1.724982,-0.713767,-0.164930,-279.999847,-280.000000,107.695282,0.264221,0.492575,127.138138,118.922997,0.023675,-0.349430,-19.487099,0.000000
0.000000,0.000000,0.000000,0.000000,0.000000,0.000000,0.200000,0.200000,0,0,0,0,0,0,32.0141786168,34.8668739883,107.696274,-0.172545,-0.748868,121.348480,19.021540,4.425136,0.004718,0.012365,4.131780,104.281990,-283.730438,-0.331230,1.182057,-0.736853,-0.170019,-279.999847,-280.000000,107.696274,0.295054,0.462170,120.746864,119.410095,0.024089,-0.328966,-14.445718,0.000000
0.000000,0.000000,0.000000,0.000000,0.000000,0.000000,0.200000,0.200000,0,0,0,0,0,0,32.0141781371,34.8668749126,107.697319,-0.172437,-0.749009,121.343819,18.701876,4.494556,0.004633,0.012721,4.206566,104.275421,-283.737000,-0.474307,0.733592,-0.745940,-0.171853,-279.999847,-280.000000,107.697319,0.326991,0.536642,117.704704,119.853897,0.024239,-0.309746,-19.178139,0.000000
0.000000,0.000000,0.000000,0.000000,0.000000,0.000000,0.200000,0.200000,0,0,0,0,0,0,32.0141776696,34.8668758136,107.698334,-0.172261,-0.749135,121.339455,18.436974,4.557350,0.004634,0.013246,4.273877,104.269470,-283.742950,-0.577455,0.397907,-0.748487,-0.172197,-279.999847,-280.000000,107.698334,0.357707,0.555494,116.650589,120.228798,0.024209,-0.292862,-9.695065,0.000000
0.000000,0.000000,0.000000,0.000000,0.000000,0.000000,0.200000,0.200000,0,0,0,0,0,0,32.0141771839,34.8668767500,107.699387,-0.172096,-0.749253,121.335098,18.188461,4.617982,0.004639,0.013762,4.338669,104.263466,-283.748962,-0.655329,0.140538,-0.749126,-0.172120,-279.999847,-280.000000,107.699387,0.389219,0.574816,116.348801,120.565590,0.024022,-0.276935,-13.068364,0.000000
0.000000,0.000000,0.000000,0.000000,0.000000,0.000000,0.200000,0.200000,0,0,0,0,0,0,32.0141766439,34.8668777914,107.700562,-0.171865,-0.749370,121.330452,17.950178,4.681025,0.004703,0.014478,4.405263,104.256897,-283.755524,-0.712601,-0.049519,-0.749329,-0.171945,-279.999847,-280.000000,107.700562,0.423785,0.551878,116.283775,120.884132,0.023699,-0.260872,-18.878531,0.000000
0.000000,0.000000,0.000000,0.000000,0.000000,0.000000,0.200000,0.200000,0,0,0,0,0,0,32.0141761221,34.8668787976,107.701691,-0.171740,-0.749467,121.326134,17.730028,4.737657,0.004701,0.014947,4.465534,104.251038,-283.761383,-0.742216,-0.147725,-0.749439,-0.171805,-279.999847,-280.000000,107.701691,0.456729,0.571032,116.272682,121.142029,0.023382,-0.246757,-7.719582,0.000000
0.000000,0.000000,0.000000,0.000000,0.000000,0.000000,0.200000,0.200000,0,0,0,0,0,0,32.0141755448,34.8668799111,107.702950,-0.171684,-0.749558,121.321480,17.497383,4.796217,0.004648,0.015267,4.527823,104.244568,-283.767853,-0.749538,-0.171684,-0.749538,-0.171684,-279.999847,-280.000000,107.702950,0.492686,0.629732,116.267387,121.376343,0.022895,-0.232527,-14.377394,0.000000
0.000000,0.000000,0.000000,0.000000,0.000000,0.000000,0.200000,0.200000,0,0,0,0,0,0,32.0141749894,34.8668809826,107.704163,-0.171581,-0.749629,121.317101,17.301111,4.849572,0.004652,0.015720,4.584391,104.238800,-283.773621,-0.749616,-0.171576,-0.749616,-0.171576,-279.999847,-280.000000,107.704163,0.526805,0.646843,116.262764,121.556122,0.022491,-0.220033,-16.256388,0.000000
0.000000,0.000000,0.000000,0.000000,0.000000,0.000000,0.200000,0.200000,0,0,0,0,0,0,32.0141743356,34.8668822439,107.705582,-0.171477,-0.749695,121.312065,17.088104,4.908905,0.004652,0.016211,4.646802,104.231834,-283.780579,-0.749687,-0.171468,-0.749687,-0.171468,-279.999847,-280.000000,107.705582,0.566397,0.666566,116.257515,121.716080,0.021918,-0.206625,-11.140423,0.000000
0.000000,0.000000,0.000000,0.000000,0.000000,0.000000,0.200000,0.200000,0,0,0,0,0,0,32.0141737049,34.8668834613,107.706947,-0.171344,-0.749740,121.307312,16.906668,4.963353,0.004692,0.016803,4.704002,104.225685,-283.786713,-0.749735,-0.171375,-0.749735,-0.171375,-279.999847,-280.000000,107.706947,0.604040,0.650828,116.252747,121.822563,0.021322,-0.194850,-15.505555,0.000000
0.000000,0.000000,0.000000,0.000000,0.000000,0.000000,0.200000,0.200000,0,0,0,0,0,0,32.0141730571,34.8668847115,107.708366,-0.171333,-0.749772,121.302536,16.716419,5.016178,0.004655,0.017107,4.759964,104.219521,-283.792908,-0.749769,-0.171320,-0.749769,-0.171320,-279.999847,-280.000000,107.708366,0.642144,0.700521,116.247978,121.887695,0.020716,-0.183792,-18.478714,0.000000
0.000000,0.000000,0.000000,0.000000,0.000000,0.000000,0.200000,0.200000,0,0,0,0,0,0,32.0141723929,34.8668859939,107.709808,-0.171235,-0.749789,121.297722,16.549805,5.068421,0.004693,0.017681,4.814728,104.213371,-283.799042,-0.749787,-0.171261,-0.749787,-0.171261,-279.999847,-280.000000,107.709808,0.680668,0.687227,116.243179,121.912277,0.020111,-0.173413,-9.454577,0.000000
0.000000,0.000000,0.000000,0.000000,0.000000,0.000000,0.200000,0.200000,0,0,0,0,0,0,32.0141716665,34.8668873965,107.711388,-0.171202,-0.749794,121.292557,16.370607,5.122981,0.004690,0.018125,4.871888,104.206688,-283.805725,-0.749795,-0.171225,-0.749795,-0.171225,-279.999847,-280.000000,107.711388,0.722183,0.706113,116.238022,121.894852,0.019514,-0.163041,-16.836348,0.000000
0.000000,0.000000,0.000000,0.000000,0.000000,0.000000,0.200000,0.200000,0,0,0,0,0,0,32.0141709219,34.8668888345,107.713013,-0.171186,-0.749785,121.287346,16.197954,5.176733,0.004692,0.018577,4.928184,104.200165,-283.812256,-0.749787,-0.171206,-0.749787,-0.171206,-279.999847,-280.000000,107.713013,0.764099,0.724296,116.232826,121.833580,0.018934,-0.153347,-9.323491,0.000000
0.000000,0.000000,0.000000,0.000000,0.000000,0.000000,0.200000,0.200000,0,0,0,0,0,0,32.0141686823,34.8668931613,107.717888,-0.171217,-0.749730,121.272125,15.729737,5.328000,0.004675,0.019762,5.081940,104.176994,-283.835419,-0.749724,-0.171222,-0.749724,-0.171222,-279.999847,-280.000000,107.717888,0.886569,0.778743,116.217636,121.425949,0.016949,-0.128865,-15.451886,0.000000
0.000000,0.000000,0.000000,0.000000,0.000000,0.000000,0.200000,0.200000,0,0,0,0,0,0,32.0141678181,34.8668948316,107.719772,-0.171262,-0.749792,121.266411,15.564795,5.383112,0.004664,0.020170,5.141048,104.173759,-283.838654,-0.749784,-0.171255,-0.749784,-0.171255,-279.999847,-280.000000,107.719772,0.932489,0.806637,116.211937,121.193787,0.015560,-0.120958,-18.048195,0.000000
0.000000,0.000000,0.000000,0.000000,0.000000,0.000000,0.200000,0.200000,0,0,0,0,0,0,32.0141670394,34.8668963371,107.721466,-0.171295,-0.749831,121.261330,15.424802,5.431596,0.004668,0.020584,5.193936,104.168930,-283.843475,-0.749826,-0.171290,-0.749826,-0.171290,-279.999847,-280.000000,107.721466,0.973274,0.819395,116.206871,120.954994,0.014063,-0.114438,-16.278191,0.000000
0.000000,0.000000,0.000000,0.000000,0.000000,0.000000,0.200000,0.200000,0,0,0,0,0,0,32.0141662990,34.8668977688,107.723076,-0.171337,-0.749861,121.256554,15.296307,5.476725,0.004668,0.020956,5.241850,104.163895,-283.848511,-0.749857,-0.171330,-0.749857,-0.171330,-279.999847,-280.000000,107.723076,1.011558,0.834464,116.202103,120.704781,0.012680,-0.108717,-14.850522,0.000000
0.000000,0.000000,0.000000,0.000000,0.000000,0.000000,0.200000,0.200000,0,0,0,0,0,0,32.0141654911,34.8668993313,107.724831,-0.171420,-0.749890,121.251404,15.160889,5.525020,0.004656,0.021300,5.292371,104.158028,-283.854401,-0.749887,-0.171401,-0.749887,-0.171401,-279.999847,-280.000000,107.724831,1.052800,0.846251,116.196960,120.408890,0.011726,-0.102954,-16.923494,0.000000
0.000000,0.000000,0.000000,0.000000,0.000000,0.000000,0.200000,0.200000,0,0,0,0,0,0,32.0141647236,34.8669008161,107.726494,-0.171561,-0.749875,121.246559,15.037124,5.570079,0.004662,0.021695,5.339348,104.152763,-283.859650,-0.749880,-0.171539,-0.749880,-0.171539,-279.999847,-280.000000,107.726494,1.091496,0.864735,116.192131,120.108154,0.010614,-0.097898,-16.897778,0.000000
0.000000,0.000000,0.000000,0.000000,0.000000,0.000000,0.200000,0.200000,0,0,0,0,0,0,32.0141638866,34.8669024355,107.728317,-0.171706,-0.749836,121.241333,14.906850,5.618368,0.004662,0.022094,5.389542,104.146866,-283.865540,-0.749841,-0.171685,-0.749841,-0.171685,-279.999847,-280.000000,107.728317,1.133168,0.880507,116.186913,119.761177,0.009649,-0.092805,-19.383171,0.000000
