aileron,elevator,rudder,flaps,slats,speedbrake,throttle,throttle,engine-pump,engine-pump,electric-pump,electric-pump,external-power,APU-generator,latitude-deg,longitude-deg,altitude-ft,roll-deg,pitch-deg,heading-deg,side-slip-deg,airspeed-kt,glideslope,vertical-speed-fps,airspeed-indicator_indicated-speed-kt,altimeter_indicated-altitude-ft,altimeter_pressure-alt-ft,attitude-indicator_indicated-pitch-deg,attitude-indicator_indicated-roll-deg,attitude-indicator_internal-pitch-deg,attitude-indicator_internal-roll-deg,encoder_indicated-altitude-ft,encoder_pressure-alt-ft,gps_indicated-altitude-ft,gps_indicated-ground-speed-kt,gps_indicated-vertical-speed,indicated-heading-deg,magnetic-compass_indicated-heading-deg,slip-skid-ball_indicated-slip-skid,turn-indicator_indicated-turn-rate,vertical-speed-indicator_indicated-speed-fpm,engine_rpm
0.000000,0.000000,0.000000,0.000000,0.000000,0.000000,0.000000,0.000000,0,0,0,0,0,0,32.0177231700,34.8926918800,-9999.000000,0.000000,0.424000,260.000000,0.000000,0.000000,0.000000,0.000000,0.000000,0.000000,0.000000,0.000000,0.000000,0.000000,0.000000,0.000000,0.000000,0.000000,0.000000,0.000000,0.000000,0.000000,0.000000,0.000000,0.000000,0.000000
0.000000,0.000000,0.000000,0.000000,0.000000,0.000000,0.000000,0.000000,0,0,0,0,0,0,32.0177231700,34.8926918800,-9999.000000,0.000000,0.424000,260.000000,0.000000,0.000000,0.000000,0.000000,0.000000,390.226257,1.193444,12.000000,40.000000,0.000000,0.000000,0.000000,0.000000,0.000000,0.000000,0.000000,254.944656,0.000000,0.000000,0.000000,0.000000,0.000000
0.000000,0.000000,0.000000,0.000000,0.000000,0.000000,0.000000,0.000000,0,0,0,0,0,0,32.0141825072,34.8668671716,-9999.000000,0.000000,0.424000,121.400002,0.000000,0.000000,0.000000,0.000000,0.000000,390.226257,1.193444,12.000000,40.000000,0.000000,0.000000,0.000000,0.000000,0.000000,0.000000,0.000000,254.944656,0.000000,0.000000,0.000000,0.000000,0.000000
0.000000,0.000000,0.000000,0.000000,0.000000,0.000000,0.000000,0.000000,0,0,0,0,0,0,32.0141825072,34.8668671716,-9999.000000,0.000000,0.424000,121.400002,0.000000,0.000000,0.000000,0.000000,0.000000,390.226257,1.193444,12.000000,40.000000,0.000000,0.000000,0.000000,0.000000,0.000000,0.000000,0.000000,254.944656,0.000000,0.000000,0.000000,0.000000,0.000000
0.000000,0.000000,0.000000,0.000000,0.000000,0.000000,0.000000,0.000000,0,0,0,0,0,0,32.0141825072,34.8668671716,-9999.000000,0.000000,0.424000,121.400002,0.000000,0.000000,0.000000,0.000000,0.000000,390.226257,1.193444,12.000000,40.000000,0.000000,0.000000,0.000000,0.000000,0.000000,0.000000,0.000000,254.944656,0.000000,0.000000,0.000000,0.000000,0.000000
0.000000,0.000000,0.000000,0.000000,0.000000,0.000000,0.000000,0.000000,0,0,0,0,0,0,32.0141825072,34.8668671716,-9999.000000,0.000000,0.424000,121.400002,0.000000,0.000000,0.000000,0.000000,0.000000,390.226257,1.193444,12.000000,40.000000,0.000000,0.000000,0.000000,0.000000,0.000000,0.000000,0.000000,254.944656,0.000000,0.000000,0.000000,0.000000,0.000000
0.000000,0.000000,0.000000,0.000000,0.000000,0.000000,0.000000,0.000000,0,0,0,0,0,0,32.0141825072,34.8668671716,-9999.000000,0.000000,0.424000,121.400002,0.000000,0.000000,0.000000,0.000000,0.000000,390.226257,1.193444,12.000000,40.000000,0.000000,0.000000,0.000000,0.000000,0.000000,0.000000,0.000000,254.944656,0.000000,0.000000,0.000000,0.000000,0.000000
0.000000,0.000000,0.000000,0.000000,0.000000,0.000000,0.000000,0.000000,0,0,0,0,0,0,32.0141825072,34.8668671716,-9999.000000,0.000000,0.424000,121.400002,0.000000,0.000000,0.000000,0.000000,0.000000,390.226257,1.193444,12.000000,40.000000,0.000000,0.000000,0.000000,0.000000,0.000000,0.000000,0.000000,254.944656,0.000000,0.000000,0.000000,0.000000,0.000000
0.000000,0.000000,0.000000,0.000000,0.000000,0.000000,0.000000,0.000000,0,0,0,0,0,0,32.0141825072,34.8668671716,-9999.000000,0.000000,0.424000,121.400002,0.000000,0.000000,0.000000,0.000000,0.000000,390.226257,1.193444,12.000000,40.000000,0.000000,0.000000,0.000000,0.000000,0.000000,0.000000,0.000000,254.944656,0.000000,0.000000,0.000000,0.000000,0.000000
0.000000,0.000000,0.000000,0.000000,0.000000,0.000000,0.000000,0.000000,0,0,0,0,0,0,32.0141825072,34.8668671716,-9999.000000,0.000000,0.424000,121.400002,0.000000,0.000000,0.000000,0.000000,0.000000,390.226257,1.193444,12.000000,40.000000,0.000000,0.000000,0.000000,0.000000,0.000000,0.000000,0.000000,254.944656,0.000000,0.000000,0.000000,0.000000,0.000000
0.000000,0.000000,0.000000,0.000000,0.000000,0.000000,0.000000,0.000000,0,0,0,0,0,0,32.0141825072,34.8668671716,-9999.000000,0.000000,0.424000,121.400002,0.000000,0.000000,0.000000,0.000000,0.000000,390.226257,1.193444,12.000000,40.000000,0.000000,0.000000,0.000000,0.000000,0.000000,0.000000,0.000000,254.944656,0.000000,0.000000,0.000000,0.000000,0.000000
0.000000,0.000000,0.000000,0.000000,0.000000,0.000000,0.000000,0.000000,0,0,0,0,0,0,32.0141825072,34.8668671716,-9999.000000,0.000000,0.424000,121.400002,0.000000,0.000000,0.000000,0.000000,0.000000,390.226257,1.193444,12.000000,40.000000,0.000000,0.000000,0.000000,0.000000,0.000000,0.000000,0.000000,254.944656,0.000000,0.000000,0.000000,0.000000,0.000000
0.000000,0.000000,0.000000,0.000000,0.000000,0.000000,0.000000,0.000000,0,0,0,0,0,0,32.0141825072,34.8668671716,-9999.000000,0.000000,0.424000,121.400002,0.000000,0.000000,0.000000,0.000000,0.000000,390.226257,1.193444,12.000000,40.000000,0.000000,0.000000,0.000000,0.000000,0.000000,0.000000,0.000000,254.944656,0.000000,0.000000,0.000000,0.000000,0.000000
0.000000,0.000000,0.000000,0.000000,0.000000,0.000000,0.000000,0.000000,0,0,0,0,0,0,32.0141825072,34.8668671716,-9999.000000,0.000000,0.424000,121.400002,0.000000,0.000000,0.000000,0.000000,0.000000,390.226257,1.193444,12.000000,40.000000,0.000000,0.000000,0.000000,0.000000,0.000000,0.000000,0.000000,254.944656,0.000000,0.000000,0.000000,0.000000,0.000000
0.000000,0.000000,0.000000,0.000000,0.000000,0.000000,0.000000,0.000000,0,0,0,0,0,0,32.0141825072,34.8668671716,-9999.000000,0.000000,0.424000,121.400002,0.000000,0.000000,0.000000,0.000000,0.000000,390.226257,1.193444,12.000000,40.000000,0.000000,0.000000,0.000000,0.000000,0.000000,0.000000,0.000000,254.944656,0.000000,0.000000,0.000000,0.000000,0.000000
0.000000,0.000000,0.000000,0.000000,0.000000,0.000000,0.000000,0.000000,0,0,0,0,0,0,32.0141825072,34.8668671716,-9999.000000,0.000000,0.424000,121.400002,0.000000,0.000000,0.000000,0.000000,0.000000,390.226257,1.193444,12.000000,40.000000,0.000000,0.000000,0.000000,0.000000,0.000000,0.000000,0.000000,254.944656,0.000000,0.000000,0.000000,0.000000,0.000000
0.000000,0.000000,0.000000,0.000000,0.000000,0.000000,0.000000,0.000000,0,0,0,0,0,0,32.0141825072,34.8668671716,-9999.000000,0.000000,0.424000,121.400002,0.000000,0.000000,0.000000,0.000000,0.000000,390.226257,1.193444,12.000000,40.000000,0.000000,0.000000,0.000000,0.000000,0.000000,0.000000,0.000000,254.944656,0.000000,0.000000,0.000000,0.000000,0.000000
0.000000,0.000000,0.000000,0.000000,0.000000,0.000000,0.000000,0.000000,0,0,0,0,0,0,32.0141825072,34.8668671716,-9999.000000,0.000000,0.424000,121.400002,0.000000,0.000000,0.000000,0.000000,0.000000,390.226257,1.193444,12.000000,40.000000,0.000000,0.000000,0.000000,0.000000,0.000000,0.000000,0.000000,254.944656,0.000000,0.000000,0.000000,0.000000,0.000000
0.000000,0.000000,0.000000,0.000000,0.000000,0.000000,0.000000,0.000000,0,0,0,0,0,0,32.0141825072,34.8668671716,-9999.000000,0.000000,0.424000,121.400002,0.000000,0.000000,0.000000,0.000000,0.000000,390.226257,1.193444,12.000000,40.000000,0.000000,0.000000,0.000000,0.000000,0.000000,0.000000,0.000000,254.944656,0.000000,0.000000,0.000000,0.000000,0.000000
0.000000,0.000000,0.000000,0.000000,0.000000,0.000000,0.000000,0.000000,0,0,0,0,0,0,32.0141825072,34.8668671716,-9999.000000,0.000000,0.424000,121.400002,0.000000,0.000000,0.000000,0.000000,0.000000,390.226257,1.193444,12.000000,40.000000,0.000000,0.000000,0.000000,0.000000,0.000000,0.000000,0.000000,254.944656,0.000000,0.000000,0.000000,0.000000,0.000000
0.000000,0.000000,0.000000,0.000000,0.000000,0.000000,0.000000,0.000000,0,0,0,0,0,0,32.0141825072,34.8668671716,-9999.000000,0.000000,0.424000,121.400002,0.000000,0.000000,0.000000,0.000000,0.000000,390.226257,1.193444,12.000000,40.000000,0.000000,0.000000,0.000000,0.000000,0.000000,0.000000,0.000000,254.944656,0.000000,0.000000,0.000000,0.000000,0.000000
0.000000,0.000000,0.000000,0.000000,0.000000,0.000000,0.000000,0.000000,0,0,0,0,0,0,32.0141825072,34.8668671716,-9999.000000,0.000000,0.424000,121.400002,0.000000,0.000000,0.000000,0.000000,0.000000,390.226257,1.193444,12.000000,40.000000,0.000000,0.000000,0.000000,0.000000,0.000000,0.000000,0.000000,254.944656,0.000000,0.000000,0.000000,0.000000,0.000000
0.000000,0.000000,0.000000,0.000000,0.000000,0.000000,0.000000,0.000000,0,0,0,0,0,0,32.0141825072,34.8668671716,-9999.000000,0.000000,0.424000,121.400002,0.000000,0.000000,0.000000,0.000000,0.000000,390.226257,1.193444,12.000000,40.000000,0.000000,0.000000,0.000000,0.000000,0.000000,0.000000,0.000000,254.944656,0.000000,0.000000,0.000000,0.000000,0.000000
0.000000,0.000000,0.000000,0.000000,0.000000,0.000000,0.000000,0.000000,0,0,0,0,0,0,32.0141825072,34.8668671716,-9999.000000,0.000000,0.424000,121.400002,0.000000,0.000000,0.000000,0.000000,0.000000,390.226257,1.193444,12.000000,40.000000,0.000000,0.000000,0.000000,0.000000,0.000000,0.000000,0.000000,254.944656,0.000000,0.000000,0.000000,0.000000,0.000000
0.000000,0.000000,0.000000,0.000000,0.000000,0.000000,0.000000,0.000000,0,0,0,0,0,0,32.0141825072,34.8668671716,-9999.000000,0.000000,0.424000,121.400002,0.000000,0.000000,0.000000,0.000000,0.000000,390.226257,1.193444,12.000000,40.000000,0.000000,0.000000,0.000000,0.000000,0.000000,0.000000,0.000000,254.944656,0.000000,0.000000,0.000000,0.000000,0.000000
0.000000,0.000000,0.000000,0.000000,0.000000,0.000000,0.000000,0.000000,0,0,0,0,0,0,32.0141825072,34.8668671716,-9999.000000,0.000000,0.424000,121.400002,0.000000,0.000000,0.000000,0.000000,0.000000,390.226257,1.193444,12.000000,40.000000,0.000000,0.000000,0.000000,0.000000,0.000000,0.000000,0.000000,254.944656,0.000000,0.000000,0.000000,0.000000,0.000000
0.000000,0.000000,0.000000,0.000000,0.000000,0.000000,0.000000,0.000000,0,0,0,0,0,0,32.0141825072,34.8668671716,-9999.000000,0.000000,0.424000,121.400002,0.000000,0.000000,0.000000,0.000000,0.000000,390.226257,1.193444,12.000000,40.000000,0.000000,0.000000,0.000000,0.000000,0.000000,0.000000,0.000000,254.944656,0.000000,0.000000,0.000000,0.000000,0.000000
0.000000,0.000000,0.000000,0.000000,0.000000,0.000000,0.000000,0.000000,0,0,0,0,0,0,32.0141825072,34.8668671716,-9999.000000,0.000000,0.424000,121.400002,0.000000,0.000000,0.000000,0.000000,0.000000,390.226257,1.193444,12.000000,40.000000,0.000000,0.000000,0.000000,0.000000,0.000000,0.000000,0.000000,254.944656,0.000000,0.000000,0.000000,0.000000,0.000000
0.000000,0.000000,0.000000,0.000000,0.000000,0.000000,0.000000,0.000000,0,0,0,0,0,0,32.0141825072,34.8668671716,-9999.000000,0.000000,0.424000,121.400002,0.000000,0.000000,0.000000,0.000000,0.000000,390.226257,1.193444,12.000000,40.000000,0.000000,0.000000,0.000000,0.000000,0.000000,0.000000,0.000000,254.944656,0.000000,0.000000,0.000000,0.000000,0.000000
0.000000,0.000000,0.000000,0.000000,0.000000,0.000000,0.000000,0.000000,0,0,0,0,0,0,32.0141825072,34.8668671716,-9999.000000,0.000000,0.424000,121.400002,0.000000,0.000000,0.000000,0.000000,0.000000,390.226257,1.193444,12.000000,40.000000,0.000000,0.000000,0.000000,0.000000,0.000000,0.000000,0.000000,254.944656,0.000000,0.000000,0.000000,0.000000,0.000000
0.000000,0.000000,0.000000,0.000000,0.000000,0.000000,0.000000,0.000000,0,0,0,0,0,0,32.0141825072,34.8668671716,-9999.000000,0.000000,0.424000,121.400002,0.000000,0.000000,0.000000,0.000000,0.000000,390.226257,1.193444,12.000000,40.000000,0.000000,0.000000,0.000000,0.000000,0.000000,0.000000,0.000000,254.944656,0.000000,0.000000,0.000000,0.000000,0.000000
0.000000,0.000000,0.000000,0.000000,0.000000,0.000000,0.000000,0.000000,0,0,0,0,0,0,32.0141825072,34.8668671716,-9999.000000,0.000000,0.424000,121.400002,0.000000,0.000000,0.000000,0.000000,0.000000,390.226257,1.193444,12.000000,40.000000,0.000000,0.000000,0.000000,0.000000,0.000000,0.000000,0.000000,254.944656,0.000000,0.000000,0.000000,0.000000,0.000000
0.000000,0.000000,0.000000,0.000000,0.000000,0.000000,0.000000,0.000000,0,0,0,0,0,0,32.0141825072,34.8668671716,-9999.000000,0.000000,0.424000,121.400002,0.000000,0.000000,0.000000,0.000000,0.000000,390.226257,1.193444,12.000000,40.000000,0.000000,0.000000,0.000000,0.000000,0.000000,0.000000,0.000000,254.944656,0.000000,0.000000,0.000000,0.000000,0.000000
0.000000,0.000000,0.000000,0.000000,0.000000,0.000000,0.000000,0.000000,0,0,0,0,0,0,32.0141825072,34.8668671716,-9999.000000,0.000000,0.424000,121.400002,0.000000,0.000000,0.000000,0.000000,0.000000,390.226257,1.193444,12.000000,40.000000,0.000000,0.000000,0.000000,0.000000,0.000000,0.000000,0.000000,254.944656,0.000000,0.000000,0.000000,0.000000,0.000000
0.000000,0.000000,0.000000,0.000000,0.000000,0.000000,0.000000,0.000000,0,0,0,0,0,0,32.0141825072,34.8668671716,-9999.000000,0.000000,0.424000,121.400002,0.000000,0.000000,0.000000,0.000000,0.000000,390.226257,1.193444,12.000000,40.000000,0.000000,0.000000,0.000000,0.000000,0.000000,0.000000,0.000000,254.944656,0.000000,0.000000,0.000000,0.000000,0.000000
0.000000,0.000000,0.000000,0.000000,0.000000,0.000000,0.000000,0.000000,0,0,0,0,0,0,32.0141825072,34.8668671716,-9999.000000,0.000000,0.424000,121.400002,0.000000,0.000000,0.000000,0.000000,0.000000,390.226257,1.193444,12.000000,40.000000,0.000000,0.000000,0.000000,0.000000,0.000000,0.000000,0.000000,254.944656,0.000000,0.000000,0.000000,0.000000,0.000000
0.000000,0.000000,0.000000,0.000000,0.000000,0.000000,0.000000,0.000000,0,0,0,0,0,0,32.0141825072,34.8668671716,-9999.000000,0.000000,0.424000,121.400002,0.000000,0.000000,0.000000,0.000000,0.000000,390.226257,1.193444,12.000000,40.000000,0.000000,0.000000,0.000000,0.000000,0.000000,0.000000,0.000000,254.944656,0.000000,0.000000,0.000000,0.000000,0.000000
0.000000,0.000000,0.000000,0.000000,0.000000,0.000000,0.000000,0.000000,0,0,0,0,0,0,32.0141825072,34.8668671716,-9999.000000,0.000000,0.424000,121.400002,0.000000,0.000000,0.000000,0.000000,0.000000,390.226257,1.193444,12.000000,40.000000,0.000000,0.000000,0.000000,0.000000,0.000000,0.000000,0.000000,254.944656,0.000000,0.000000,0.000000,0.000000,0.000000
0.000000,0.000000,0.000000,0.000000,0.000000,0.000000,0.000000,0.000000,0,0,0,0,0,0,32.0141825072,34.8668671716,-9999.000000,0.000000,0.424000,121.400002,0.000000,0.000000,0.000000,0.000000,0.000000,390.226257,1.193444,12.000000,40.000000,0.000000,0.000000,0.000000,0.000000,0.000000,0.000000,0.000000,254.944656,0.000000,0.000000,0.000000,0.000000,0.000000
0.000000,0.000000,0.000000,0.000000,0.000000,0.000000,0.000000,0.000000,0,0,0,0,0,0,32.0141825072,34.8668671716,-9999.000000,0.000000,0.424000,121.400002,0.000000,0.000000,0.000000,0.000000,0.000000,390.226257,1.193444,12.000000,40.000000,0.000000,0.000000,0.000000,0.000000,0.000000,0.000000,0.000000,254.944656,0.000000,0.000000,0.000000,0.000000,0.000000
0.000000,0.000000,0.000000,0.000000,0.000000,0.000000,0.000000,0.000000,0,0,0,0,0,0,32.0141825072,34.8668671716,-9999.000000,0.000000,0.424000,121.400002,0.000000,0.000000,0.000000,0.000000,0.000000,390.226257,1.193444,12.000000,40.000000,0.000000,0.000000,0.000000,0.000000,0.000000,0.000000,0.000000,254.944656,0.000000,0.000000,0.000000,0.000000,0.000000
0.000000,0.000000,0.000000,0.000000,0.000000,0.000000,0.000000,0.000000,0,0,0,0,0,0,32.0141825072,34.8668671716,-9999.000000,0.000000,0.424000,121.400002,0.000000,0.000000,0.000000,0.000000,0.000000,390.226257,1.193444,12.000000,40.000000,0.000000,0.000000,0.000000,0.000000,0.000000,0.000000,0.000000,254.944656,0.000000,0.000000,0.000000,0.000000,0.000000
0.000000,0.000000,0.000000,0.000000,0.000000,0.000000,0.000000,0.000000,0,0,0,0,0,0,32.0141825072,34.8668671716,-9999.000000,0.000000,0.424000,121.400002,0.000000,0.000000,0.000000,0.000000,0.000000,390.226257,1.193444,12.000000,40.000000,0.000000,0.000000,0.000000,0.000000,0.000000,0.000000,0.000000,254.944656,0.000000,0.000000,0.000000,0.000000,0.000000
0.000000,0.000000,0.000000,0.000000,0.000000,0.000000,0.000000,0.000000,0,0,0,0,0,0,32.0141825072,34.8668671716,-9999.000000,0.000000,0.424000,121.400002,0.000000,0.000000,0.000000,0.000000,0.000000,390.226257,1.193444,12.000000,40.000000,0.000000,0.000000,0.000000,0.000000,0.000000,0.000000,0.000000,254.944656,0.000000,0.000000,0.000000,0.000000,0.000000
0.000000,0.000000,0.000000,0.000000,0.000000,0.000000,0.000000,0.000000,0,0,0,0,0,0,32.0141825072,34.8668671716,-9999.000000,0.000000,0.424000,121.400002,0.000000,0.000000,0.000000,0.000000,0.000000,390.226257,1.193444,12.000000,40.000000,0.000000,0.000000,0.000000,0.000000,0.000000,0.000000,0.000000,254.944656,0.000000,0.000000,0.000000,0.000000,0.000000
0.000000,0.000000,0.000000,0.000000,0.000000,0.000000,0.000000,0.000000,0,0,0,0,0,0,32.0141825072,34.8668671716,-9999.000000,0.000000,0.424000,121.400002,0.000000,0.000000,0.000000,0.000000,0.000000,390.226257,1.193444,12.000000,40.000000,0.000000,0.000000,0.000000,0.000000,0.000000,0.000000,0.000000,254.944656,0.000000,0.000000,0.000000,0.000000,0.000000
0.000000,0.000000,0.000000,0.000000,0.000000,0.000000,0.000000,0.000000,0,0,0,0,0,0,32.0141825072,34.8668671716,-9999.000000,0.000000,0.424000,121.400002,0.000000,0.000000,0.000000,0.000000,0.000000,390.226257,1.193444,12.000000,40.000000,0.000000,0.000000,0.000000,0.000000,0.000000,0.000000,0.000000,254.944656,0.000000,0.000000,0.000000,0.000000,0.000000
0.000000,0.000000,0.000000,0.000000,0.000000,0.000000,0.000000,0.000000,0,0,0,0,0,0,32.0141825072,34.8668671716,-9999.000000,0.000000,0.424000,121.400002,0.000000,0.000000,0.000000,0.000000,0.000000,390.226257,1.193444,12.000000,40.000000,0.000000,0.000000,0.000000,0.000000,0.000000,0.000000,0.000000,254.944656,0.000000,0.000000,0.000000,0.000000,0.000000
0.000000,0.000000,0.000000,0.000000,0.000000,0.000000,0.000000,0.000000,0,0,0,0,0,0,32.0141825072,34.8668671716,-9999.000000,0.000000,0.424000,121.400002,0.000000,0.000000,0.000000,0.000000,0.000000,390.226257,1.193444,12.000000,40.000000,0.000000,0.000000,0.000000,0.000000,0.000000,0.000000,0.000000,254.944656,0.000000,0.000000,0.000000,0.000000,0.000000
0.000000,0.000000,0.000000,0.000000,0.000000,0.000000,0.000000,0.000000,0,0,0,0,0,0,32.0141825072,34.8668671716,-9999.000000,0.000000,0.424000,121.400002,0.000000,0.000000,0.000000,0.000000,0.000000,390.226257,1.193444,12.000000,40.000000,0.000000,0.000000,0.000000,0.000000,0.000000,0.000000,0.000000,254.944656,0.000000,0.000000,0.000000,0.000000,0.000000
0.000000,0.000000,0.000000,0.000000,0.000000,0.000000,0.000000,0.000000,0,0,0,0,0,0,32.0141825072,34.8668671716,-9999.000000,0.000000,0.424000,121.400002,0.000000,0.000000,0.000000,0.000000,0.000000,390.226257,1.193444,12.000000,40.000000,0.000000,0.000000,0.000000,0.000000,0.000000,0.000000,0.000000,254.944656,0.000000,0.000000,0.000000,0.000000,0.000000
0.000000,0.000000,0.000000,0.000000,0.000000,0.000000,0.000000,0.000000,0,0,0,0,0,0,32.0141825072,34.8668671716,-9999.000000,0.000000,0.424000,121.400002,0.000000,0.000000,0.000000,0.000000,0.000000,390.226257,1.193444,12.000000,40.000000,0.000000,0.000000,0.000000,0.000000,0.000000,0.000000,0.000000,254.944656,0.000000,0.000000,0.000000,0.000000,0.000000
0.000000,0.000000,0.000000,0.000000,0.000000,0.000000,0.000000,0.000000,0,0,0,0,0,0,32.0141825072,34.8668671716,-9999.000000,0.000000,0.424000,121.400002,0.000000,0.000000,0.000000,0.000000,0.000000,390.226257,1.193444,12.000000,40.000000,0.000000,0.000000,0.000000,0.000000,0.000000,0.000000,0.000000,254.944656,0.000000,0.000000,0.000000,0.000000,0.000000
0.000000,0.000000,0.000000,0.000000,0.000000,0.000000,0.000000,0.000000,0,0,0,0,0,0,32.0141825072,34.8668671716,-9999.000000,0.000000,0.424000,121.400002,0.000000,0.000000,0.000000,0.000000,0.000000,390.226257,1.193444,12.000000,40.000000,0.000000,0.000000,0.000000,0.000000,0.000000,0.000000,0.000000,254.944656,0.000000,0.000000,0.000000,0.000000,0.000000
0.000000,0.000000,0.000000,0.000000,0.000000,0.000000,0.000000,0.000000,0,0,0,0,0,0,32.0141825072,34.8668671716,-9999.000000,0.000000,0.424000,121.400002,0.000000,0.000000,0.000000,0.000000,0.000000,390.226257,1.193444,12.000000,40.000000,0.000000,0.000000,0.000000,0.000000,0.000000,0.000000,0.000000,254.944656,0.000000,0.000000,0.000000,0.000000,0.000000
0.000000,0.000000,0.000000,0.000000,0.000000,0.000000,0.000000,0.000000,0,0,0,0,0,0,32.0141825072,34.8668671716,-9999.000000,0.000000,0.424000,121.400002,0.000000,0.000000,0.000000,0.000000,0.000000,390.226257,1.193444,12.000000,40.000000,0.000000,0.000000,0.000000,0.000000,0.000000,0.000000,0.000000,254.944656,0.000000,0.000000,0.000000,0.000000,0.000000
0.000000,0.000000,0.000000,0.000000,0.000000,0.000000,0.000000,0.000000,0,0,0,0,0,0,32.0141825072,34.8668671716,-9999.000000,0.000000,0.424000,121.400002,0.000000,0.000000,0.000000,0.000000,0.000000,390.226257,1.193444,12.000000,40.000000,0.000000,0.000000,0.000000,0.000000,0.000000,0.000000,0.000000,254.944656,0.000000,0.000000,0.000000,0.000000,0.000000
0.000000,0.000000,0.000000,0.000000,0.000000,0.000000,0.000000,0.000000,0,0,0,0,0,0,32.0141825072,34.8668671716,-9999.000000,0.000000,0.424000,121.400002,0.000000,0.000000,0.000000,0.000000,0.000000,390.226257,1.193444,12.000000,40.000000,0.000000,0.000000,0.000000,0.000000,0.000000,0.000000,0.000000,254.944656,0.000000,0.000000,0.000000,0.000000,0.000000
0.000000,0.000000,0.000000,0.000000,0.000000,0.000000,0.000000,0.000000,0,0,0,0,0,0,32.0141825072,34.8668671716,-9999.000000,0.000000,0.424000,121.400002,0.000000,0.000000,0.000000,0.000000,0.000000,390.226257,1.193444,12.000000,40.000000,0.000000,0.000000,0.000000,0.000000,0.000000,0.000000,0.000000,254.944656,0.000000,0.000000,0.000000,0.000000,0.000000
0.000000,0.000000,0.000000,0.000000,0.000000,0.000000,0.000000,0.000000,0,0,0,0,0,0,32.0141825072,34.8668671716,-9999.000000,0.000000,0.424000,121.400002,0.000000,0.000000,0.000000,0.000000,0.000000,390.226257,1.193444,12.000000,40.000000,0.000000,0.000000,0.000000,0.000000,0.000000,0.000000,0.000000,254.944656,0.000000,0.000000,0.000000,0.000000,0.000000
0.000000,0.000000,0.000000,0.000000,0.000000,0.000000,0.000000,0.000000,0,0,0,0,0,0,32.0141825072,34.8668671716,-9999.000000,0.000000,0.424000,121.400002,0.000000,0.000000,0.000000,0.000000,0.000000,390.226257,1.193444,12.000000,40.000000,0.000000,0.000000,0.000000,0.000000,0.000000,0.000000,0.000000,254.944656,0.000000,0.000000,0.000000,0.000000,0.000000
0.000000,0.000000,0.000000,0.000000,0.000000,0.000000,0.000000,0.000000,0,0,0,0,0,0,32.0141827157,34.8668660921,107.688179,-0.159245,-0.727356,121.399879,0.000000,0.000000,0.000000,0.000000,0.000000,390.226257,1.193444,12.000000,40.000000,0.000000,0.000000,0.000000,0.000000,0.000000,0.000000,0.000000,254.944656,0.000000,0.000000,0.000000,0.000000,0.000000
0.000000,0.000000,0.000000,0.000000,0.000000,0.000000,0.000000,0.000000,0,0,0,0,0,0,32.0141827163,34.8668660957,107.687706,-0.168707,-0.736944,121.400070,31.310062,3.016446,-0.831489,-0.000083,0.000000,500.325806,111.292992,12.000000,40.000000,0.000000,0.000000,110.000145,110.000000,107.687706,0.000020,-0.004688,254.944626,10.175205,0.002317,-0.985256,2747.024170,0.000000
0.000000,0.000000,0.000000,0.000000,0.000000,0.000000,0.000000,0.000000,0,0,0,0,0,0,32.0141827165,34.8668660952,107.687729,-0.168402,-0.735354,121.400055,37.493919,2.737227,0.857628,0.000007,0.000000,471.954346,82.921547,12.000000,40.000000,0.000000,0.000000,80.000145,80.000000,107.687729,0.000016,0.000435,254.944626,36.223881,0.003185,-1.582221,848.527344,0.000000
0.000000,0.000000,0.000000,0.000000,0.000000,0.000000,0.000000,0.000000,0,0,0,0,0,0,32.0141827166,34.8668660948,107.687775,-0.168202,-0.733727,121.400055,44.975391,2.496671,0.749974,0.000009,0.000000,443.579132,54.546341,12.000000,40.000000,0.000000,0.000000,50.000141,50.000000,107.687775,0.000013,0.000536,254.944626,70.620049,0.003478,-1.943920,-730.910767,0.000000
0.000000,0.000000,0.000000,0.000000,0.000000,0.000000,0.000000,0.000000,0,0,0,0,0,0,32.0141827167,34.8668660947,107.687790,-0.168174,-0.733004,121.400047,49.466980,2.389923,0.738472,0.000021,0.982818,428.743286,39.710480,12.000000,40.000000,0.000000,0.000000,40.000141,40.000000,107.687790,0.000012,0.001373,254.944626,89.404831,0.003543,-2.072539,-1045.194092,0.000000
0.000000,0.000000,0.000000,0.000000,0.000000,0.000000,0.000000,0.000000,0,0,0,0,0,0,32.0141827168,34.8668660946,107.687798,-0.168181,-0.732822,121.400047,51.280544,2.353365,0.456341,0.000032,4.251969,423.717010,34.684219,12.000000,40.000000,0.000000,0.000000,40.000141,40.000000,107.687798,0.000012,0.001574,254.944626,96.393486,0.003560,-2.113298,-1117.921875,0.000000
0.000000,0.000000,0.000000,0.000000,0.000000,0.000000,0.000000,0.000000,0,0,0,0,0,0,32.0141827168,34.8668660946,107.687805,-0.168188,-0.732695,121.400047,52.442410,2.331736,0.423735,0.000034,5.445284,420.613647,31.580847,12.000000,40.000000,0.000000,0.000000,30.000143,30.000000,107.687805,0.000011,0.001574,254.944626,100.677383,0.003571,-2.136774,-1155.956665,0.000000
0.000000,0.000000,0.000000,0.000000,0.000000,0.000000,0.000000,0.000000,0,0,0,0,0,0,32.0141827168,34.8668660946,107.687805,-0.168199,-0.732550,121.400047,53.625629,2.311083,0.373426,0.000033,5.729243,417.186981,28.154169,12.000000,40.000000,0.000000,0.000000,30.000143,30.000000,107.687805,0.000011,0.001942,254.944626,104.882683,0.003579,-2.158826,-1205.030273,0.000000
0.000000,0.000000,0.000000,0.000000,0.000000,0.000000,0.000000,0.000000,0,0,0,0,0,0,32.0141827168,34.8668660945,107.687813,-0.168213,-0.732409,121.400047,54.748875,2.292708,0.409721,0.000039,5.908563,413.958008,24.925196,12.000000,40.000000,0.000000,0.000000,30.000143,30.000000,107.687813,0.000011,0.002143,254.944626,108.726959,0.003584,-2.178197,-1246.408447,0.000000
0.000000,0.000000,0.000000,0.000000,0.000000,0.000000,0.000000,0.000000,0,0,0,0,0,0,32.0141827168,34.8668660945,107.687813,-0.168235,-0.732237,121.400047,56.054295,2.272803,0.396929,0.000038,5.737482,410.095764,21.062971,12.000000,40.000000,0.000000,0.000000,20.000143,20.000000,107.687813,0.000011,0.002043,254.944626,113.013847,0.003593,-2.198993,-1295.012695,0.000000
0.000000,0.000000,0.000000,0.000000,0.000000,0.000000,0.000000,0.000000,0,0,0,0,0,0,32.0141827169,34.8668660945,107.687820,-0.168259,-0.732091,121.400047,57.215038,2.256369,0.413138,0.000039,5.908774,406.864899,17.832096,12.000000,40.000000,0.000000,0.000000,20.000143,20.000000,107.687820,0.000010,0.002244,254.944626,116.662552,0.003602,-2.216084,-1325.772583,0.000000
0.000000,0.000000,0.000000,0.000000,0.000000,0.000000,0.000000,0.000000,0,0,0,0,0,0,32.0141827169,34.8668660944,107.687820,-0.168305,-0.731882,121.400047,58.816704,2.235570,0.438873,0.000042,5.366359,402.134949,13.102163,12.000000,40.000000,0.000000,0.000000,20.000143,20.000000,107.687820,0.000010,0.001641,254.944626,121.447449,0.003610,-2.237738,-1375.777710,0.000000
0.000000,0.000000,0.000000,0.000000,0.000000,0.000000,0.000000,0.000000,0,0,0,0,0,0,32.0141827169,34.8668660944,107.687828,-0.168360,-0.731681,121.400047,60.447300,2.216549,0.434279,0.000040,5.252314,397.596741,8.563955,12.000000,40.000000,0.000000,0.000000,10.000142,10.000000,107.687828,0.000010,0.002377,254.944626,126.024109,0.003617,-2.257740,-1410.499023,0.000000
0.000000,0.000000,0.000000,0.000000,0.000000,0.000000,0.000000,0.000000,0,0,0,0,0,0,32.0141827170,34.8668660943,107.687836,-0.168424,-0.731488,121.400047,62.104843,2.199353,0.435887,0.000039,5.229252,393.095245,4.062446,12.000000,40.000000,0.000000,0.000000,10.000142,10.000000,107.687836,0.000009,0.001808,254.944626,130.376434,0.003630,-2.276216,-1439.093994,0.000000
0.000000,0.000000,0.000000,0.000000,0.000000,0.000000,0.000000,0.000000,0,0,0,0,0,0,32.0141827170,34.8668660943,107.687836,-0.168495,-0.731312,121.400055,63.697964,2.184782,0.401068,0.000037,5.341043,388.891510,-0.141278,12.000000,40.000000,0.000000,0.000000,0.000142,0.000000,107.687836,0.000009,0.002277,254.944626,134.279602,0.003631,-2.292418,-1460.878906,0.000000
0.000000,0.000000,0.000000,0.000000,0.000000,0.000000,0.000000,0.000000,0,0,0,0,0,0,32.0141827171,34.8668660942,107.687851,-0.168753,-0.730821,121.400055,67.490791,2.157497,0.629181,0.000033,2.596010,378.638428,-10.394379,12.000000,40.000000,0.000000,0.000000,-9.999858,-10.000000,107.687851,0.000008,0.001641,254.944626,142.494247,0.003668,-2.325808,-1518.008911,0.000000
0.000000,0.000000,0.000000,0.000000,0.000000,0.000000,0.000000,0.000000,0,0,0,0,0,0,32.0141827175,34.8668660941,107.687889,-0.169849,-0.729565,121.400070,78.651321,2.133550,0.876910,0.000008,0.000000,351.320770,-37.712032,12.000000,40.000000,0.000000,0.000000,-39.999859,-40.000000,107.687889,0.000007,0.000469,254.944626,158.387741,0.003808,-2.394457,-1403.869019,0.000000
0.000000,0.000000,0.000000,0.000000,0.000000,0.000000,0.000000,0.000000,0,0,0,0,0,0,32.0141827175,34.8668660941,107.687897,-0.170025,-0.729438,121.400078,80.795868,2.138251,0.226396,0.000018,4.301340,346.836914,-42.195877,12.000000,40.000000,0.000000,0.000000,-39.999859,-40.000000,107.687897,0.000007,0.000938,254.944626,160.095490,0.003797,-2.404122,-1406.665161,0.000000
0.000000,0.000000,0.000000,0.000000,0.000000,0.000000,0.000000,0.000000,0,0,0,0,0,0,32.0141827176,34.8668660941,107.687897,-0.170216,-0.729301,121.400078,82.466263,2.144020,0.197991,0.000022,5.154144,343.072784,-45.960011,12.000000,40.000000,0.000000,0.000000,-39.999859,-40.000000,107.687897,0.000006,0.001239,254.944626,161.132431,0.003808,-2.411063,-1421.195435,0.000000
0.000000,0.000000,0.000000,0.000000,0.000000,0.000000,0.000000,0.000000,0,0,0,0,0,0,32.0141827177,34.8668660941,107.687897,-0.170398,-0.729176,121.400078,83.850479,2.150217,0.210369,0.000026,5.638988,339.884430,-49.148376,12.000000,40.000000,0.000000,0.000000,-49.999859,-50.000000,107.687897,0.000006,0.001306,254.944626,161.798050,0.003840,-2.416463,-1434.883911,0.000000
0.000000,0.000000,0.000000,0.000000,0.000000,0.000000,0.000000,0.000000,0,0,0,0,0,0,32.0141827177,34.8668660941,107.687904,-0.170622,-0.729030,121.400085,85.317123,2.158206,0.202136,0.000028,5.654021,336.283264,-52.749546,12.000000,40.000000,0.000000,0.000000,-49.999859,-50.000000,107.687904,0.000006,0.001741,254.944626,162.311996,0.003847,-2.421861,-1456.559814,0.000000
0.000000,0.000000,0.000000,0.000000,0.000000,0.000000,0.000000,0.000000,0,0,0,0,0,0,32.0141827178,34.8668660941,107.687904,-0.170845,-0.728889,121.400085,86.681038,2.166972,0.194693,0.000028,5.767272,332.950989,-56.081814,12.000000,40.000000,0.000000,0.000000,-49.999859,-50.000000,107.687904,0.000006,0.001808,254.944626,162.613098,0.003859,-2.426605,-1473.078247,0.000000
0.000000,0.000000,0.000000,0.000000,0.000000,0.000000,0.000000,0.000000,0,0,0,0,0,0,32.0141827179,34.8668660941,107.687912,-0.171218,-0.728689,121.400093,88.566940,2.181299,0.181543,0.000025,5.063300,327.939087,-61.093723,12.000000,40.000000,0.000000,0.000000,-59.999859,-60.000000,107.687912,0.000006,0.001641,254.944626,162.747467,0.003902,-2.432766,-1506.239868,0.000000
0.000000,0.000000,0.000000,0.000000,0.000000,0.000000,0.000000,0.000000,0,0,0,0,0,0,32.0141827174,34.8668660948,107.687920,-0.171077,-0.731850,121.400101,89.787704,2.194798,-0.145764,-0.000350,5.404380,324.238556,-64.794258,12.000000,40.000000,0.000000,0.000000,-59.999859,-60.000000,107.687920,0.000006,-0.010113,254.944626,162.617508,0.004051,-2.437373,-1515.956055,0.000000
0.000000,0.000000,0.000000,0.000000,0.000000,0.000000,0.000000,0.000000,0,0,0,0,0,0,32.0141827165,34.8668660943,107.687904,-0.166704,-0.732334,121.400024,88.338699,2.211767,0.074110,0.000183,5.362326,320.165009,-68.867805,12.000000,40.000000,0.000000,0.000000,-69.999855,-70.000000,107.687904,0.000005,0.002880,254.944626,162.254791,0.004306,-2.441907,-1531.355591,0.000000
0.000000,0.000000,0.000000,0.000000,0.000000,0.000000,0.000000,0.000000,0,0,0,0,0,0,32.0141827161,34.8668660934,107.687912,-0.163823,-0.730631,121.399971,86.868378,2.227343,0.155288,0.000180,5.468480,316.376038,-72.656761,12.000000,40.000000,0.000000,0.000000,-69.999855,-70.000000,107.687912,0.000005,0.005760,254.944626,161.707123,0.003650,-2.445888,-1542.185669,0.000000
0.000000,0.000000,0.000000,0.000000,0.000000,0.000000,0.000000,0.000000,0,0,0,0,0,0,32.0141827160,34.8668660931,107.687927,-0.162687,-0.729664,121.399948,85.245354,2.247015,0.286572,0.000109,5.252902,312.009613,-77.023201,12.000000,40.000000,0.000000,0.000000,-69.999855,-70.000000,107.687927,0.000005,0.004956,254.944626,160.868927,0.003260,-2.450015,-1557.854614,0.000000
0.000000,0.000000,0.000000,0.000000,0.000000,0.000000,0.000000,0.000000,0,0,0,0,0,0,32.0141827160,34.8668660929,107.687943,-0.162248,-0.729165,121.399940,81.615173,2.299927,0.741441,0.000026,2.355021,301.296844,-87.735954,12.000000,40.000000,0.000000,0.000000,-89.999855,-90.000000,107.687943,0.000005,0.001607,254.944626,158.075562,0.002980,-2.458404,-1590.775269,0.000000
0.000000,0.000000,0.000000,0.000000,0.000000,0.000000,0.000000,0.000000,0,0,0,0,0,0,32.0141827161,34.8668660928,107.687958,-0.162438,-0.728762,121.399940,72.645638,2.487359,0.464864,0.000001,0.000000,274.012817,-115.019989,12.000000,40.000000,0.000000,0.000000,-119.999855,-120.000000,107.687958,0.000004,0.000000,254.944626,145.588608,0.002760,-2.474797,-1445.387573,0.000000
0.000000,0.000000,0.000000,0.000000,0.000000,0.000000,0.000000,0.000000,0,0,0,0,0,0,32.0141827161,34.8668660928,107.687965,-0.162491,-0.728490,121.399940,65.350410,2.620319,1.085557,0.000004,0.000000,246.969681,-142.063110,12.000000,40.000000,0.000000,0.000000,-139.999863,-140.000000,107.687965,0.000003,0.000268,254.944626,128.930466,0.002686,-2.484730,-1350.531738,0.000000
0.000000,0.000000,0.000000,0.000000,0.000000,0.000000,0.000000,0.000000,0,0,0,0,0,0,32.0141827161,34.8668660927,107.687965,-0.162402,-0.728453,121.399940,63.578362,2.612153,0.152226,0.000002,3.248657,239.954865,-149.077927,12.000000,40.000000,0.000000,0.000000,-149.999863,-150.000000,107.687965,0.000003,0.000033,254.944626,124.123589,0.002680,-2.486695,-1382.680664,0.000000
0.000000,0.000000,0.000000,0.000000,0.000000,0.000000,0.000000,0.000000,0,0,0,0,0,0,32.0141827161,34.8668660927,107.687965,-0.162357,-0.728438,121.399940,62.607506,2.608756,0.169849,0.000004,4.976430,236.413208,-152.619598,12.000000,40.000000,0.000000,0.000000,-149.999863,-150.000000,107.687965,0.000003,-0.000268,254.944626,121.515114,0.002678,-2.487659,-1389.637573,0.000000
0.000000,0.000000,0.000000,0.000000,0.000000,0.000000,0.000000,0.000000,0,0,0,0,0,0,32.0141827161,34.8668660927,107.687965,-0.162294,-0.728416,121.399940,61.526081,2.605859,0.114136,0.000003,5.036489,231.927002,-157.105804,12.000000,40.000000,0.000000,0.000000,-159.999863,-160.000000,107.687965,0.000003,0.000134,254.944626,118.645340,0.002667,-2.488647,-1420.183960,0.000000
0.000000,0.000000,0.000000,0.000000,0.000000,0.000000,0.000000,0.000000,0,0,0,0,0,0,32.0141827161,34.8668660927,107.687965,-0.162199,-0.728379,121.399933,60.008629,2.603365,0.228344,0.000004,4.070667,225.299026,-163.733765,12.000000,40.000000,0.000000,0.000000,-159.999863,-160.000000,107.687965,0.000003,0.000134,254.944626,114.705116,0.002650,-2.489900,-1466.552368,0.000000
0.000000,0.000000,0.000000,0.000000,0.000000,0.000000,0.000000,0.000000,0,0,0,0,0,0,32.0141827161,34.8668660927,107.687965,-0.162128,-0.728352,121.399933,58.706356,2.602683,0.131391,0.000003,4.645502,220.004929,-169.027863,12.000000,40.000000,0.000000,0.000000,-169.999863,-170.000000,107.687965,0.000003,0.000134,254.944626,111.425552,0.002638,-2.490863,-1485.549194,0.000000
0.000000,0.000000,0.000000,0.000000,0.000000,0.000000,0.000000,0.000000,0,0,0,0,0,0,32.0141827161,34.8668660927,107.687965,-0.162075,-0.728330,121.399933,57.620975,2.603144,0.260003,0.000005,5.148689,215.672180,-173.360611,12.000000,40.000000,0.000000,0.000000,-169.999863,-170.000000,107.687965,0.000003,0.000234,254.944626,108.778534,0.002628,-2.491595,-1497.220581,0.000000
0.000000,0.000000,0.000000,0.000000,0.000000,0.000000,0.000000,0.000000,0,0,0,0,0,0,32.0141827161,34.8668660926,107.687965,-0.162027,-0.728312,121.399933,56.590508,2.604444,0.128405,0.000002,5.355665,211.465210,-177.567596,12.000000,40.000000,0.000000,0.000000,-179.999863,-180.000000,107.687965,0.000002,0.000067,254.944626,106.347855,0.002621,-2.492236,-1511.051270,0.000000
0.000000,0.000000,0.000000,0.000000,0.000000,0.000000,0.000000,0.000000,0,0,0,0,0,0,32.0141827160,34.8668660926,107.687965,-0.161903,-0.728257,121.399933,54.318073,2.610301,0.314795,0.000003,2.987983,201.276779,-187.756027,12.000000,40.000000,0.000000,0.000000,-189.999863,-190.000000,107.687965,0.000002,0.000469,254.944626,101.311661,0.002590,-2.493485,-1552.584106,0.000000
0.000000,0.000000,0.000000,0.000000,0.000000,0.000000,0.000000,0.000000,0,0,0,0,0,0,32.0141827160,34.8668660925,107.687973,-0.161644,-0.728115,121.399925,47.922512,2.649390,0.597645,0.000000,1.549562,173.969421,-215.063385,12.000000,40.000000,0.000000,0.000000,-219.999863,-220.000000,107.687973,0.000002,0.000000,254.944626,90.093552,0.002532,-2.496053,-1420.098022,0.000000
0.000000,0.000000,0.000000,0.000000,0.000000,0.000000,0.000000,0.000000,0,0,0,0,0,0,32.0141827160,34.8668660925,107.687973,-0.161585,-0.728078,121.399925,45.996445,2.667966,0.532909,0.000004,3.457480,165.965271,-223.067520,12.000000,40.000000,0.000000,0.000000,-219.999863,-220.000000,107.687973,0.000002,0.000067,254.944626,87.720322,0.002522,-2.496618,-1442.442993,0.000000
0.000000,0.000000,0.000000,0.000000,0.000000,0.000000,0.000000,0.000000,0,0,0,0,0,0,32.0141827160,34.8668660925,107.687973,-0.161558,-0.728060,121.399925,44.864506,2.680433,0.282836,0.000003,4.951671,161.455063,-227.577728,12.000000,40.000000,0.000000,0.000000,-229.999863,-230.000000,107.687973,0.000002,0.000335,254.944626,86.566582,0.002517,-2.496914,-1449.167969,0.000000
0.000000,0.000000,0.000000,0.000000,0.000000,0.000000,0.000000,0.000000,0,0,0,0,0,0,32.0141827160,34.8668660925,107.687973,-0.161526,-0.728037,121.399925,43.743359,2.693939,0.515202,0.000007,5.152269,156.563965,-232.468826,12.000000,40.000000,0.000000,0.000000,-229.999863,-230.000000,107.687973,0.000002,0.000268,254.944626,85.605896,0.002512,-2.497185,-1471.077881,0.000000
0.000000,0.000000,0.000000,0.000000,0.000000,0.000000,0.000000,0.000000,0,0,0,0,0,0,32.0141827160,34.8668660925,107.687973,-0.161501,-0.728015,121.399925,42.784328,2.706425,0.412702,0.000005,5.518868,152.418472,-236.614334,12.000000,40.000000,0.000000,0.000000,-229.999863,-230.000000,107.687973,0.000002,0.000134,254.944626,84.931145,0.002506,-2.497400,-1485.118652,0.000000
0.000000,0.000000,0.000000,0.000000,0.000000,0.000000,0.000000,0.000000,0,0,0,0,0,0,32.0141827160,34.8668660925,107.687973,-0.161482,-0.727998,121.399925,42.033585,2.716817,0.396360,0.000007,6.005330,149.239670,-239.793121,12.000000,40.000000,0.000000,0.000000,-239.999863,-240.000000,107.687973,0.000002,0.000067,254.944626,84.499123,0.002503,-2.497558,-1491.795288,0.000000
0.000000,0.000000,0.000000,0.000000,0.000000,0.000000,0.000000,0.000000,0,0,0,0,0,0,32.0141827160,34.8668660925,107.687981,-0.161455,-0.727974,121.399925,41.090939,2.730641,0.368137,0.000005,5.706830,144.822067,-244.210724,12.000000,40.000000,0.000000,0.000000,-239.999863,-240.000000,107.687981,0.000001,0.000335,254.944626,84.077965,0.002498,-2.497744,-1514.735107,0.000000
0.000000,0.000000,0.000000,0.000000,0.000000,0.000000,0.000000,0.000000,0,0,0,0,0,0,32.0141827160,34.8668660925,107.687981,-0.161426,-0.727950,121.399918,40.109142,2.745985,0.437753,0.000006,5.548790,140.244110,-248.788696,12.000000,40.000000,0.000000,0.000000,-249.999863,-250.000000,107.687981,0.000001,0.000402,254.944626,83.784447,0.002491,-2.497925,-1532.718994,0.000000
0.000000,0.000000,0.000000,0.000000,0.000000,0.000000,0.000000,0.000000,0,0,0,0,0,0,32.0141827160,34.8668660925,107.687981,-0.161408,-0.727932,121.399918,39.331715,2.758834,0.408294,0.000006,5.951023,136.802811,-252.229996,12.000000,40.000000,0.000000,0.000000,-249.999863,-250.000000,107.687981,0.000001,0.000469,254.944626,83.658005,0.002486,-2.498059,-1537.260498,0.000000
0.000000,0.000000,0.000000,0.000000,0.000000,0.000000,0.000000,0.000000,0,0,0,0,0,0,32.0141827160,34.8668660925,107.687981,-0.161391,-0.727913,121.399918,38.609535,2.771339,0.398565,0.000006,6.158727,133.509796,-255.522995,12.000000,40.000000,0.000000,0.000000,-249.999863,-250.000000,107.687981,0.000001,0.000402,254.944626,83.624962,0.002482,-2.498177,-1544.060059,0.000000
0.000000,0.000000,0.000000,0.000000,0.000000,0.000000,0.000000,0.000000,0,0,0,0,0,0,32.0141827160,34.8668660925,107.687981,-0.161371,-0.727880,121.399918,37.656788,2.788690,0.488612,0.000007,5.672123,128.784195,-260.248596,12.000000,40.000000,0.000000,0.000000,-259.999847,-260.000000,107.687981,0.000001,0.000402,254.944626,83.706154,0.002477,-2.498323,-1564.445801,0.000000
0.000000,0.000000,0.000000,0.000000,0.000000,0.000000,0.000000,0.000000,0,0,0,0,0,0,32.0141827160,34.8668660924,107.687981,-0.161354,-0.727851,121.399918,36.762817,2.805882,0.513955,0.000008,5.704016,124.509422,-264.523376,12.000000,40.000000,0.000000,0.000000,-259.999847,-260.000000,107.687981,0.000001,0.000301,254.944626,83.911560,0.002475,-2.498451,-1573.265869,0.000000
0.000000,0.000000,0.000000,0.000000,0.000000,0.000000,0.000000,0.000000,0,0,0,0,0,0,32.0141827160,34.8668660924,107.687981,-0.161337,-0.727831,121.399918,36.018551,2.820886,0.382877,0.000006,6.032769,121.039726,-267.993073,12.000000,40.000000,0.000000,0.000000,-269.999847,-270.000000,107.687981,0.000001,0.000636,254.944626,84.177811,0.002474,-2.498551,-1575.278076,0.000000
0.000000,0.000000,0.000000,0.000000,0.000000,0.000000,0.000000,0.000000,0,0,0,0,0,0,32.0141827160,34.8668660924,107.687981,-0.161315,-0.727807,121.399918,35.145042,2.839313,0.558279,0.000008,5.801588,116.650291,-272.382507,12.000000,40.000000,0.000000,0.000000,-269.999847,-270.000000,107.687981,0.000001,0.000435,254.944626,84.600121,0.002468,-2.498661,-1587.465576,0.000000
0.000000,0.000000,0.000000,0.000000,0.000000,0.000000,0.000000,0.000000,0,0,0,0,0,0,32.0141827160,34.8668660924,107.687988,-0.161298,-0.727787,121.399918,34.373158,2.856352,0.532465,0.000008,5.979408,112.889999,-276.142792,12.000000,40.000000,0.000000,0.000000,-269.999847,-270.000000,107.687988,0.000001,0.000335,254.944626,85.071236,0.002464,-2.498753,-1591.013550,0.000000
0.000000,0.000000,0.000000,0.000000,0.000000,0.000000,0.000000,0.000000,0,0,0,0,0,0,32.0141827160,34.8668660924,107.687988,-0.161256,-0.727704,121.399918,32.331123,2.904787,0.685263,0.000007,3.045003,105.704597,-283.328186,12.000000,40.000000,0.000000,0.000000,-279.999847,-280.000000,107.687988,0.000001,0.000402,254.944626,86.752182,0.002453,-2.498971,-1469.208252,0.000000
0.000000,0.000000,0.000000,0.000000,0.000000,0.000000,0.000000,0.000000,0,0,0,0,0,0,32.0141827160,34.8668660924,107.687988,-0.161245,-0.727683,121.399918,31.464907,2.926825,0.599371,0.000007,2.543417,105.586609,-283.446198,12.000000,40.000000,0.000000,0.000000,-279.999847,-280.000000,107.687988,0.000001,0.000636,254.944626,87.650574,0.002451,-2.499053,-1293.710449,0.000000
0.000000,0.000000,0.000000,0.000000,0.000000,0.000000,0.000000,0.000000,0,0,0,0,0,0,32.0141827160,34.8668660924,107.687988,-0.161231,-0.727661,121.399918,30.739012,2.946073,0.548826,0.000008,2.483834,105.561043,-283.471741,12.000000,40.000000,0.000000,0.000000,-279.999847,-280.000000,107.687988,0.000001,0.000435,254.944626,88.485306,0.002447,-2.499118,-1141.027466,0.000000
0.000000,0.000000,0.000000,0.000000,0.000000,0.000000,0.000000,0.000000,0,0,0,0,0,0,32.0141827160,34.8668660924,107.687988,-0.161219,-0.727639,121.399918,30.022684,2.965787,0.643623,0.000009,2.500466,105.549049,-283.483765,12.000000,40.000000,0.000000,0.000000,-279.999847,-280.000000,107.687988,0.000001,0.000402,254.944626,89.379959,0.002444,-2.499179,-987.589844,0.000000
0.000000,0.000000,0.000000,0.000000,0.000000,0.000000,0.000000,0.000000,0,0,0,0,0,0,32.0141827160,34.8668660924,107.687996,-0.161205,-0.727609,121.399918,29.192274,2.989561,0.578155,0.000009,2.539607,105.538361,-283.494446,12.000000,40.000000,0.000000,0.000000,-279.999847,-280.000000,107.687996,0.000001,0.000335,254.944626,90.502121,0.002441,-2.499244,-806.805176,0.000000
0.000000,0.000000,0.000000,0.000000,0.000000,0.000000,0.000000,0.000000,0,0,0,0,0,0,32.0141827160,34.8668660924,107.687996,-0.161196,-0.727585,121.399918,28.646196,3.005717,0.620364,0.000008,2.570269,105.529732,-283.503052,12.000000,40.000000,0.000000,0.000000,-279.999847,-280.000000,107.687996,0.000001,0.000402,254.944626,91.569679,0.002438,-2.499299,-643.959045,0.000000
0.000000,0.000000,0.000000,0.000000,0.000000,0.000000,0.000000,0.000000,0,0,0,0,0,0,32.0141827160,34.8668660924,107.687996,-0.161190,-0.727569,121.399918,28.646175,3.005597,0.611365,0.000005,2.571214,105.521370,-283.511444,12.000000,40.000000,0.000000,0.000000,-279.999847,-280.000000,107.687996,0.000001,0.000335,254.944626,92.622108,0.002435,-2.499347,-490.102142,0.000000
0.000000,0.000000,0.000000,0.000000,0.000000,0.000000,0.000000,0.000000,0,0,0,0,0,0,32.0141827160,34.8668660923,107.687996,-0.161189,-0.727558,121.399918,28.646116,3.005455,0.986742,0.000003,2.569654,105.511032,-283.521759,12.000000,40.000000,0.000000,0.000000,-279.999847,-280.000000,107.687996,0.000001,0.000134,254.944626,93.907814,0.002431,-2.499399,-308.969055,0.000000
0.000000,0.000000,0.000000,0.000000,0.000000,0.000000,0.000000,0.000000,0,0,0,0,0,0,32.0141827160,34.8668660923,107.687996,-0.161189,-0.727556,121.399918,28.646112,3.005334,1.074440,0.000002,2.570893,105.502731,-283.530060,12.000000,40.000000,0.000000,0.000000,-279.999847,-280.000000,107.687996,0.000001,0.000067,254.944626,95.034897,0.002430,-2.499441,-154.531433,0.000000
0.000000,0.000000,0.000000,0.000000,0.000000,0.000000,0.000000,0.000000,0,0,0,0,0,0,32.0141827160,34.8668660923,107.687996,-0.161189,-0.727553,121.399918,28.646114,3.005220,1.096599,0.000002,2.571651,105.494835,-283.537964,12.000000,40.000000,0.000000,0.000000,-279.999847,-280.000000,107.687996,0.000001,-0.000067,254.944626,96.119354,0.002428,-2.499477,-16.182615,0.000000
0.000000,0.000000,0.000000,0.000000,0.000000,0.000000,0.000000,0.000000,0,0,0,0,0,0,32.0141827160,34.8668660923,107.687996,-0.161189,-0.727552,121.399918,28.646112,3.005106,0.880614,0.000001,2.571769,105.486824,-283.545959,12.000000,40.000000,0.000000,0.000000,-279.999847,-280.000000,107.687996,0.000001,0.000100,254.944626,97.222267,0.002428,-2.499511,-16.354891,0.000000
0.000000,0.000000,0.000000,0.000000,0.000000,0.000000,0.000000,0.000000,0,0,0,0,0,0,32.0141827160,34.8668660923,107.687996,-0.161189,-0.727551,121.399918,28.646111,3.004991,0.891544,0.000000,2.571725,105.478790,-283.554016,12.000000,40.000000,0.000000,0.000000,-279.999847,-280.000000,107.687996,0.000001,0.000100,254.944626,98.339279,0.002428,-2.499542,-16.442499,0.000000
0.000000,0.000000,0.000000,0.000000,0.000000,0.000000,0.000000,0.200000,0,0,0,0,0,0,32.0141827160,34.8668660923,107.687996,-0.161189,-0.727551,121.399918,28.646112,3.004884,0.502968,0.000000,2.572198,105.471352,-283.561462,12.000000,40.000000,0.000000,0.000000,-279.999847,-280.000000,107.687996,0.000001,0.000167,254.944626,99.395462,0.002428,-2.499570,-13.863719,0.000000
0.000000,0.000000,0.000000,0.000000,0.000000,0.000000,0.200000,0.200000,0,0,0,0,0,0,32.0141827160,34.8668660923,107.687996,-0.161189,-0.727549,121.399918,28.646111,3.004770,-1.358696,-0.000004,2.571693,105.463226,-283.569580,12.000000,40.000000,0.000000,0.000000,-279.999847,-280.000000,107.687996,0.000001,-0.000234,254.944397,100.527634,0.002427,-2.499598,-13.620818,0.000000
0.000000,0.000000,0.000000,0.000000,0.000000,0.000000,0.200000,0.200000,0,0,0,0,0,0,32.0141827160,34.8668660923,107.687996,-0.161188,-0.727554,121.399918,28.646093,3.004643,-0.783133,-0.000003,2.570327,105.453934,-283.578857,12.000000,40.000000,0.000000,0.000000,-279.999847,-280.000000,107.687996,0.000001,-0.000201,254.944397,101.803200,0.002426,-2.499627,-18.915012,0.000000
0.000000,0.000000,0.000000,0.000000,0.000000,0.000000,0.200000,0.200000,0,0,0,0,0,0,32.0141827160,34.8668660923,107.687996,-0.161186,-0.727553,121.399918,28.645924,3.004525,-0.152361,-0.000004,2.569953,105.444839,-283.587952,12.000000,40.000000,0.000000,0.000000,-279.999847,-280.000000,107.687996,0.000001,-0.000134,254.944397,103.075218,0.002423,-2.478593,-13.974425,0.000000
0.000000,0.000000,0.000000,0.000000,0.000000,0.000000,0.200000,0.200000,0,0,0,0,0,0,32.0141827159,34.8668660926,107.687981,-0.161287,-0.728470,121.399918,28.642313,3.004591,-0.254676,-0.000156,2.564027,105.428642,-283.604156,12.000000,40.000000,0.000000,0.000000,-279.999847,-280.000000,107.687981,0.000001,-0.006396,254.944397,105.172440,0.002407,-2.372496,-14.873016,0.000000
0.000000,0.000000,0.000000,0.000000,0.000000,0.000000,0.200000,0.200000,0,0,0,0,0,0,32.0141827156,34.8668660932,107.687943,-0.161513,-0.730817,121.399925,28.639771,3.004595,-0.318730,-0.000330,2.564848,105.415199,-283.617584,12.000000,40.000000,0.000000,0.000000,-279.999847,-280.000000,107.687943,0.000001,-0.014868,254.944397,107.018295,0.002403,-2.226084,-14.581353,0.000000
0.000000,0.000000,0.000000,0.000000,0.000000,0.000000,0.200000,0.200000,0,0,0,0,0,0,32.0141827154,34.8668660937,107.687897,-0.161715,-0.732924,121.399940,28.638672,3.004552,-0.347215,-0.000425,2.569059,105.406891,-283.625916,11.726491,39.088303,-0.000000,-0.000000,-279.999847,-280.000000,107.687897,0.000001,-0.020393,254.944397,108.218369,0.002407,-2.112532,-15.196048,0.000000
0.000000,0.000000,0.000000,0.000000,0.000000,0.000000,0.200000,0.200000,0,0,0,0,0,0,32.0141827152,34.8668660944,107.687836,-0.161957,-0.735453,121.399948,28.637934,3.004476,-0.367571,-0.000498,2.569368,105.397369,-283.635437,11.386228,37.954094,-0.000000,-0.000000,-279.999847,-280.000000,107.687836,0.000001,-0.024344,254.944397,109.452705,0.002424,-1.985305,-9.275746,0.000000
0.000000,0.000000,0.000000,0.000000,0.000000,0.000000,0.200000,0.200000,0,0,0,0,0,0,32.0141827145,34.8668660959,107.687675,-0.162536,-0.741665,121.399971,28.637608,3.004195,-0.405627,-0.000579,2.559926,105.374031,-283.658783,10.523425,35.078083,-0.000000,-0.000000,-279.999847,-280.000000,107.687675,0.000001,-0.028630,254.944382,112.097649,0.002483,-1.692552,-16.675508,0.000000
0.000000,0.000000,0.000000,0.000000,0.000000,0.000000,0.200000,0.200000,0,0,0,0,0,0,32.0141827142,34.8668660966,107.687599,-0.162785,-0.744382,121.399979,28.637909,3.004036,-0.415826,-0.000575,2.567414,105.365730,-283.667053,10.066117,33.553726,-0.000001,-0.000000,-279.999847,-280.000000,107.687599,0.000001,-0.028831,254.944275,113.190269,0.002516,-1.568594,-17.492304,0.000000
0.000000,0.000000,0.000000,0.000000,0.000000,0.000000,0.200000,0.200000,0,0,0,0,0,0,32.0141827139,34.8668660973,107.687523,-0.163033,-0.747107,121.399986,28.638426,3.003855,-0.427708,-0.000557,2.568096,105.355774,-283.677032,9.564833,31.882790,-0.000004,-0.000001,-279.999847,-280.000000,107.687523,0.000001,-0.028329,254.943756,114.283783,0.002550,-1.444991,-13.798924,0.000000
0.000000,0.000000,0.000000,0.000000,0.000000,0.000000,0.200000,0.200000,0,0,0,0,0,0,32.0141827136,34.8668660981,107.687416,-0.163345,-0.750589,121.400002,28.639332,3.003586,-0.438206,-0.000506,2.564034,105.340950,-283.691833,8.847075,29.490335,-0.000027,-0.000006,-279.999847,-280.000000,107.687416,0.000001,-0.025483,254.940231,115.709595,0.002603,-1.286063,-18.323479,0.000000
0.000000,0.000000,0.000000,0.000000,0.000000,0.000000,0.200000,0.200000,0,0,0,0,0,0,32.0141827133,34.8668660987,107.687347,-0.163552,-0.752909,121.400009,28.640036,3.003379,-0.445782,-0.000462,2.566663,105.330833,-283.701965,8.295805,27.652958,-0.000088,-0.000019,-279.999847,-280.000000,107.687347,0.000000,-0.023641,254.930862,116.693275,0.002642,-1.178108,-15.317080,0.000000
0.000000,0.000000,0.000000,0.000000,0.000000,0.000000,0.200000,0.200000,0,0,0,0,0,0,32.0141827047,34.8668661161,107.687256,-0.165109,-0.754909,121.399918,28.287867,3.036465,0.002589,0.000170,2.593686,105.307289,-283.725525,7.160688,23.871088,-0.000683,-0.000149,-279.999847,-280.000000,107.687256,0.000699,0.003951,254.839828,118.500328,0.002623,-0.980443,-17.074812,0.000000
0.000000,0.000000,0.000000,0.000000,0.000000,0.000000,0.200000,0.200000,0,0,0,0,0,0,32.0141826801,34.8668661644,107.687302,-0.166743,-0.754019,121.399719,27.785412,3.086551,0.004703,0.000761,2.657059,105.299088,-283.733704,6.498291,21.665806,-0.001552,-0.000340,-279.999847,-280.000000,107.687302,0.002716,0.031343,254.706680,119.169472,0.002465,-0.905742,-17.343477,0.000000
0.000000,0.000000,0.000000,0.000000,0.000000,0.000000,0.200000,0.200000,0,0,0,0,0,0,32.0141826291,34.8668662632,107.687416,-0.168396,-0.752850,121.399239,27.118111,3.157121,0.005096,0.001510,2.737446,105.289856,-283.742950,5.793694,19.323618,-0.003632,-0.000803,-279.999847,-280.000000,107.687416,0.006810,0.056189,254.387650,119.769409,0.002468,-0.836787,-10.292110,0.000000
0.000000,0.000000,0.000000,0.000000,0.000000,0.000000,0.200000,0.200000,0,0,0,0,0,0,32.0141825494,34.8668664172,107.687607,-0.169844,-0.751726,121.398460,26.375504,3.239394,0.005095,0.002305,2.830634,105.281075,-283.751709,5.143859,17.170879,-0.007936,-0.001772,-279.999847,-280.000000,107.687607,0.013128,0.082643,253.725861,120.273056,0.001744,-0.776360,-13.838570,0.000000
0.000000,0.000000,0.000000,0.000000,0.000000,0.000000,0.200000,0.200000,0,0,0,0,0,0,32.0141824338,34.8668666401,107.687874,-0.171017,-0.750713,121.397125,25.583519,3.333422,0.005026,0.003162,2.936088,105.272255,-283.760559,4.520105,15.118173,-0.016459,-0.003708,-279.999847,-280.000000,107.687874,0.022182,0.113617,252.411789,120.713249,0.000809,-0.720405,-16.806496,0.000000
0.000000,0.000000,0.000000,0.000000,0.000000,0.000000,0.200000,0.200000,0,0,0,0,0,0,32.0141822882,34.8668669205,107.688217,-0.171944,-0.749915,121.395012,24.804125,3.429306,0.004788,0.003875,3.044106,105.264084,-283.768707,3.956092,13.283337,-0.031021,-0.007039,-279.999847,-280.000000,107.688217,0.033449,0.174260,250.158005,121.070587,-0.000803,-0.671415,-17.212132,0.000000
0.000000,0.000000,0.000000,0.000000,0.000000,0.000000,0.200000,0.200000,0,0,0,0,0,0,32.0141821170,34.8668672500,107.688606,-0.172582,-0.749321,121.392204,24.093964,3.524181,0.004729,0.004663,3.150194,105.256493,-283.776306,3.446632,11.655257,-0.053616,-0.012235,-279.999847,-280.000000,107.688606,0.046550,0.210826,246.642578,121.355186,-0.002380,-0.628501,-14.903728,0.000000
0.000000,0.000000,0.000000,0.000000,0.000000,0.000000,0.200000,0.200000,0,0,0,0,0,0,32.0141819256,34.8668676184,107.689034,-0.172930,-0.748902,121.389091,23.469519,3.615656,0.004875,0.005627,3.251518,105.249458,-283.783325,2.985897,10.219259,-0.085780,-0.019661,-279.999847,-280.000000,107.689034,0.061043,0.197900,241.602005,121.576714,-0.003666,-0.590860,-9.585141,0.000000
0.000000,0.000000,0.000000,0.000000,0.000000,0.000000,0.200000,0.200000,0,0,0,0,0,0,32.0141816881,34.8668680754,107.689568,-0.173212,-0.748591,121.385384,22.820189,3.713411,0.004843,0.006462,3.359083,105.241783,-283.791016,2.509857,8.785806,-0.135217,-0.031107,-279.999847,-280.000000,107.689568,0.078826,0.226866,233.770432,121.765160,-0.005476,-0.553287,-6.886629,0.000000
0.000000,0.000000,0.000000,0.000000,0.000000,0.000000,0.200000,0.200000,0,0,0,0,0,0,32.0141814343,34.8668685636,107.690132,-0.173452,-0.748415,121.381607,22.227488,3.803988,0.004646,0.006976,3.459415,105.234833,-283.797974,2.076075,7.535002,-0.198136,-0.045701,-279.999847,-280.000000,107.690132,0.097609,0.311518,223.645737,121.897499,-0.007323,-0.520317,-16.138481,0.000000
0.000000,0.000000,0.000000,0.000000,0.000000,0.000000,0.200000,0.200000,0,0,0,0,0,0,32.0141811110,34.8668691859,107.690834,-0.173398,-0.748318,121.377029,21.642906,3.906109,0.004792,0.008083,3.569941,105.226685,-283.806122,1.599028,6.227077,-0.289144,-0.066829,-279.999847,-280.000000,107.690834,0.121256,0.287910,208.647018,121.996483,-0.009138,-0.485405,-17.065229,0.000000
0.000000,0.000000,0.000000,0.000000,0.000000,0.000000,0.200000,0.200000,0,0,0,0,0,0,32.0141807505,34.8668698794,107.691628,-0.173456,-0.748314,121.372276,21.064711,4.004500,0.004625,0.008635,3.677603,105.218788,-283.814026,1.142376,5.037280,-0.396321,-0.091712,-279.999847,-280.000000,107.691628,0.147266,0.381302,190.323654,122.042351,-0.011280,-0.452913,-16.685608,0.000000
0.000000,0.000000,0.000000,0.000000,0.000000,0.000000,0.200000,0.200000,0,0,0,0,0,0,32.0141802808,34.8668707836,107.692657,-0.173317,-0.748398,121.366531,20.467205,4.116761,0.004615,0.009556,3.798495,105.209244,-283.823547,0.647139,3.792012,-0.527072,-0.122025,-279.999847,-280.000000,107.692657,0.180667,0.420447,166.616547,122.030098,-0.013205,-0.417544,-11.593012,0.000000
0.000000,0.000000,0.000000,0.000000,0.000000,0.000000,0.200000,0.200000,0,0,0,0,0,0,32.0141797637,34.8668717791,107.693779,-0.173109,-0.748541,121.360657,19.927971,4.224025,0.004621,0.010462,3.914294,105.200142,-283.832672,0.222358,2.719114,-0.637642,-0.147553,-279.999847,-280.000000,107.693779,0.216827,0.452861,144.618973,121.948586,-0.014831,-0.385032,-17.171457,0.000000
0.000000,0.000000,0.000000,0.000000,0.000000,0.000000,0.200000,0.200000,0,0,0,0,0,0,32.0141792599,34.8668727493,107.694878,-0.172883,-0.748698,121.355171,19.488270,4.316119,0.004622,0.011231,4.014066,105.192345,-283.840454,-0.083153,1.903755,-0.703029,-0.162497,-279.999847,-280.000000,107.694878,0.251497,0.483165,129.838638,121.818260,-0.015729,-0.358033,-16.182072,0.000000
0.000000,0.000000,0.000000,0.000000,0.000000,0.000000,0.200000,0.200000,0,0,0,0,0,0,32.0141779194,34.8668753323,107.697784,-0.172242,-0.749093,121.341858,18.599098,4.519825,0.004711,0.013167,4.227303,105.170372,-283.862427,-0.541670,0.515228,-0.747879,-0.172135,-279.999847,-280.000000,107.697784,0.341279,0.495756,116.926697,121.302025,-0.016621,-0.301214,-13.287884,0.000000
0.000000,0.000000,0.000000,0.000000,0.000000,0.000000,0.200000,0.200000,0,0,0,0,0,0,32.0141733012,34.8668842403,107.707825,-0.171274,-0.749789,121.304550,16.803913,4.990309,0.004693,0.017055,4.726044,105.112663,-283.920135,-0.749785,-0.171302,-0.749785,-0.171302,-279.999847,-280.000000,107.707825,0.627643,0.661309,116.249680,118.598976,-0.013708,-0.187396,-14.849223,0.000000
0.000000,0.000000,0.000000,0.000000,0.000000,0.000000,0.200000,0.200000,0,0,0,0,0,0,32.0141721972,34.8668863715,107.710236,-0.171247,-0.749820,121.296570,16.505104,5.076540,0.004657,0.017639,4.818089,105.110260,-283.922546,-0.749818,-0.171233,-0.749818,-0.171233,-279.999847,-280.000000,107.710236,0.691667,0.721416,116.241714,117.858452,-0.012909,-0.170085,-14.010050,0.000000
0.000000,0.000000,0.000000,0.000000,0.000000,0.000000,0.200000,0.200000,0,0,0,0,0,0,32.0141712817,34.8668881393,107.712227,-0.171212,-0.749818,121.290123,16.285328,5.144053,0.004660,0.018208,4.892234,105.103691,-283.929108,-0.749819,-0.171196,-0.749819,-0.171196,-279.999847,-280.000000,107.712227,0.743640,0.742077,116.235283,117.234871,-0.012261,-0.157492,-5.791164,0.000000
0.000000,0.000000,0.000000,0.000000,0.000000,0.000000,0.200000,0.200000,0,0,0,0,0,0,32.0141704816,34.8668896849,107.713966,-0.171155,-0.749797,121.284584,16.112915,5.200719,0.004690,0.018792,4.952690,105.097557,-283.935242,-0.749800,-0.171173,-0.749800,-0.171173,-279.999847,-280.000000,107.713966,0.788287,0.735112,116.229752,116.686523,-0.011764,-0.147594,-12.211432,0.000000
0.000000,0.000000,0.000000,0.000000,0.000000,0.000000,0.200000,0.200000,0,0,0,0,0,0,32.0141696613,34.8668912693,107.715759,-0.171201,-0.749767,121.278992,15.932890,5.256382,0.004663,0.019144,5.011630,105.090912,-283.941895,-0.749771,-0.171184,-0.749771,-0.171184,-279.999847,-280.000000,107.715759,0.833330,0.778677,116.224174,116.124130,-0.011151,-0.138382,-18.165768,0.000000
