aileron,elevator,rudder,flaps,slats,speedbrake,throttle,throttle,engine-pump,engine-pump,electric-pump,electric-pump,external-power,APU-generator,latitude-deg,longitude-deg,altitude-ft,roll-deg,pitch-deg,heading-deg,side-slip-deg,airspeed-kt,glideslope,vertical-speed-fps,airspeed-indicator_indicated-speed-kt,altimeter_indicated-altitude-ft,altimeter_pressure-alt-ft,attitude-indicator_indicated-pitch-deg,attitude-indicator_indicated-roll-deg,attitude-indicator_internal-pitch-deg,attitude-indicator_internal-roll-deg,encoder_indicated-altitude-ft,encoder_pressure-alt-ft,gps_indicated-altitude-ft,gps_indicated-ground-speed-kt,gps_indicated-vertical-speed,indicated-heading-deg,magnetic-compass_indicated-heading-deg,slip-skid-ball_indicated-slip-skid,turn-indicator_indicated-turn-rate,vertical-speed-indicator_indicated-speed-fpm,engine_rpm
0.000000,0.000000,0.000000,0.000000,0.000000,0.000000,0.000000,0.000000,0,0,0,0,0,0,32.0177231700,34.8926918800,-9999.000000,0.000000,0.424000,260.000000,0.000000,0.000000,0.000000,0.000000,0.000000,0.000000,0.000000,0.000000,0.000000,0.000000,0.000000,0.000000,0.000000,0.000000,0.000000,0.000000,0.000000,0.000000,0.000000,0.000000,0.000000,0.000000
0.000000,0.000000,0.000000,0.000000,0.000000,0.000000,0.000000,0.000000,0,0,0,0,0,0,32.0177231700,34.8926918800,-9999.000000,0.000000,0.424000,260.000000,0.000000,0.000000,0.000000,0.000000,0.000000,390.226257,1.193444,12.000000,40.000000,0.000000,0.000000,0.000000,0.000000,0.000000,0.000000,0.000000,254.943985,0.000000,0.000000,0.000000,0.000000,0.000000
0.000000,0.000000,0.000000,0.000000,0.000000,0.000000,0.000000,0.000000,0,0,0,0,0,0,32.0141825072,34.8668671716,-9999.000000,0.000000,0.424000,121.400002,0.000000,0.000000,0.000000,0.000000,0.000000,390.226257,1.193444,12.000000,40.000000,0.000000,0.000000,0.000000,0.000000,0.000000,0.000000,0.000000,254.943985,0.000000,0.000000,0.000000,0.000000,0.000000
0.000000,0.000000,0.000000,0.000000,0.000000,0.000000,0.000000,0.000000,0,0,0,0,0,0,32.0141825072,34.8668671716,-9999.000000,0.000000,0.424000,121.400002,0.000000,0.000000,0.000000,0.000000,0.000000,390.226257,1.193444,12.000000,40.000000,0.000000,0.000000,0.000000,0.000000,0.000000,0.000000,0.000000,254.943985,0.000000,0.000000,0.000000,0.000000,0.000000
0.000000,0.000000,0.000000,0.000000,0.000000,0.000000,0.000000,0.000000,0,0,0,0,0,0,32.0141825072,34.8668671716,-9999.000000,0.000000,0.424000,121.400002,0.000000,0.000000,0.000000,0.000000,0.000000,390.226257,1.193444,12.000000,40.000000,0.000000,0.000000,0.000000,0.000000,0.000000,0.000000,0.000000,254.943985,0.000000,0.000000,0.000000,0.000000,0.000000
0.000000,0.000000,0.000000,0.000000,0.000000,0.000000,0.000000,0.000000,0,0,0,0,0,0,32.0141825072,34.8668671716,-9999.000000,0.000000,0.424000,121.400002,0.000000,0.000000,0.000000,0.000000,0.000000,390.226257,1.193444,12.000000,40.000000,0.000000,0.000000,0.000000,0.000000,0.000000,0.000000,0.000000,254.943985,0.000000,0.000000,0.000000,0.000000,0.000000
0.000000,0.000000,0.000000,0.000000,0.000000,0.000000,0.000000,0.000000,0,0,0,0,0,0,32.0141825072,34.8668671716,-9999.000000,0.000000,0.424000,121.400002,0.000000,0.000000,0.000000,0.000000,0.000000,390.226257,1.193444,12.000000,40.000000,0.000000,0.000000,0.000000,0.000000,0.000000,0.000000,0.000000,254.943985,0.000000,0.000000,0.000000,0.000000,0.000000
0.000000,0.000000,0.000000,0.000000,0.000000,0.000000,0.000000,0.000000,0,0,0,0,0,0,32.0141825072,34.8668671716,-9999.000000,0.000000,0.424000,121.400002,0.000000,0.000000,0.000000,0.000000,0.000000,390.226257,1.193444,12.000000,40.000000,0.000000,0.000000,0.000000,0.000000,0.000000,0.000000,0.000000,254.943985,0.000000,0.000000,0.000000,0.000000,0.000000
0.000000,0.000000,0.000000,0.000000,0.000000,0.000000,0.000000,0.000000,0,0,0,0,0,0,32.0141825072,34.8668671716,-9999.000000,0.000000,0.424000,121.400002,0.000000,0.000000,0.000000,0.000000,0.000000,390.226257,1.193444,12.000000,40.000000,0.000000,0.000000,0.000000,0.000000,0.000000,0.000000,0.000000,254.943985,0.000000,0.000000,0.000000,0.000000,0.000000
0.000000,0.000000,0.000000,0.000000,0.000000,0.000000,0.000000,0.000000,0,0,0,0,0,0,32.0141825072,34.8668671716,-9999.000000,0.000000,0.424000,121.400002,0.000000,0.000000,0.000000,0.000000,0.000000,390.226257,1.193444,12.000000,40.000000,0.000000,0.000000,0.000000,0.000000,0.000000,0.000000,0.000000,254.943985,0.000000,0.000000,0.000000,0.000000,0.000000
0.000000,0.000000,0.000000,0.000000,0.000000,0.000000,0.000000,0.000000,0,0,0,0,0,0,32.0141825072,34.8668671716,-9999.000000,0.000000,0.424000,121.400002,0.000000,0.000000,0.000000,0.000000,0.000000,390.226257,1.193444,12.000000,40.000000,0.000000,0.000000,0.000000,0.000000,0.000000,0.000000,0.000000,254.943985,0.000000,0.000000,0.000000,0.000000,0.000000
0.000000,0.000000,0.000000,0.000000,0.000000,0.000000,0.000000,0.000000,0,0,0,0,0,0,32.0141825072,34.8668671716,-9999.000000,0.000000,0.424000,121.400002,0.000000,0.000000,0.000000,0.000000,0.000000,390.226257,1.193444,12.000000,40.000000,0.000000,0.000000,0.000000,0.000000,0.000000,0.000000,0.000000,254.943985,0.000000,0.000000,0.000000,0.000000,0.000000
0.000000,0.000000,0.000000,0.000000,0.000000,0.000000,0.000000,0.000000,0,0,0,0,0,0,32.0141825072,34.8668671716,-9999.000000,0.000000,0.424000,121.400002,0.000000,0.000000,0.000000,0.000000,0.000000,390.226257,1.193444,12.000000,40.000000,0.000000,0.000000,0.000000,0.000000,0.000000,0.000000,0.000000,254.943985,0.000000,0.000000,0.000000,0.000000,0.000000
0.000000,0.000000,0.000000,0.000000,0.000000,0.000000,0.000000,0.000000,0,0,0,0,0,0,32.0141825072,34.8668671716,-9999.000000,0.000000,0.424000,121.400002,0.000000,0.000000,0.000000,0.000000,0.000000,390.226257,1.193444,12.000000,40.000000,0.000000,0.000000,0.000000,0.000000,0.000000,0.000000,0.000000,254.943985,0.000000,0.000000,0.000000,0.000000,0.000000
0.000000,0.000000,0.000000,0.000000,0.000000,0.000000,0.000000,0.000000,0,0,0,0,0,0,32.0141825072,34.8668671716,-9999.000000,0.000000,0.424000,121.400002,0.000000,0.000000,0.000000,0.000000,0.000000,390.226257,1.193444,12.000000,40.000000,0.000000,0.000000,0.000000,0.000000,0.000000,0.000000,0.000000,254.943985,0.000000,0.000000,0.000000,0.000000,0.000000
0.000000,0.000000,0.000000,0.000000,0.000000,0.000000,0.000000,0.000000,0,0,0,0,0,0,32.0141825072,34.8668671716,-9999.000000,0.000000,0.424000,121.400002,0.000000,0.000000,0.000000,0.000000,0.000000,390.226257,1.193444,12.000000,40.000000,0.000000,0.000000,0.000000,0.000000,0.000000,0.000000,0.000000,254.943985,0.000000,0.000000,0.000000,0.000000,0.000000
0.000000,0.000000,0.000000,0.000000,0.000000,0.000000,0.000000,0.000000,0,0,0,0,0,0,32.0141825072,34.8668671716,-9999.000000,0.000000,0.424000,121.400002,0.000000,0.000000,0.000000,0.000000,0.000000,390.226257,1.193444,12.000000,40.000000,0.000000,0.000000,0.000000,0.000000,0.000000,0.000000,0.000000,254.943985,0.000000,0.000000,0.000000,0.000000,0.000000
0.000000,0.000000,0.000000,0.000000,0.000000,0.000000,0.000000,0.000000,0,0,0,0,0,0,32.0141825072,34.8668671716,-9999.000000,0.000000,0.424000,121.400002,0.000000,0.000000,0.000000,0.000000,0.000000,390.226257,1.193444,12.000000,40.000000,0.000000,0.000000,0.000000,0.000000,0.000000,0.000000,0.000000,254.943985,0.000000,0.000000,0.000000,0.000000,0.000000
0.000000,0.000000,0.000000,0.000000,0.000000,0.000000,0.000000,0.000000,0,0,0,0,0,0,32.0141825072,34.8668671716,-9999.000000,0.000000,0.424000,121.400002,0.000000,0.000000,0.000000,0.000000,0.000000,390.226257,1.193444,12.000000,40.000000,0.000000,0.000000,0.000000,0.000000,0.000000,0.000000,0.000000,254.943985,0.000000,0.000000,0.000000,0.000000,0.000000
0.000000,0.000000,0.000000,0.000000,0.000000,0.000000,0.000000,0.000000,0,0,0,0,0,0,32.0141825072,34.8668671716,-9999.000000,0.000000,0.424000,121.400002,0.000000,0.000000,0.000000,0.000000,0.000000,390.226257,1.193444,12.000000,40.000000,0.000000,0.000000,0.000000,0.000000,0.000000,0.000000,0.000000,254.943985,0.000000,0.000000,0.000000,0.000000,0.000000
0.000000,0.000000,0.000000,0.000000,0.000000,0.000000,0.000000,0.000000,0,0,0,0,0,0,32.0141825072,34.8668671716,-9999.000000,0.000000,0.424000,121.400002,0.000000,0.000000,0.000000,0.000000,0.000000,390.226257,1.193444,12.000000,40.000000,0.000000,0.000000,0.000000,0.000000,0.000000,0.000000,0.000000,254.943985,0.000000,0.000000,0.000000,0.000000,0.000000
0.000000,0.000000,0.000000,0.000000,0.000000,0.000000,0.000000,0.000000,0,0,0,0,0,0,32.0141825072,34.8668671716,-9999.000000,0.000000,0.424000,121.400002,0.000000,0.000000,0.000000,0.000000,0.000000,390.226257,1.193444,12.000000,40.000000,0.000000,0.000000,0.000000,0.000000,0.000000,0.000000,0.000000,254.943985,0.000000,0.000000,0.000000,0.000000,0.000000
0.000000,0.000000,0.000000,0.000000,0.000000,0.000000,0.000000,0.000000,0,0,0,0,0,0,32.0141825072,34.8668671716,-9999.000000,0.000000,0.424000,121.400002,0.000000,0.000000,0.000000,0.000000,0.000000,390.226257,1.193444,12.000000,40.000000,0.000000,0.000000,0.000000,0.000000,0.000000,0.000000,0.000000,254.943985,0.000000,0.000000,0.000000,0.000000,0.000000
0.000000,0.000000,0.000000,0.000000,0.000000,0.000000,0.000000,0.000000,0,0,0,0,0,0,32.0141825072,34.8668671716,-9999.000000,0.000000,0.424000,121.400002,0.000000,0.000000,0.000000,0.000000,0.000000,390.226257,1.193444,12.000000,40.000000,0.000000,0.000000,0.000000,0.000000,0.000000,0.000000,0.000000,254.943985,0.000000,0.000000,0.000000,0.000000,0.000000
0.000000,0.000000,0.000000,0.000000,0.000000,0.000000,0.000000,0.000000,0,0,0,0,0,0,32.0141825072,34.8668671716,-9999.000000,0.000000,0.424000,121.400002,0.000000,0.000000,0.000000,0.000000,0.000000,390.226257,1.193444,12.000000,40.000000,0.000000,0.000000,0.000000,0.000000,0.000000,0.000000,0.000000,254.943985,0.000000,0.000000,0.000000,0.000000,0.000000
0.000000,0.000000,0.000000,0.000000,0.000000,0.000000,0.000000,0.000000,0,0,0,0,0,0,32.0141825072,34.8668671716,-9999.000000,0.000000,0.424000,121.400002,0.000000,0.000000,0.000000,0.000000,0.000000,390.226257,1.193444,12.000000,40.000000,0.000000,0.000000,0.000000,0.000000,0.000000,0.000000,0.000000,254.943985,0.000000,0.000000,0.000000,0.000000,0.000000
0.000000,0.000000,0.000000,0.000000,0.000000,0.000000,0.000000,0.000000,0,0,0,0,0,0,32.0141825072,34.8668671716,-9999.000000,0.000000,0.424000,121.400002,0.000000,0.000000,0.000000,0.000000,0.000000,390.226257,1.193444,12.000000,40.000000,0.000000,0.000000,0.000000,0.000000,0.000000,0.000000,0.000000,254.943985,0.000000,0.000000,0.000000,0.000000,0.000000
0.000000,0.000000,0.000000,0.000000,0.000000,0.000000,0.000000,0.000000,0,0,0,0,0,0,32.0141825072,34.8668671716,-9999.000000,0.000000,0.424000,121.400002,0.000000,0.000000,0.000000,0.000000,0.000000,390.226257,1.193444,12.000000,40.000000,0.000000,0.000000,0.000000,0.000000,0.000000,0.000000,0.000000,254.943985,0.000000,0.000000,0.000000,0.000000,0.000000
0.000000,0.000000,0.000000,0.000000,0.000000,0.000000,0.000000,0.000000,0,0,0,0,0,0,32.0141825072,34.8668671716,-9999.000000,0.000000,0.424000,121.400002,0.000000,0.000000,0.000000,0.000000,0.000000,390.226257,1.193444,12.000000,40.000000,0.000000,0.000000,0.000000,0.000000,0.000000,0.000000,0.000000,254.943985,0.000000,0.000000,0.000000,0.000000,0.000000
0.000000,0.000000,0.000000,0.000000,0.000000,0.000000,0.000000,0.000000,0,0,0,0,0,0,32.0141825072,34.8668671716,-9999.000000,0.000000,0.424000,121.400002,0.000000,0.000000,0.000000,0.000000,0.000000,390.226257,1.193444,12.000000,40.000000,0.000000,0.000000,0.000000,0.000000,0.000000,0.000000,0.000000,254.943985,0.000000,0.000000,0.000000,0.000000,0.000000
0.000000,0.000000,0.000000,0.000000,0.000000,0.000000,0.000000,0.000000,0,0,0,0,0,0,32.0141825072,34.8668671716,-9999.000000,0.000000,0.424000,121.400002,0.000000,0.000000,0.000000,0.000000,0.000000,390.226257,1.193444,12.000000,40.000000,0.000000,0.000000,0.000000,0.000000,0.000000,0.000000,0.000000,254.943985,0.000000,0.000000,0.000000,0.000000,0.000000
0.000000,0.000000,0.000000,0.000000,0.000000,0.000000,0.000000,0.000000,0,0,0,0,0,0,32.0141825072,34.8668671716,-9999.000000,0.000000,0.424000,121.400002,0.000000,0.000000,0.000000,0.000000,0.000000,390.226257,1.193444,12.000000,40.000000,0.000000,0.000000,0.000000,0.000000,0.000000,0.000000,0.000000,254.943985,0.000000,0.000000,0.000000,0.000000,0.000000
0.000000,0.000000,0.000000,0.000000,0.000000,0.000000,0.000000,0.000000,0,0,0,0,0,0,32.0141825072,34.8668671716,-9999.000000,0.000000,0.424000,121.400002,0.000000,0.000000,0.000000,0.000000,0.000000,390.226257,1.193444,12.000000,40.000000,0.000000,0.000000,0.000000,0.000000,0.000000,0.000000,0.000000,254.943985,0.000000,0.000000,0.000000,0.000000,0.000000
0.000000,0.000000,0.000000,0.000000,0.000000,0.000000,0.000000,0.000000,0,0,0,0,0,0,32.0141825072,34.8668671716,-9999.000000,0.000000,0.424000,121.400002,0.000000,0.000000,0.000000,0.000000,0.000000,390.226257,1.193444,12.000000,40.000000,0.000000,0.000000,0.000000,0.000000,0.000000,0.000000,0.000000,254.943985,0.000000,0.000000,0.000000,0.000000,0.000000
0.000000,0.000000,0.000000,0.000000,0.000000,0.000000,0.000000,0.000000,0,0,0,0,0,0,32.0141825072,34.8668671716,-9999.000000,0.000000,0.424000,121.400002,0.000000,0.000000,0.000000,0.000000,0.000000,390.226257,1.193444,12.000000,40.000000,0.000000,0.000000,0.000000,0.000000,0.000000,0.000000,0.000000,254.943985,0.000000,0.000000,0.000000,0.000000,0.000000
0.000000,0.000000,0.000000,0.000000,0.000000,0.000000,0.000000,0.000000,0,0,0,0,0,0,32.0141825072,34.8668671716,-9999.000000,0.000000,0.424000,121.400002,0.000000,0.000000,0.000000,0.000000,0.000000,390.226257,1.193444,12.000000,40.000000,0.000000,0.000000,0.000000,0.000000,0.000000,0.000000,0.000000,254.943985,0.000000,0.000000,0.000000,0.000000,0.000000
0.000000,0.000000,0.000000,0.000000,0.000000,0.000000,0.000000,0.000000,0,0,0,0,0,0,32.0141825072,34.8668671716,-9999.000000,0.000000,0.424000,121.400002,0.000000,0.000000,0.000000,0.000000,0.000000,390.226257,1.193444,12.000000,40.000000,0.000000,0.000000,0.000000,0.000000,0.000000,0.000000,0.000000,254.943985,0.000000,0.000000,0.000000,0.000000,0.000000
0.000000,0.000000,0.000000,0.000000,0.000000,0.000000,0.000000,0.000000,0,0,0,0,0,0,32.0141825072,34.8668671716,-9999.000000,0.000000,0.424000,121.400002,0.000000,0.000000,0.000000,0.000000,0.000000,390.226257,1.193444,12.000000,40.000000,0.000000,0.000000,0.000000,0.000000,0.000000,0.000000,0.000000,254.943985,0.000000,0.000000,0.000000,0.000000,0.000000
0.000000,0.000000,0.000000,0.000000,0.000000,0.000000,0.000000,0.000000,0,0,0,0,0,0,32.0141825072,34.8668671716,-9999.000000,0.000000,0.424000,121.400002,0.000000,0.000000,0.000000,0.000000,0.000000,390.226257,1.193444,12.000000,40.000000,0.000000,0.000000,0.000000,0.000000,0.000000,0.000000,0.000000,254.943985,0.000000,0.000000,0.000000,0.000000,0.000000
0.000000,0.000000,0.000000,0.000000,0.000000,0.000000,0.000000,0.000000,0,0,0,0,0,0,32.0141825072,34.8668671716,-9999.000000,0.000000,0.424000,121.400002,0.000000,0.000000,0.000000,0.000000,0.000000,390.226257,1.193444,12.000000,40.000000,0.000000,0.000000,0.000000,0.000000,0.000000,0.000000,0.000000,254.943985,0.000000,0.000000,0.000000,0.000000,0.000000
0.000000,0.000000,0.000000,0.000000,0.000000,0.000000,0.000000,0.000000,0,0,0,0,0,0,32.0141825072,34.8668671716,-9999.000000,0.000000,0.424000,121.400002,0.000000,0.000000,0.000000,0.000000,0.000000,390.226257,1.193444,12.000000,40.000000,0.000000,0.000000,0.000000,0.000000,0.000000,0.000000,0.000000,254.943985,0.000000,0.000000,0.000000,0.000000,0.000000
0.000000,0.000000,0.000000,0.000000,0.000000,0.000000,0.000000,0.000000,0,0,0,0,0,0,32.0141825072,34.8668671716,-9999.000000,0.000000,0.424000,121.400002,0.000000,0.000000,0.000000,0.000000,0.000000,390.226257,1.193444,12.000000,40.000000,0.000000,0.000000,0.000000,0.000000,0.000000,0.000000,0.000000,254.943985,0.000000,0.000000,0.000000,0.000000,0.000000
0.000000,0.000000,0.000000,0.000000,0.000000,0.000000,0.000000,0.000000,0,0,0,0,0,0,32.0141825072,34.8668671716,-9999.000000,0.000000,0.424000,121.400002,0.000000,0.000000,0.000000,0.000000,0.000000,390.226257,1.193444,12.000000,40.000000,0.000000,0.000000,0.000000,0.000000,0.000000,0.000000,0.000000,254.943985,0.000000,0.000000,0.000000,0.000000,0.000000
0.000000,0.000000,0.000000,0.000000,0.000000,0.000000,0.000000,0.000000,0,0,0,0,0,0,32.0141825072,34.8668671716,-9999.000000,0.000000,0.424000,121.400002,0.000000,0.000000,0.000000,0.000000,0.000000,390.226257,1.193444,12.000000,40.000000,0.000000,0.000000,0.000000,0.000000,0.000000,0.000000,0.000000,254.943985,0.000000,0.000000,0.000000,0.000000,0.000000
0.000000,0.000000,0.000000,0.000000,0.000000,0.000000,0.000000,0.000000,0,0,0,0,0,0,32.0141825072,34.8668671716,-9999.000000,0.000000,0.424000,121.400002,0.000000,0.000000,0.000000,0.000000,0.000000,390.226257,1.193444,12.000000,40.000000,0.000000,0.000000,0.000000,0.000000,0.000000,0.000000,0.000000,254.943985,0.000000,0.000000,0.000000,0.000000,0.000000
0.000000,0.000000,0.000000,0.000000,0.000000,0.000000,0.000000,0.000000,0,0,0,0,0,0,32.0141825072,34.8668671716,-9999.000000,0.000000,0.424000,121.400002,0.000000,0.000000,0.000000,0.000000,0.000000,390.226257,1.193444,12.000000,40.000000,0.000000,0.000000,0.000000,0.000000,0.000000,0.000000,0.000000,254.943985,0.000000,0.000000,0.000000,0.000000,0.000000
0.000000,0.000000,0.000000,0.000000,0.000000,0.000000,0.000000,0.000000,0,0,0,0,0,0,32.0141825072,34.8668671716,-9999.000000,0.000000,0.424000,121.400002,0.000000,0.000000,0.000000,0.000000,0.000000,390.226257,1.193444,12.000000,40.000000,0.000000,0.000000,0.000000,0.000000,0.000000,0.000000,0.000000,254.943985,0.000000,0.000000,0.000000,0.000000,0.000000
0.000000,0.000000,0.000000,0.000000,0.000000,0.000000,0.000000,0.000000,0,0,0,0,0,0,32.0141825072,34.8668671716,-9999.000000,0.000000,0.424000,121.400002,0.000000,0.000000,0.000000,0.000000,0.000000,390.226257,1.193444,12.000000,40.000000,0.000000,0.000000,0.000000,0.000000,0.000000,0.000000,0.000000,254.943985,0.000000,0.000000,0.000000,0.000000,0.000000
0.000000,0.000000,0.000000,0.000000,0.000000,0.000000,0.000000,0.000000,0,0,0,0,0,0,32.0141825072,34.8668671716,-9999.000000,0.000000,0.424000,121.400002,0.000000,0.000000,0.000000,0.000000,0.000000,390.226257,1.193444,12.000000,40.000000,0.000000,0.000000,0.000000,0.000000,0.000000,0.000000,0.000000,254.943985,0.000000,0.000000,0.000000,0.000000,0.000000
0.000000,0.000000,0.000000,0.000000,0.000000,0.000000,0.000000,0.000000,0,0,0,0,0,0,32.0141825072,34.8668671716,-9999.000000,0.000000,0.424000,121.400002,0.000000,0.000000,0.000000,0.000000,0.000000,390.226257,1.193444,12.000000,40.000000,0.000000,0.000000,0.000000,0.000000,0.000000,0.000000,0.000000,254.943985,0.000000,0.000000,0.000000,0.000000,0.000000
0.000000,0.000000,0.000000,0.000000,0.000000,0.000000,0.000000,0.000000,0,0,0,0,0,0,32.0141825072,34.8668671716,-9999.000000,0.000000,0.424000,121.400002,0.000000,0.000000,0.000000,0.000000,0.000000,390.226257,1.193444,12.000000,40.000000,0.000000,0.000000,0.000000,0.000000,0.000000,0.000000,0.000000,254.943985,0.000000,0.000000,0.000000,0.000000,0.000000
0.000000,0.000000,0.000000,0.000000,0.000000,0.000000,0.000000,0.000000,0,0,0,0,0,0,32.0141825072,34.8668671716,-9999.000000,0.000000,0.424000,121.400002,0.000000,0.000000,0.000000,0.000000,0.000000,390.226257,1.193444,12.000000,40.000000,0.000000,0.000000,0.000000,0.000000,0.000000,0.000000,0.000000,254.943985,0.000000,0.000000,0.000000,0.000000,0.000000
0.000000,0.000000,0.000000,0.000000,0.000000,0.000000,0.000000,0.000000,0,0,0,0,0,0,32.0141825072,34.8668671716,-9999.000000,0.000000,0.424000,121.400002,0.000000,0.000000,0.000000,0.000000,0.000000,390.226257,1.193444,12.000000,40.000000,0.000000,0.000000,0.000000,0.000000,0.000000,0.000000,0.000000,254.943985,0.000000,0.000000,0.000000,0.000000,0.000000
0.000000,0.000000,0.000000,0.000000,0.000000,0.000000,0.000000,0.000000,0,0,0,0,0,0,32.0141825072,34.8668671716,-9999.000000,0.000000,0.424000,121.400002,0.000000,0.000000,0.000000,0.000000,0.000000,390.226257,1.193444,12.000000,40.000000,0.000000,0.000000,0.000000,0.000000,0.000000,0.000000,0.000000,254.943985,0.000000,0.000000,0.000000,0.000000,0.000000
0.000000,0.000000,0.000000,0.000000,0.000000,0.000000,0.000000,0.000000,0,0,0,0,0,0,32.0141825072,34.8668671716,-9999.000000,0.000000,0.424000,121.400002,0.000000,0.000000,0.000000,0.000000,0.000000,390.226257,1.193444,12.000000,40.000000,0.000000,0.000000,0.000000,0.000000,0.000000,0.000000,0.000000,254.943985,0.000000,0.000000,0.000000,0.000000,0.000000
0.000000,0.000000,0.000000,0.000000,0.000000,0.000000,0.000000,0.000000,0,0,0,0,0,0,32.0141825072,34.8668671716,-9999.000000,0.000000,0.424000,121.400002,0.000000,0.000000,0.000000,0.000000,0.000000,390.226257,1.193444,12.000000,40.000000,0.000000,0.000000,0.000000,0.000000,0.000000,0.000000,0.000000,254.943985,0.000000,0.000000,0.000000,0.000000,0.000000
0.000000,0.000000,0.000000,0.000000,0.000000,0.000000,0.000000,0.000000,0,0,0,0,0,0,32.0141827149,34.8668660941,107.688103,-0.159246,-0.727907,121.399879,0.000000,0.000000,0.000000,0.000000,0.000000,390.226257,1.193444,12.000000,40.000000,0.000000,0.000000,0.000000,0.000000,0.000000,0.000000,0.000000,254.943985,0.000000,0.000000,0.000000,0.000000,0.000000
0.000000,0.000000,0.000000,0.000000,0.000000,0.000000,0.000000,0.000000,0,0,0,0,0,0,32.0141827157,34.8668660976,107.687706,-0.168708,-0.736995,121.400063,31.309988,3.016461,-0.830196,-0.000072,0.000000,500.325714,111.292915,12.000000,40.000000,0.000000,0.000000,110.000145,110.000000,107.687706,0.000017,-0.004521,254.943954,10.175103,0.002316,-0.985256,2747.022949,0.000000
0.000000,0.000000,0.000000,0.000000,0.000000,0.000000,0.000000,0.000000,0,0,0,0,0,0,32.0141827158,34.8668660971,107.687729,-0.168403,-0.735365,121.400055,37.493839,2.737237,0.679884,0.000007,0.000000,471.954346,82.921547,12.000000,40.000000,0.000000,0.000000,80.000145,80.000000,107.687729,0.000014,0.000569,254.943954,36.223564,0.003182,-1.582221,848.528198,0.000000
0.000000,0.000000,0.000000,0.000000,0.000000,0.000000,0.000000,0.000000,0,0,0,0,0,0,32.0141827160,34.8668660967,107.687775,-0.168201,-0.733734,121.400047,44.975296,2.496679,0.861220,0.000010,0.000000,443.579132,54.546345,12.000000,40.000000,0.000000,0.000000,50.000141,50.000000,107.687775,0.000011,0.000603,254.943954,70.619476,0.003476,-1.943920,-730.910278,0.000000
0.000000,0.000000,0.000000,0.000000,0.000000,0.000000,0.000000,0.000000,0,0,0,0,0,0,32.0141827161,34.8668660965,107.687798,-0.168174,-0.732919,121.400047,49.990223,2.379019,0.842172,0.000021,0.553509,427.063507,38.030708,12.000000,40.000000,0.000000,0.000000,40.000141,40.000000,107.687798,0.000010,0.001105,254.943954,91.457298,0.003549,-2.084852,-1051.492432,0.000000
0.000000,0.000000,0.000000,0.000000,0.000000,0.000000,0.000000,0.000000,0,0,0,0,0,0,32.0141827161,34.8668660964,107.687813,-0.168204,-0.732446,121.400047,53.546566,2.312423,0.658790,0.000028,2.136307,416.348175,27.315380,12.000000,40.000000,0.000000,0.000000,30.000143,30.000000,107.687813,0.000009,0.001641,254.943954,104.604202,0.003581,-2.157398,-1193.371216,0.000000
0.000000,0.000000,0.000000,0.000000,0.000000,0.000000,0.000000,0.000000,0,0,0,0,0,0,32.0141827164,34.8668660962,107.687851,-0.168550,-0.731132,121.400055,63.699017,2.184787,0.863933,0.000009,0.000000,387.832947,-1.199869,12.000000,40.000000,0.000000,0.000000,0.000142,0.000000,107.687851,0.000008,0.000703,254.943954,134.278671,0.003663,-2.292418,-1222.401855,0.000000
0.000000,0.000000,0.000000,0.000000,0.000000,0.000000,0.000000,0.000000,0,0,0,0,0,0,32.0141827165,34.8668660961,107.687866,-0.168855,-0.730629,121.400055,68.774384,2.150543,0.622163,0.000018,1.363804,375.307312,-13.725483,12.000000,40.000000,0.000000,0.000000,-9.999858,-10.000000,107.687866,0.000007,0.001105,254.943954,144.939102,0.003702,-2.335698,-1311.017334,0.000000
0.000000,0.000000,0.000000,0.000000,0.000000,0.000000,0.000000,0.000000,0,0,0,0,0,0,32.0141827169,34.8668660960,107.687897,-0.170016,-0.729440,121.400070,79.958176,2.136078,0.954605,0.000007,0.000000,348.165375,-40.867424,12.000000,40.000000,0.000000,0.000000,-39.999859,-40.000000,107.687897,0.000006,0.000368,254.943954,159.477661,0.003877,-2.400450,-1280.280029,0.000000
0.000000,0.000000,0.000000,0.000000,0.000000,0.000000,0.000000,0.000000,0,0,0,0,0,0,32.0141827171,34.8668660960,107.687912,-0.170815,-0.728891,121.400085,85.409218,2.158807,0.626310,0.000019,1.108601,334.945251,-54.087555,12.000000,40.000000,0.000000,0.000000,-49.999859,-50.000000,107.687912,0.000005,0.001072,254.943954,162.336517,0.003966,-2.422187,-1348.741211,0.000000
0.000000,0.000000,0.000000,0.000000,0.000000,0.000000,0.000000,0.000000,0,0,0,0,0,0,32.0141827153,34.8668660948,107.687950,-0.162197,-0.729191,121.399933,84.069695,2.262757,0.510214,0.000004,0.000000,307.821167,-81.211617,12.000000,40.000000,0.000000,0.000000,-79.999855,-80.000000,107.687950,0.000004,0.000201,254.943954,160.104492,0.002914,-2.452853,-1299.446899,0.000000
0.000000,0.000000,0.000000,0.000000,0.000000,0.000000,0.000000,0.000000,0,0,0,0,0,0,32.0141827153,34.8668660947,107.687950,-0.162249,-0.729023,121.399940,79.397820,2.338304,0.915053,0.000003,1.119288,294.831970,-94.200844,12.000000,40.000000,0.000000,0.000000,-89.999855,-90.000000,107.687950,0.000004,0.000201,254.943954,155.735168,0.002790,-2.462993,-1361.393066,0.000000
0.000000,0.000000,0.000000,0.000000,0.000000,0.000000,0.000000,0.000000,0,0,0,0,0,0,32.0141827154,34.8668660947,107.687958,-0.162508,-0.728694,121.399940,70.757004,2.539049,-0.508670,-0.000001,0.000000,267.701874,-121.330925,12.000000,40.000000,0.000000,0.000000,-119.999855,-120.000000,107.687958,0.000003,0.000268,254.943954,141.933548,0.002700,-2.477578,-1305.667847,0.000000
0.000000,0.000000,0.000000,0.000000,0.000000,0.000000,0.000000,0.000000,0,0,0,0,0,0,32.0141827155,34.8668660947,107.687958,-0.162566,-0.728643,121.399940,68.945328,2.593381,0.369648,0.000008,3.755999,261.942322,-127.090492,12.000000,40.000000,0.000000,0.000000,-129.999863,-130.000000,107.687958,0.000003,0.000100,254.943954,138.100357,0.002685,-2.480052,-1336.302246,0.000000
0.000000,0.000000,0.000000,0.000000,0.000000,0.000000,0.000000,0.000000,0,0,0,0,0,0,32.0141827155,34.8668660947,107.687965,-0.162612,-0.728601,121.399940,67.759254,2.631682,0.293616,0.000008,4.940224,258.033203,-130.999588,12.000000,40.000000,0.000000,0.000000,-129.999863,-130.000000,107.687965,0.000003,0.000670,254.943954,135.422714,0.002683,-2.481573,-1356.969849,0.000000
0.000000,0.000000,0.000000,0.000000,0.000000,0.000000,0.000000,0.000000,0,0,0,0,0,0,32.0141827155,34.8668660947,107.687965,-0.162607,-0.728563,121.399940,66.791374,2.628860,0.375030,0.000007,5.252778,254.092346,-134.940460,12.000000,40.000000,0.000000,0.000000,-129.999863,-130.000000,107.687965,0.000003,0.000569,254.943954,132.844788,0.002689,-2.482907,-1385.119385,0.000000
0.000000,0.000000,0.000000,0.000000,0.000000,0.000000,0.000000,0.000000,0,0,0,0,0,0,32.0141827155,34.8668660946,107.687965,-0.162446,-0.728483,121.399940,64.439201,2.615803,0.373102,0.000005,2.338451,243.376877,-145.655914,12.000000,40.000000,0.000000,0.000000,-139.999863,-140.000000,107.687965,0.000003,0.000368,254.943954,126.453514,0.002685,-2.485776,-1459.921143,0.000000
0.000000,0.000000,0.000000,0.000000,0.000000,0.000000,0.000000,0.000000,0,0,0,0,0,0,32.0141827154,34.8668660945,107.687965,-0.162054,-0.728326,121.399933,57.946564,2.602901,-0.396019,-0.000000,0.978348,216.102707,-172.930099,12.000000,40.000000,0.000000,0.000000,-169.999863,-170.000000,107.687965,0.000002,0.000000,254.943954,109.563873,0.002623,-2.491382,-1364.867065,0.000000
0.000000,0.000000,0.000000,0.000000,0.000000,0.000000,0.000000,0.000000,0,0,0,0,0,0,32.0141827154,34.8668660945,107.687965,-0.162012,-0.728314,121.399933,56.590645,2.604443,0.254172,0.000003,4.340659,211.109009,-177.923782,12.000000,40.000000,0.000000,0.000000,-179.999863,-180.000000,107.687965,0.000002,0.000234,254.943954,106.348083,0.002621,-2.492236,-1377.485229,0.000000
0.000000,0.000000,0.000000,0.000000,0.000000,0.000000,0.000000,0.000000,0,0,0,0,0,0,32.0141827154,34.8668660945,107.687965,-0.161968,-0.728295,121.399933,55.507404,2.606723,0.295193,0.000005,5.124608,206.866013,-182.166794,12.000000,40.000000,0.000000,0.000000,-179.999863,-180.000000,107.687965,0.000002,-0.000201,254.943954,103.888405,0.002612,-2.492858,-1398.850464,0.000000
0.000000,0.000000,0.000000,0.000000,0.000000,0.000000,0.000000,0.000000,0,0,0,0,0,0,32.0141827154,34.8668660945,107.687965,-0.161933,-0.728280,121.399933,54.642372,2.609215,0.162035,0.000003,5.686079,203.478409,-185.554398,12.000000,40.000000,0.000000,0.000000,-179.999863,-180.000000,107.687965,0.000002,0.000234,254.943954,102.000443,0.002604,-2.493320,-1414.511719,0.000000
0.000000,0.000000,0.000000,0.000000,0.000000,0.000000,0.000000,0.000000,0,0,0,0,0,0,32.0141827154,34.8668660945,107.687973,-0.161893,-0.728261,121.399933,53.725193,2.612516,0.246762,0.000005,5.718222,199.655594,-189.377197,12.000000,40.000000,0.000000,0.000000,-189.999863,-190.000000,107.687973,0.000002,-0.000301,254.943954,100.077957,0.002592,-2.493777,-1438.939575,0.000000
0.000000,0.000000,0.000000,0.000000,0.000000,0.000000,0.000000,0.000000,0,0,0,0,0,0,32.0141827154,34.8668660945,107.687973,-0.161856,-0.728248,121.399925,52.864254,2.616233,0.229187,0.000005,5.842470,196.099014,-192.933777,12.000000,40.000000,0.000000,0.000000,-189.999863,-190.000000,107.687973,0.000002,-0.000201,254.943954,98.351685,0.002584,-2.494179,-1457.784912,0.000000
0.000000,0.000000,0.000000,0.000000,0.000000,0.000000,0.000000,0.000000,0,0,0,0,0,0,32.0141827154,34.8668660945,107.687973,-0.161820,-0.728231,121.399925,52.005936,2.620536,0.264491,0.000005,5.881658,192.506058,-196.526749,12.000000,40.000000,0.000000,0.000000,-189.999863,-190.000000,107.687973,0.000002,0.000033,254.943954,96.710045,0.002577,-2.494555,-1476.218384,0.000000
0.000000,0.000000,0.000000,0.000000,0.000000,0.000000,0.000000,0.000000,0,0,0,0,0,0,32.0141827153,34.8668660945,107.687973,-0.161692,-0.728162,121.399925,49.291348,2.638151,0.432902,0.000003,2.515872,179.976715,-209.056076,12.000000,40.000000,0.000000,0.000000,-209.999863,-210.000000,107.687973,0.000002,0.000167,254.943954,92.080414,0.002550,-2.495600,-1530.266968,0.000000
0.000000,0.000000,0.000000,0.000000,0.000000,0.000000,0.000000,0.000000,0,0,0,0,0,0,32.0141827153,34.8668660944,107.687973,-0.161666,-0.728147,121.399925,48.290199,2.646216,0.160174,0.000002,5.079766,176.394043,-212.638748,12.000000,40.000000,0.000000,0.000000,-209.999863,-210.000000,107.687973,0.000002,0.000435,254.943954,90.602829,0.002543,-2.495935,-1514.598511,0.000000
0.000000,0.000000,0.000000,0.000000,0.000000,0.000000,0.000000,0.000000,0,0,0,0,0,0,32.0141827153,34.8668660944,107.687973,-0.161640,-0.728130,121.399925,47.347488,2.654597,0.201714,0.000003,5.551719,172.514267,-216.518524,12.000000,40.000000,0.000000,0.000000,-209.999863,-210.000000,107.687973,0.000002,0.000368,254.943954,89.331604,0.002539,-2.496230,-1521.593994,0.000000
0.000000,0.000000,0.000000,0.000000,0.000000,0.000000,0.000000,0.000000,0,0,0,0,0,0,32.0141827153,34.8668660944,107.687973,-0.161620,-0.728112,121.399925,46.566589,2.662127,0.283973,0.000005,5.964042,169.304428,-219.728363,12.000000,40.000000,0.000000,0.000000,-219.999863,-220.000000,107.687973,0.000001,0.000335,254.943954,88.369270,0.002535,-2.496459,-1526.412476,0.000000
0.000000,0.000000,0.000000,0.000000,0.000000,0.000000,0.000000,0.000000,0,0,0,0,0,0,32.0141827153,34.8668660944,107.687973,-0.161593,-0.728096,121.399925,45.790184,2.670154,0.292990,0.000005,6.081163,165.970764,-223.062042,12.000000,40.000000,0.000000,0.000000,-219.999863,-220.000000,107.687973,0.000001,0.000033,254.943954,87.496010,0.002529,-2.496674,-1535.957642,0.000000
0.000000,0.000000,0.000000,0.000000,0.000000,0.000000,0.000000,0.000000,0,0,0,0,0,0,32.0141827153,34.8668660944,107.687973,-0.161566,-0.728078,121.399925,45.018505,2.678670,0.311234,0.000005,6.120595,162.603500,-226.429291,12.000000,40.000000,0.000000,0.000000,-219.999863,-220.000000,107.687973,0.000001,0.000134,254.943954,86.712303,0.002524,-2.496876,-1546.030762,0.000000
0.000000,0.000000,0.000000,0.000000,0.000000,0.000000,0.000000,0.000000,0,0,0,0,0,0,32.0141827153,34.8668660944,107.687973,-0.161538,-0.728059,121.399925,44.149982,2.688907,0.445642,0.000007,5.921661,158.678574,-230.354233,12.000000,40.000000,0.000000,0.000000,-229.999863,-230.000000,107.687973,0.000001,0.000134,254.943954,85.932625,0.002519,-2.497090,-1560.388306,0.000000
0.000000,0.000000,0.000000,0.000000,0.000000,0.000000,0.000000,0.000000,0,0,0,0,0,0,32.0141827153,34.8668660944,107.687981,-0.161509,-0.728035,121.399925,43.187260,2.701073,0.493674,0.000007,5.660270,154.280746,-234.752045,12.000000,40.000000,0.000000,0.000000,-229.999863,-230.000000,107.687981,0.000001,0.000268,254.943954,85.197479,0.002513,-2.497312,-1574.682007,0.000000
0.000000,0.000000,0.000000,0.000000,0.000000,0.000000,0.000000,0.000000,0,0,0,0,0,0,32.0141827153,34.8668660944,107.687981,-0.161485,-0.728014,121.399925,42.283405,2.713297,0.346825,0.000006,5.730400,150.248245,-238.784561,12.000000,40.000000,0.000000,0.000000,-239.999863,-240.000000,107.687981,0.000001,0.000301,254.943954,84.632927,0.002509,-2.497506,-1581.657593,0.000000
0.000000,0.000000,0.000000,0.000000,0.000000,0.000000,0.000000,0.000000,0,0,0,0,0,0,32.0141827153,34.8668660944,107.687981,-0.161461,-0.727992,121.399918,41.437317,2.725458,0.373723,0.000006,5.863929,146.468552,-242.564240,12.000000,40.000000,0.000000,0.000000,-239.999863,-240.000000,107.687981,0.000001,0.000335,254.943954,84.216415,0.002502,-2.497677,-1586.640991,0.000000
0.000000,0.000000,0.000000,0.000000,0.000000,0.000000,0.000000,0.000000,0,0,0,0,0,0,32.0141827153,34.8668660944,107.687981,-0.161441,-0.727971,121.399918,40.647980,2.737443,0.463215,0.000007,6.009906,142.921448,-246.111359,12.000000,40.000000,0.000000,0.000000,-239.999863,-240.000000,107.687981,0.000001,0.000201,254.943954,83.926567,0.002496,-2.497827,-1590.661133,0.000000
0.000000,0.000000,0.000000,0.000000,0.000000,0.000000,0.000000,0.000000,0,0,0,0,0,0,32.0141827153,34.8668660944,107.687981,-0.161420,-0.727952,121.399918,39.816971,2.750741,0.407193,0.000006,5.949337,139.057800,-249.975006,12.000000,40.000000,0.000000,0.000000,-249.999863,-250.000000,107.687981,0.000001,0.000335,254.943954,83.725334,0.002491,-2.497976,-1598.113281,0.000000
0.000000,0.000000,0.000000,0.000000,0.000000,0.000000,0.000000,0.000000,0,0,0,0,0,0,32.0141827153,34.8668660944,107.687981,-0.161400,-0.727932,121.399918,39.042259,2.763781,0.441284,0.000007,6.051145,135.492050,-253.540756,12.000000,40.000000,0.000000,0.000000,-249.999863,-250.000000,107.687981,0.000001,0.000301,254.943954,83.634392,0.002487,-2.498107,-1601.843628,0.000000
0.000000,0.000000,0.000000,0.000000,0.000000,0.000000,0.000000,0.000000,0,0,0,0,0,0,32.0141827153,34.8668660944,107.687981,-0.161384,-0.727913,121.399918,38.370441,2.775601,0.322473,0.000005,6.284708,132.440094,-256.592712,12.000000,40.000000,0.000000,0.000000,-249.999863,-250.000000,107.687981,0.000001,0.000469,254.943954,83.631378,0.002484,-2.498214,-1602.391724,0.000000
0.000000,0.000000,0.000000,0.000000,0.000000,0.000000,0.000000,0.000000,0,0,0,0,0,0,32.0141827153,34.8668660943,107.687981,-0.161365,-0.727885,121.399918,37.515114,2.791356,0.472082,0.000007,5.932956,128.217178,-260.815613,12.000000,40.000000,0.000000,0.000000,-259.999847,-260.000000,107.687981,0.000001,0.000201,254.943954,83.729736,0.002477,-2.498344,-1614.020996,0.000000
0.000000,0.000000,0.000000,0.000000,0.000000,0.000000,0.000000,0.000000,0,0,0,0,0,0,32.0141827153,34.8668660943,107.687981,-0.161349,-0.727861,121.399918,36.716240,2.806803,0.578090,0.000008,5.973828,124.398636,-264.634155,12.000000,40.000000,0.000000,0.000000,-259.999847,-260.000000,107.687981,0.000001,0.000402,254.943954,83.925026,0.002475,-2.498457,-1617.463135,0.000000
0.000000,0.000000,0.000000,0.000000,0.000000,0.000000,0.000000,0.000000,0,0,0,0,0,0,32.0141827153,34.8668660943,107.687988,-0.161326,-0.727835,121.399918,35.787777,2.825666,0.392045,0.000006,5.666790,119.754074,-269.278717,12.000000,40.000000,0.000000,0.000000,-269.999847,-270.000000,107.687988,0.000001,0.000268,254.943954,84.277206,0.002471,-2.498581,-1626.264160,0.000000
0.000000,0.000000,0.000000,0.000000,0.000000,0.000000,0.000000,0.000000,0,0,0,0,0,0,32.0141827153,34.8668660943,107.687988,-0.161307,-0.727813,121.399918,35.008335,2.842278,0.640102,0.000009,5.939817,116.032967,-272.999847,12.000000,40.000000,0.000000,0.000000,-269.999847,-270.000000,107.687988,0.000001,0.000268,254.943954,84.676178,0.002469,-2.498678,-1624.759155,0.000000
0.000000,0.000000,0.000000,0.000000,0.000000,0.000000,0.000000,0.000000,0,0,0,0,0,0,32.0141827153,34.8668660943,107.687988,-0.161292,-0.727791,121.399918,34.193077,2.860432,0.470566,0.000007,5.907481,111.955559,-277.077240,12.000000,40.000000,0.000000,0.000000,-279.999847,-280.000000,107.687988,0.000001,0.000335,254.943954,85.193558,0.002463,-2.498774,-1628.443726,0.000000
0.000000,0.000000,0.000000,0.000000,0.000000,0.000000,0.000000,0.000000,0,0,0,0,0,0,32.0141827153,34.8668660943,107.687988,-0.161278,-0.727767,121.399918,33.477097,2.877051,0.476413,0.000007,6.118952,108.437592,-280.595215,12.000000,40.000000,0.000000,0.000000,-279.999847,-280.000000,107.687988,0.000001,0.000469,254.943954,85.731308,0.002459,-2.498853,-1627.602905,0.000000
0.000000,0.000000,0.000000,0.000000,0.000000,0.000000,0.000000,0.000000,0,0,0,0,0,0,32.0141827153,34.8668660943,107.687988,-0.161265,-0.727741,121.399918,32.725456,2.895084,0.559793,0.000008,4.850379,106.227242,-282.805542,12.000000,40.000000,0.000000,0.000000,-279.999847,-280.000000,107.687988,0.000001,0.000268,254.943954,86.378525,0.002456,-2.498932,-1565.853271,0.000000
0.000000,0.000000,0.000000,0.000000,0.000000,0.000000,0.000000,0.000000,0,0,0,0,0,0,32.0141827153,34.8668660943,107.687988,-0.161252,-0.727715,121.399918,31.939919,2.914616,0.549279,0.000008,3.080615,105.704613,-283.328186,12.000000,40.000000,0.000000,0.000000,-279.999847,-280.000000,107.687988,0.000001,0.000435,254.943954,87.143829,0.002453,-2.499009,-1426.094727,0.000000
0.000000,0.000000,0.000000,0.000000,0.000000,0.000000,0.000000,0.000000,0,0,0,0,0,0,32.0141827153,34.8668660943,107.687988,-0.161234,-0.727684,121.399918,31.079609,2.936952,0.593595,0.000009,2.567400,105.583122,-283.449677,12.000000,40.000000,0.000000,0.000000,-279.999847,-280.000000,107.687988,0.000001,0.000268,254.943954,88.083702,0.002450,-2.499088,-1250.920166,0.000000
0.000000,0.000000,0.000000,0.000000,0.000000,0.000000,0.000000,0.000000,0,0,0,0,0,0,32.0141827153,34.8668660943,107.687996,-0.161221,-0.727661,121.399918,30.358740,2.956447,0.590704,0.000008,2.505432,105.556984,-283.475830,12.000000,40.000000,0.000000,0.000000,-279.999847,-280.000000,107.687996,0.000001,0.000502,254.943954,88.950768,0.002446,-2.499151,-1098.291870,0.000000
0.000000,0.000000,0.000000,0.000000,0.000000,0.000000,0.000000,0.000000,0,0,0,0,0,0,32.0141827153,34.8668660943,107.687996,-0.161208,-0.727636,121.399918,29.605980,2.977591,0.526598,0.000008,2.522652,105.544182,-283.488617,12.000000,40.000000,0.000000,0.000000,-279.999847,-280.000000,107.687996,0.000001,0.000335,254.943954,89.931038,0.002444,-2.499212,-935.829712,0.000000
0.000000,0.000000,0.000000,0.000000,0.000000,0.000000,0.000000,0.000000,0,0,0,0,0,0,32.0141827153,34.8668660943,107.687996,-0.161197,-0.727611,121.399918,28.945925,2.996809,0.526313,0.000009,2.555758,105.535980,-283.496826,12.000000,40.000000,0.000000,0.000000,-279.999847,-280.000000,107.687996,0.000001,0.000603,254.943954,90.851151,0.002440,-2.499263,-791.173401,0.000000
0.000000,0.000000,0.000000,0.000000,0.000000,0.000000,0.000000,0.000000,0,0,0,0,0,0,32.0141827153,34.8668660942,107.687996,-0.161189,-0.727590,121.399918,28.646194,3.005688,0.591506,0.000007,2.572068,105.528061,-283.504730,12.000000,40.000000,0.000000,0.000000,-279.999847,-280.000000,107.687996,0.000001,0.000201,254.943954,91.812531,0.002437,-2.499311,-646.445313,0.000000
0.000000,0.000000,0.000000,0.000000,0.000000,0.000000,0.000000,0.000000,0,0,0,0,0,0,32.0141827153,34.8668660942,107.687996,-0.161185,-0.727575,121.399918,28.646149,3.005555,0.753437,0.000005,2.570454,105.518211,-283.514587,12.000000,40.000000,0.000000,0.000000,-279.999847,-280.000000,107.687996,0.000001,0.000234,254.943954,93.001625,0.002433,-2.499363,-474.532043,0.000000
0.000000,0.000000,0.000000,0.000000,0.000000,0.000000,0.000000,0.000000,0,0,0,0,0,0,32.0141827153,34.8668660942,107.687996,-0.161183,-0.727570,121.399918,28.646120,3.005448,0.705050,0.000002,2.572198,105.511009,-283.521790,12.000000,40.000000,0.000000,0.000000,-279.999847,-280.000000,107.687996,0.000001,0.000167,254.943954,93.972130,0.002431,-2.499402,-338.636810,0.000000
0.000000,0.000000,0.000000,0.000000,0.000000,0.000000,0.000000,0.000000,0,0,0,0,0,0,32.0141827153,34.8668660942,107.687996,-0.161185,-0.727566,121.399918,28.646107,3.005334,0.856878,0.000002,2.572060,105.502945,-283.529846,12.000000,40.000000,0.000000,0.000000,-279.999847,-280.000000,107.687996,0.000001,0.000167,254.943954,95.033707,0.002430,-2.499441,-193.495956,0.000000
0.000000,0.000000,0.000000,0.000000,0.000000,0.000000,0.000000,0.000000,0,0,0,0,0,0,32.0141827153,34.8668660942,107.687996,-0.161186,-0.727564,121.399918,28.646111,3.005213,0.874830,0.000001,2.571370,105.494286,-283.538513,12.000000,40.000000,0.000000,0.000000,-279.999847,-280.000000,107.687996,0.000001,0.000067,254.943954,96.186584,0.002429,-2.499479,-37.484940,0.000000
0.000000,0.000000,0.000000,0.000000,0.000000,0.000000,0.000000,0.000000,0,0,0,0,0,0,32.0141827153,34.8668660942,107.687996,-0.161186,-0.727562,121.399918,28.646111,3.005084,0.832963,0.000001,2.570556,105.485092,-283.547699,12.000000,40.000000,0.000000,0.000000,-279.999847,-280.000000,107.687996,0.000001,0.000033,254.943954,97.429543,0.002427,-2.499517,-18.784693,0.000000
0.000000,0.000000,0.000000,0.000000,0.000000,0.000000,0.000000,0.000000,0,0,0,0,0,0,32.0141827153,34.8668660942,107.687996,-0.161186,-0.727561,121.399918,28.646111,3.004956,0.800695,0.000000,2.570296,105.476013,-283.556793,12.000000,40.000000,0.000000,0.000000,-279.999847,-280.000000,107.687996,0.000001,-0.000000,254.943954,98.689316,0.002427,-2.499552,-10.855739,0.000000
0.000000,0.000000,0.000000,0.000000,0.000000,0.000000,0.000000,0.000000,0,0,0,0,0,0,32.0141827153,34.8668660942,107.687996,-0.161186,-0.727561,121.399918,28.646111,3.004827,0.746017,0.000000,2.570153,105.466957,-283.565857,12.000000,40.000000,0.000000,0.000000,-279.999847,-280.000000,107.687996,0.000001,0.000033,254.943954,99.959831,0.002426,-2.499584,-16.905146,0.000000
0.000000,0.000000,0.000000,0.000000,0.000000,0.000000,0.000000,0.000000,0,0,0,0,0,0,32.0141827153,34.8668660942,107.687996,-0.161186,-0.727561,121.399918,28.646109,3.004713,0.899242,0.000000,2.571135,105.459114,-283.573700,12.000000,40.000000,0.000000,0.000000,-279.999847,-280.000000,107.687996,0.000001,0.000000,254.943954,101.093376,0.002425,-2.499611,-16.119234,0.000000
0.000000,0.000000,0.000000,0.000000,0.000000,0.000000,0.000000,0.000000,0,0,0,0,0,0,32.0141827153,34.8668660942,107.687996,-0.161186,-0.727561,121.399918,28.646109,3.004591,-1.061434,-0.000000,2.570745,105.450508,-283.582306,12.000000,40.000000,0.000000,0.000000,-279.999847,-280.000000,107.687996,0.000001,0.000000,254.943954,102.297340,0.002425,-2.499638,-17.978411,0.000000
0.000000,0.000000,0.000000,0.000000,0.000000,0.000000,0.000000,0.000000,0,0,0,0,0,0,32.0141827153,34.8668660942,107.687996,-0.161185,-0.727561,121.399918,28.646109,3.004469,1.038881,0.000000,2.570571,105.441948,-283.590851,12.000000,40.000000,0.000000,0.000000,-279.999847,-280.000000,107.687996,0.000001,0.000000,254.943954,103.496216,0.002424,-2.499662,-19.438469,0.000000
0.000000,0.000000,0.000000,0.000000,0.000000,0.000000,0.000000,0.000000,0,0,0,0,0,0,32.0141827153,34.8668660942,107.687996,-0.161185,-0.727561,121.399918,28.646109,3.004326,-1.214727,-0.000000,2.568738,105.431580,-283.601227,12.000000,40.000000,0.000000,0.000000,-279.999847,-280.000000,107.687996,0.000001,0.000000,254.943954,104.893898,0.002423,-2.499690,-18.017748,0.000000
0.000000,0.000000,0.000000,0.000000,0.000000,0.000000,0.000000,0.000000,0,0,0,0,0,0,32.0141827153,34.8668660942,107.687996,-0.161185,-0.727561,121.399918,28.646109,3.004183,0.201960,0.000000,2.568310,105.421471,-283.611328,12.000000,40.000000,0.000000,0.000000,-279.999847,-280.000000,107.687996,0.000001,0.000000,254.943954,106.270958,0.002423,-2.499714,-14.786745,0.000000
0.000000,0.000000,0.000000,0.000000,0.000000,0.000000,0.000000,0.000000,0,0,0,0,0,0,32.0141827153,34.8668660942,107.687996,-0.161184,-0.727561,121.399918,28.646109,3.003869,-0.167210,-0.000000,2.559169,105.397751,-283.635040,12.000000,40.000000,0.000000,0.000000,-279.999847,-280.000000,107.687996,0.000001,0.000000,254.943954,109.194717,0.002422,-2.499762,-17.241714,0.000000
0.000000,0.000000,0.000000,0.000000,0.000000,0.000000,0.000000,0.000000,0,0,0,0,0,0,32.0141827153,34.8668660942,107.687996,-0.161184,-0.727561,121.399918,28.646109,3.003740,-0.622886,-0.000000,2.567085,105.390175,-283.642609,12.000000,40.000000,0.000000,0.000000,-279.999847,-280.000000,107.687996,0.000000,0.000000,254.943954,110.336967,0.002422,-2.499779,-15.711442,0.000000
0.000000,0.000000,0.000000,0.000000,0.000000,0.000000,0.000000,0.000000,0,0,0,0,0,0,32.0141827153,34.8668660942,107.687996,-0.161184,-0.727561,121.399918,28.646109,3.003612,-0.234241,-0.000000,2.568653,105.381447,-283.651367,12.000000,40.000000,0.000000,0.000000,-279.999847,-280.000000,107.687996,0.000000,-0.000000,254.943954,111.441772,0.002422,-2.499795,-18.531437,0.000000
0.000000,0.000000,0.000000,0.000000,0.000000,0.000000,0.000000,0.000000,0,0,0,0,0,0,32.0141827153,34.8668660942,107.687996,-0.161184,-0.727561,121.399918,28.646109,3.003483,-0.239916,-0.000000,2.568892,105.372475,-283.660339,12.000000,40.000000,0.000000,0.000000,-279.999847,-280.000000,107.687996,0.000000,0.000000,254.943954,112.505341,0.002421,-2.499810,-8.957212,0.000000
0.000000,0.000000,0.000000,0.000000,0.000000,0.000000,0.000000,0.000000,0,0,0,0,0,0,32.0141827153,34.8668660942,107.687996,-0.161183,-0.727561,121.399918,28.646109,3.003347,-0.191902,-0.000000,2.568297,105.362846,-283.669952,12.000000,40.000000,0.000000,0.000000,-279.999847,-280.000000,107.687996,0.000000,0.000000,254.943954,113.579391,0.002421,-2.499825,-16.539268,0.000000
0.000000,0.000000,0.000000,0.000000,0.000000,0.000000,0.000000,0.000000,0,0,0,0,0,0,32.0141827153,34.8668660942,107.687996,-0.161183,-0.727562,121.399918,28.646109,3.003219,-0.349202,-0.000000,2.568635,105.353897,-283.678894,12.000000,40.000000,0.000000,0.000000,-279.999847,-280.000000,107.687996,0.000000,0.000000,254.943954,114.547539,0.002421,-2.499837,-7.635319,0.000000
0.000000,0.000000,0.000000,0.000000,0.000000,0.000000,0.000000,0.000000,0,0,0,0,0,0,32.0141827153,34.8668660942,107.687996,-0.161183,-0.727562,121.399918,28.646109,3.003098,-0.317578,-0.000000,2.569172,105.345490,-283.687317,12.000000,40.000000,0.000000,0.000000,-279.999847,-280.000000,107.687996,0.000000,0.000000,254.943954,115.415146,0.002421,-2.499849,-11.341348,0.000000
0.000000,0.000000,0.000000,0.000000,0.000000,0.000000,0.000000,0.000000,0,0,0,0,0,0,32.0141827153,34.8668660942,107.687996,-0.161183,-0.727562,121.399918,28.646109,3.002948,-0.145837,-0.000000,2.566956,105.334564,-283.698242,12.000000,40.000000,0.000000,0.000000,-279.999847,-280.000000,107.687996,0.000000,0.000000,254.943954,116.420921,0.002421,-2.499861,-13.471265,0.000000
0.000000,0.000000,0.000000,0.000000,0.000000,0.000000,0.000000,0.000000,0,0,0,0,0,0,32.0141827153,34.8668660942,107.687996,-0.161182,-0.727562,121.399918,28.646109,3.002819,-0.253130,-0.000000,2.568080,105.325768,-283.707031,12.000000,40.000000,0.000000,0.000000,-279.999847,-280.000000,107.687996,0.000000,-0.000067,254.943954,117.222466,0.002421,-2.499871,-16.703972,0.000000
0.000000,0.000000,0.000000,0.000000,0.000000,0.000000,0.000000,0.000000,0,0,0,0,0,0,32.0141827153,34.8668660942,107.687996,-0.161182,-0.727562,121.399918,28.646109,3.002698,-0.195724,-0.000000,2.568778,105.317390,-283.715424,12.000000,40.000000,0.000000,0.000000,-279.999847,-280.000000,107.687996,0.000000,0.000000,254.943954,117.926338,0.002421,-2.499880,-17.613821,0.000000
0.000000,0.000000,0.000000,0.000000,0.000000,0.000000,0.000000,0.000000,0,0,0,0,0,0,32.0141827153,34.8668660942,107.687996,-0.161182,-0.727562,121.399918,28.646109,3.002569,-0.188473,-0.000000,2.568296,105.308289,-283.724518,12.000000,40.000000,0.000000,0.000000,-279.999847,-280.000000,107.687996,0.000000,0.000000,254.943954,118.613823,0.002420,-2.499889,-9.093991,0.000000
0.000000,0.000000,0.000000,0.000000,0.000000,0.000000,0.000000,0.000000,0,0,0,0,0,0,32.0141827153,34.8668660942,107.687996,-0.161182,-0.727563,121.399918,28.646112,3.002449,0.267730,0.000000,2.568661,105.299858,-283.732941,12.000000,40.000000,0.000000,0.000000,-279.999847,-280.000000,107.687996,0.000000,0.000067,254.943954,119.207390,0.002421,-2.499897,-11.566177,0.000000
0.000000,0.000000,0.000000,0.000000,0.000000,0.000000,0.000000,0.000000,0,0,0,0,0,0,32.0141827153,34.8668660942,107.687996,-0.161180,-0.727565,121.399918,28.646111,3.002313,0.016582,0.000000,2.567533,105.290146,-283.742645,12.000000,40.000000,0.000000,0.000000,-279.999847,-280.000000,107.687996,0.000000,0.000067,254.943954,119.805695,0.002420,-2.499904,-18.586916,0.000000
0.000000,0.000000,0.000000,0.000000,0.000000,0.000000,0.000000,0.000000,0,0,0,0,0,0,32.0141827153,34.8668660942,107.687996,-0.161179,-0.727566,121.399918,28.646111,3.002198,-0.065058,-0.000000,2.568846,105.282387,-283.750397,12.000000,40.000000,0.000000,0.000000,-279.999847,-280.000000,107.687996,0.000000,0.000000,254.943954,120.255653,0.002420,-2.499911,-17.549204,0.000000
0.000000,0.000000,0.000000,0.000000,0.000000,0.000000,0.000000,0.000000,0,0,0,0,0,0,32.0141827153,34.8668660942,107.687996,-0.161178,-0.727566,121.399918,28.646109,3.002084,-0.124445,-0.000000,2.569108,105.274437,-283.758362,12.000000,40.000000,0.000000,0.000000,-279.999847,-280.000000,107.687996,0.000000,0.000000,254.943954,120.656044,0.002420,-2.499916,-16.464031,0.000000
0.000000,0.000000,0.000000,0.000000,0.000000,0.000000,0.000000,0.000000,0,0,0,0,0,0,32.0141827153,34.8668660942,107.687996,-0.161178,-0.727566,121.399918,28.646109,3.001956,-0.270219,-0.000000,2.567949,105.265221,-283.767578,12.000000,40.000000,0.000000,0.000000,-279.999847,-280.000000,107.687996,0.000000,-0.000033,254.943954,121.047127,0.002420,-2.499922,-9.198060,0.000000
0.000000,0.000000,0.000000,0.000000,0.000000,0.000000,0.000000,0.000000,0,0,0,0,0,0,32.0141827153,34.8668660942,107.687996,-0.161178,-0.727566,121.399918,28.646112,3.001820,1.027473,0.000001,2.567050,105.255562,-283.777252,12.000000,40.000000,0.000000,0.000000,-279.999847,-280.000000,107.687996,0.000000,0.000000,254.943954,121.391884,0.002420,-2.499928,-16.627983,0.000000
0.000000,0.000000,0.000000,0.000000,0.000000,0.000000,0.000000,0.000000,0,0,0,0,0,0,32.0141827153,34.8668660942,107.687996,-0.161176,-0.727567,121.399918,28.646112,3.001649,0.396835,0.000000,2.564105,105.243027,-283.789764,12.000000,40.000000,0.000000,0.000000,-279.999847,-280.000000,107.687996,0.000000,0.000000,254.943954,121.728249,0.002420,-2.499935,-11.184188,0.000000
0.000000,0.000000,0.000000,0.000000,0.000000,0.000000,0.000000,0.000000,0,0,0,0,0,0,32.0141827153,34.8668660942,107.687996,-0.161175,-0.727567,121.399918,28.646111,3.001521,0.457891,0.000000,2.566596,105.234489,-283.798309,12.000000,40.000000,0.000000,0.000000,-279.999847,-280.000000,107.687996,0.000000,0.000033,254.943954,121.908852,0.002419,-2.499940,-13.444504,0.000000
0.000000,0.000000,0.000000,0.000000,0.000000,0.000000,0.000000,0.000000,0,0,0,0,0,0,32.0141827153,34.8668660942,107.687996,-0.161174,-0.727567,121.399918,28.646111,3.001392,0.238658,0.000000,2.567033,105.225578,-283.807220,12.000000,40.000000,0.000000,0.000000,-279.999847,-280.000000,107.687996,0.000000,0.000000,254.943954,122.029129,0.002419,-2.499944,-16.917334,0.000000
0.000000,0.000000,0.000000,0.000000,0.000000,0.000000,0.000000,0.000000,0,0,0,0,0,0,32.0141827153,34.8668660942,107.687996,-0.161174,-0.727567,121.399918,28.646109,3.001286,-0.003644,-0.000000,2.568646,105.218391,-283.814392,12.000000,40.000000,0.000000,0.000000,-279.999847,-280.000000,107.687996,0.000000,0.000000,254.943954,122.084175,0.002419,-2.499948,-13.368049,0.000000
0.000000,0.000000,0.000000,0.000000,0.000000,0.000000,0.000000,0.000000,0,0,0,0,0,0,32.0141827153,34.8668660942,107.687996,-0.161174,-0.727567,121.399918,28.646109,3.001157,-0.171213,-0.000000,2.567312,105.209152,-283.823639,12.000000,40.000000,0.000000,0.000000,-279.999847,-280.000000,107.687996,0.000000,-0.000067,254.943954,122.097275,0.002419,-2.499951,-17.541397,0.000000
0.000000,0.000000,0.000000,0.000000,0.000000,0.000000,0.000000,0.000000,0,0,0,0,0,0,32.0141827153,34.8668660942,107.687996,-0.161174,-0.727567,121.399918,28.646109,3.001029,-0.270387,-0.000000,2.566935,105.200096,-283.832703,12.000000,40.000000,0.000000,0.000000,-279.999847,-280.000000,107.687996,0.000000,0.000000,254.943954,122.054161,0.002419,-2.499955,-8.982682,0.000000
0.000000,0.000000,0.000000,0.000000,0.000000,0.000000,0.000000,0.000000,0,0,0,0,0,0,32.0141827153,34.8668660942,107.687996,-0.161173,-0.727567,121.399918,28.646109,3.000915,-0.104071,-0.000000,2.567865,105.192284,-283.840515,12.000000,40.000000,0.000000,0.000000,-279.999847,-280.000000,107.687996,0.000000,-0.000033,254.943954,121.970146,0.002419,-2.499958,-7.189496,0.000000
0.000000,0.000000,0.000000,0.000000,0.000000,0.000000,0.000000,0.000000,0,0,0,0,0,0,32.0141827153,34.8668660942,107.687996,-0.161173,-0.727567,121.399918,28.646109,3.000801,0.023106,0.000000,2.568029,105.184326,-283.848480,12.000000,40.000000,0.000000,0.000000,-279.999847,-280.000000,107.687996,0.000000,-0.000033,254.943954,121.844612,0.002419,-2.499960,-7.330886,0.000000
0.000000,0.000000,0.000000,0.000000,0.000000,0.000000,0.000000,0.000000,0,0,0,0,0,0,32.0141827153,34.8668660942,107.687996,-0.161173,-0.727568,121.399918,28.646109,3.000687,0.128512,0.000000,2.567996,105.176338,-283.856476,12.000000,40.000000,0.000000,0.000000,-279.999847,-280.000000,107.687996,0.000000,-0.000033,254.943954,121.679092,0.002419,-2.499963,-7.462335,0.000000
0.000000,0.000000,0.000000,0.000000,0.000000,0.000000,0.000000,0.000000,0,0,0,0,0,0,32.0141827153,34.8668660942,107.687996,-0.161173,-0.727568,121.399918,28.646109,3.000573,0.086603,0.000000,2.567914,105.168335,-283.864471,12.000000,40.000000,0.000000,0.000000,-279.999847,-280.000000,107.687996,0.000000,0.000000,254.943954,121.475220,0.002419,-2.499965,-7.507222,0.000000
0.000000,0.000000,0.000000,0.000000,0.000000,0.000000,0.000000,0.000000,0,0,0,0,0,0,32.0141827153,34.8668660942,107.687996,-0.161172,-0.727568,121.399918,28.646118,3.000018,-1.008963,-0.000001,2.553256,105.126747,-283.906036,12.000000,40.000000,0.000000,0.000000,-279.999847,-280.000000,107.687996,0.000000,0.000268,254.943954,119.991211,0.002420,-2.499975,-15.927005,0.000000
0.000000,0.000000,0.000000,0.000000,0.000000,0.000000,0.000000,0.000000,0,0,0,0,0,0,32.0141827153,34.8668660942,107.687996,-0.161169,-0.727567,121.399918,28.646109,2.999164,-1.411139,-0.000001,2.552280,105.066780,-283.966034,12.000000,40.000000,0.000000,0.000000,-279.999847,-280.000000,107.687996,0.000000,0.000201,254.943954,116.536308,0.002419,-2.499985,-9.791471,0.000000
0.000000,0.000000,0.000000,0.000000,0.000000,0.000000,0.000000,0.000000,0,0,0,0,0,0,32.0141827153,34.8668660942,107.687996,-0.161169,-0.727567,121.399918,28.646112,2.998311,-0.251220,-0.000000,2.551554,105.006920,-284.025879,12.000000,40.000000,0.000000,0.000000,-279.999847,-280.000000,107.687996,0.000000,-0.000033,254.943954,112.454941,0.002418,-2.499991,-7.807124,0.000000
0.000000,0.000000,0.000000,0.000000,0.000000,0.000000,0.000000,0.000000,0,0,0,0,0,0,32.0141827153,34.8668660942,107.687996,-0.161169,-0.727567,121.399918,28.646107,2.998133,-0.320331,-0.000000,2.559167,104.995872,-284.036926,12.000000,40.000000,0.000000,0.000000,-279.999847,-280.000000,107.687996,0.000000,0.000000,254.943954,111.606567,0.002417,-2.499992,-11.209444,0.000000
0.000000,0.000000,0.000000,0.000000,0.000000,0.000000,0.000000,0.000000,0,0,0,0,0,0,32.0141827153,34.8668660942,107.687996,-0.161169,-0.727567,121.399918,28.646107,2.997962,1.387834,0.000001,2.560347,104.984154,-284.048645,12.000000,40.000000,0.000000,0.000000,-279.999847,-280.000000,107.687996,0.000000,0.000134,254.943954,110.807884,0.002418,-2.499993,-16.756592,0.000000
0.000000,0.000000,0.000000,0.000000,0.000000,0.000000,0.000000,0.000000,0,0,0,0,0,0,32.0141827153,34.8668660942,107.687996,-0.161169,-0.727567,121.399918,28.646105,2.997813,-1.130115,-0.000001,2.561817,104.973984,-284.058807,12.000000,40.000000,0.000000,0.000000,-279.999847,-280.000000,107.687996,0.000000,-0.000134,254.943954,110.126228,0.002418,-2.499993,-14.623255,0.000000
0.000000,0.000000,0.000000,0.000000,0.000000,0.000000,0.000000,0.000000,0,0,0,0,0,0,32.0141827153,34.8668660942,107.687996,-0.161169,-0.727567,121.399918,28.646111,2.997686,0.084741,0.000000,2.563498,104.965347,-284.067444,12.000000,40.000000,0.000000,0.000000,-279.999847,-280.000000,107.687996,0.000000,0.000268,254.943954,109.557556,0.002419,-2.499994,-16.546709,0.000000
0.000000,0.000000,0.000000,0.000000,0.000000,0.000000,0.000000,0.000000,0,0,0,0,0,0,32.0141827153,34.8668660942,107.687996,-0.161169,-0.727567,121.399918,28.646109,2.997571,-1.178025,-0.000001,2.564837,104.957642,-284.075165,12.000000,40.000000,0.000000,0.000000,-279.999847,-280.000000,107.687996,0.000000,-0.000134,254.943954,109.065956,0.002419,-2.499994,-15.033033,0.000000
0.000000,0.000000,0.000000,0.000000,0.000000,0.000000,0.000000,0.000000,0,0,0,0,0,0,32.0141827153,34.8668660942,107.687996,-0.161169,-0.727567,121.399918,28.646111,2.997451,-1.368022,-0.000002,2.564543,104.949142,-284.083649,12.000000,40.000000,0.000000,0.000000,-279.999847,-280.000000,107.687996,0.000000,0.000000,254.943954,108.559563,0.002419,-2.499995,-16.503672,0.000000
0.000000,0.000000,0.000000,0.000000,0.000000,0.000000,0.000000,0.000000,0,0,0,0,0,0,32.0141827153,34.8668660942,107.687996,-0.161169,-0.727567,121.399918,28.646112,2.997330,-1.311493,-0.000001,2.564391,104.940666,-284.092133,12.000000,40.000000,0.000000,0.000000,-279.999847,-280.000000,107.687996,0.000000,-0.000067,254.943954,108.071098,0.002418,-2.499995,-17.777790,0.000000
0.000000,0.000000,0.000000,0.000000,0.000000,0.000000,0.000000,0.000000,0,0,0,0,0,0,32.0141827153,34.8668660942,107.687996,-0.161169,-0.727567,121.399918,28.646111,2.997210,1.167725,0.000002,2.564276,104.932198,-284.100586,12.000000,40.000000,0.000000,0.000000,-279.999847,-280.000000,107.687996,0.000000,-0.000033,254.943954,107.601990,0.002418,-2.499995,-19.223709,0.000000
0.000000,0.000000,0.000000,0.000000,0.000000,0.000000,0.000000,0.000000,0,0,0,0,0,0,32.0141827153,34.8668660942,107.687996,-0.161169,-0.727567,121.399918,28.646112,2.997089,1.244709,0.000002,2.564169,104.923737,-284.109070,12.000000,40.000000,0.000000,0.000000,-279.999847,-280.000000,107.687996,0.000000,0.000067,254.943954,107.153564,0.002419,-2.499995,-9.621531,0.000000
0.000000,0.000000,0.000000,0.000000,0.000000,0.000000,0.000000,0.000000,0,0,0,0,0,0,32.0141827153,34.8668660942,107.687996,-0.161168,-0.727568,121.399918,28.646112,2.996961,-0.393944,-0.000000,2.563500,104.914673,-284.118134,12.000000,40.000000,0.000000,0.000000,-279.999847,-280.000000,107.687996,0.000000,-0.000201,254.943954,106.702621,0.002417,-2.499996,-14.334820,0.000000
0.000000,0.000000,0.000000,0.000000,0.000000,0.000000,0.000000,0.000000,0,0,0,0,0,0,32.0141827153,34.8668660942,107.687996,-0.161168,-0.727567,121.399918,28.646109,2.996840,-0.875265,-0.000000,2.563824,104.906296,-284.126495,12.000000,40.000000,0.000000,0.000000,-279.999847,-280.000000,107.687996,0.000000,0.000100,254.943954,106.300400,0.002417,-2.499996,-14.822846,0.000000
