aileron,elevator,rudder,flaps,slats,speedbrake,throttle,throttle,engine-pump,engine-pump,electric-pump,electric-pump,external-power,APU-generator,latitude-deg,longitude-deg,altitude-ft,roll-deg,pitch-deg,heading-deg,side-slip-deg,airspeed-kt,glideslope,vertical-speed-fps,airspeed-indicator_indicated-speed-kt,altimeter_indicated-altitude-ft,altimeter_pressure-alt-ft,attitude-indicator_indicated-pitch-deg,attitude-indicator_indicated-roll-deg,attitude-indicator_internal-pitch-deg,attitude-indicator_internal-roll-deg,encoder_indicated-altitude-ft,encoder_pressure-alt-ft,gps_indicated-altitude-ft,gps_indicated-ground-speed-kt,gps_indicated-vertical-speed,indicated-heading-deg,magnetic-compass_indicated-heading-deg,slip-skid-ball_indicated-slip-skid,turn-indicator_indicated-turn-rate,vertical-speed-indicator_indicated-speed-fpm,engine_rpm
0.000000,0.000000,0.000000,0.000000,0.000000,0.000000,0.000000,0.000000,0,0,0,0,0,0,30.7798633718,34.6818519214,-9999.000000,0.000000,0.424000,246.991180,0.000000,0.000000,0.000000,0.000000,0.000000,0.000000,0.000000,0.000000,0.000000,0.000000,0.000000,0.000000,0.000000,0.000000,0.000000,0.000000,0.000000,0.000000,0.000000,0.000000,0.000000,0.000000
0.000000,0.000000,0.000000,0.000000,0.000000,0.000000,0.000000,0.000000,0,0,0,0,0,0,30.7798633718,34.6818519214,-9999.000000,0.000000,0.424000,246.991180,0.000000,0.000000,0.000000,0.000000,0.000000,0.000000,1.193444,12.000000,40.000000,0.000000,0.000000,0.000000,0.000000,0.000000,0.000000,0.000000,246.991180,0.000000,0.000000,0.000000,0.000000,0.000000
0.000000,0.000000,0.000000,0.000000,0.000000,0.000000,0.000000,0.000000,0,0,0,0,0,0,30.7693346389,34.6531480681,-9999.000000,0.000000,0.424000,66.976440,0.000000,0.000000,0.000000,0.000000,0.000000,0.000000,1.193444,12.000000,40.000000,0.000000,0.000000,0.000000,0.000000,0.000000,0.000000,0.000000,246.991180,0.000000,0.000000,0.000000,0.000000,0.000000
0.000000,0.000000,0.000000,0.000000,0.000000,0.000000,0.000000,0.000000,0,0,0,0,0,0,30.7693346389,34.6531480681,-9999.000000,0.000000,0.424000,66.976440,0.000000,0.000000,0.000000,0.000000,0.000000,0.000000,1.193444,12.000000,40.000000,0.000000,0.000000,0.000000,0.000000,0.000000,0.000000,0.000000,246.991180,0.000000,0.000000,0.000000,0.000000,0.000000
0.000000,0.000000,0.000000,0.000000,0.000000,0.000000,0.000000,0.000000,0,0,0,0,0,0,30.7693346389,34.6531480681,-9999.000000,0.000000,0.424000,66.976440,0.000000,0.000000,0.000000,0.000000,0.000000,0.000000,1.193444,12.000000,40.000000,0.000000,0.000000,0.000000,0.000000,0.000000,0.000000,0.000000,246.991180,0.000000,0.000000,0.000000,0.000000,0.000000
0.000000,0.000000,0.000000,0.000000,0.000000,0.000000,0.000000,0.000000,0,0,0,0,0,0,30.7693346389,34.6531480681,-9999.000000,0.000000,0.424000,66.976440,0.000000,0.000000,0.000000,0.000000,0.000000,0.000000,1.193444,12.000000,40.000000,0.000000,0.000000,0.000000,0.000000,0.000000,0.000000,0.000000,246.991180,0.000000,0.000000,0.000000,0.000000,0.000000
0.000000,0.000000,0.000000,0.000000,0.000000,0.000000,0.000000,0.000000,0,0,0,0,0,0,30.7693346389,34.6531480681,-9999.000000,0.000000,0.424000,66.976440,0.000000,0.000000,0.000000,0.000000,0.000000,0.000000,1.193444,12.000000,40.000000,0.000000,0.000000,0.000000,0.000000,0.000000,0.000000,0.000000,246.991180,0.000000,0.000000,0.000000,0.000000,0.000000
0.000000,0.000000,0.000000,0.000000,0.000000,0.000000,0.000000,0.000000,0,0,0,0,0,0,30.7693346389,34.6531480681,-9999.000000,0.000000,0.424000,66.976440,0.000000,0.000000,0.000000,0.000000,0.000000,0.000000,1.193444,12.000000,40.000000,0.000000,0.000000,0.000000,0.000000,0.000000,0.000000,0.000000,246.991180,0.000000,0.000000,0.000000,0.000000,0.000000
0.000000,0.000000,0.000000,0.000000,0.000000,0.000000,0.000000,0.000000,0,0,0,0,0,0,30.7693346389,34.6531480681,-9999.000000,0.000000,0.424000,66.976440,0.000000,0.000000,0.000000,0.000000,0.000000,0.000000,1.193444,12.000000,40.000000,0.000000,0.000000,0.000000,0.000000,0.000000,0.000000,0.000000,246.991180,0.000000,0.000000,0.000000,0.000000,0.000000
0.000000,0.000000,0.000000,0.000000,0.000000,0.000000,0.000000,0.000000,0,0,0,0,0,0,30.7693346389,34.6531480681,-9999.000000,0.000000,0.424000,66.976440,0.000000,0.000000,0.000000,0.000000,0.000000,0.000000,1.193444,12.000000,40.000000,0.000000,0.000000,0.000000,0.000000,0.000000,0.000000,0.000000,246.991180,0.000000,0.000000,0.000000,0.000000,0.000000
0.000000,0.000000,0.000000,0.000000,0.000000,0.000000,0.000000,0.000000,0,0,0,0,0,0,30.7693346389,34.6531480681,-9999.000000,0.000000,0.424000,66.976440,0.000000,0.000000,0.000000,0.000000,0.000000,0.000000,1.193444,12.000000,40.000000,0.000000,0.000000,0.000000,0.000000,0.000000,0.000000,0.000000,246.991180,0.000000,0.000000,0.000000,0.000000,0.000000
0.000000,0.000000,0.000000,0.000000,0.000000,0.000000,0.000000,0.000000,0,0,0,0,0,0,30.7693346389,34.6531480681,-9999.000000,0.000000,0.424000,66.976440,0.000000,0.000000,0.000000,0.000000,0.000000,0.000000,1.193444,12.000000,40.000000,0.000000,0.000000,0.000000,0.000000,0.000000,0.000000,0.000000,246.991180,0.000000,0.000000,0.000000,0.000000,0.000000
0.000000,0.000000,0.000000,0.000000,0.000000,0.000000,0.000000,0.000000,0,0,0,0,0,0,30.7693346389,34.6531480681,-9999.000000,0.000000,0.424000,66.976440,0.000000,0.000000,0.000000,0.000000,0.000000,0.000000,1.193444,12.000000,40.000000,0.000000,0.000000,0.000000,0.000000,0.000000,0.000000,0.000000,246.991180,0.000000,0.000000,0.000000,0.000000,0.000000
0.000000,0.000000,0.000000,0.000000,0.000000,0.000000,0.000000,0.000000,0,0,0,0,0,0,30.7693346389,34.6531480681,-9999.000000,0.000000,0.424000,66.976440,0.000000,0.000000,0.000000,0.000000,0.000000,0.000000,1.193444,12.000000,40.000000,0.000000,0.000000,0.000000,0.000000,0.000000,0.000000,0.000000,246.991180,0.000000,0.000000,0.000000,0.000000,0.000000
0.000000,0.000000,0.000000,0.000000,0.000000,0.000000,0.000000,0.000000,0,0,0,0,0,0,30.7693346389,34.6531480681,-9999.000000,0.000000,0.424000,66.976440,0.000000,0.000000,0.000000,0.000000,0.000000,0.000000,1.193444,12.000000,40.000000,0.000000,0.000000,0.000000,0.000000,0.000000,0.000000,0.000000,246.991180,0.000000,0.000000,0.000000,0.000000,0.000000
0.000000,0.000000,0.000000,0.000000,0.000000,0.000000,0.000000,0.000000,0,0,0,0,0,0,30.7693346389,34.6531480681,-9999.000000,0.000000,0.424000,66.976440,0.000000,0.000000,0.000000,0.000000,0.000000,0.000000,1.193444,12.000000,40.000000,0.000000,0.000000,0.000000,0.000000,0.000000,0.000000,0.000000,246.991180,0.000000,0.000000,0.000000,0.000000,0.000000
0.000000,0.000000,0.000000,0.000000,0.000000,0.000000,0.000000,0.000000,0,0,0,0,0,0,30.7693346389,34.6531480681,-9999.000000,0.000000,0.424000,66.976440,0.000000,0.000000,0.000000,0.000000,0.000000,0.000000,1.193444,12.000000,40.000000,0.000000,0.000000,0.000000,0.000000,0.000000,0.000000,0.000000,246.991180,0.000000,0.000000,0.000000,0.000000,0.000000
0.000000,0.000000,0.000000,0.000000,0.000000,0.000000,0.000000,0.000000,0,0,0,0,0,0,30.7693346389,34.6531480681,-9999.000000,0.000000,0.424000,66.976440,0.000000,0.000000,0.000000,0.000000,0.000000,0.000000,1.193444,12.000000,40.000000,0.000000,0.000000,0.000000,0.000000,0.000000,0.000000,0.000000,246.991180,0.000000,0.000000,0.000000,0.000000,0.000000
0.000000,0.000000,0.000000,0.000000,0.000000,0.000000,0.000000,0.000000,0,0,0,0,0,0,30.7693346389,34.6531480681,-9999.000000,0.000000,0.424000,66.976440,0.000000,0.000000,0.000000,0.000000,0.000000,0.000000,1.193444,12.000000,40.000000,0.000000,0.000000,0.000000,0.000000,0.000000,0.000000,0.000000,246.991180,0.000000,0.000000,0.000000,0.000000,0.000000
0.000000,0.000000,0.000000,0.000000,0.000000,0.000000,0.000000,0.000000,0,0,0,0,0,0,30.7693346389,34.6531480681,-9999.000000,0.000000,0.424000,66.976440,0.000000,0.000000,0.000000,0.000000,0.000000,0.000000,1.193444,12.000000,40.000000,0.000000,0.000000,0.000000,0.000000,0.000000,0.000000,0.000000,246.991180,0.000000,0.000000,0.000000,0.000000,0.000000
0.000000,0.000000,0.000000,0.000000,0.000000,0.000000,0.000000,0.000000,0,0,0,0,0,0,30.7693346389,34.6531480681,-9999.000000,0.000000,0.424000,66.976440,0.000000,0.000000,0.000000,0.000000,0.000000,0.000000,1.193444,12.000000,40.000000,0.000000,0.000000,0.000000,0.000000,0.000000,0.000000,0.000000,246.991180,0.000000,0.000000,0.000000,0.000000,0.000000
0.000000,0.000000,0.000000,0.000000,0.000000,0.000000,0.000000,0.000000,0,0,0,0,0,0,30.7693339613,34.6531471886,0.903270,-0.786685,8.668204,66.900902,0.000000,0.000000,0.000000,0.000000,0.000000,0.000000,1.193444,12.000000,40.000000,0.000000,0.000000,0.000000,0.000000,0.000000,0.000000,0.000000,246.991180,0.000000,0.000000,0.000000,0.000000,0.000000
0.000000,0.000000,0.000000,0.000000,0.000000,0.000000,0.000000,0.000000,0,0,0,0,0,0,30.7693339147,34.6531471602,0.895851,-0.609944,8.881487,66.927017,-23.043516,3.016782,-0.313700,-0.000357,0.000000,0.912483,2.105927,12.000000,40.000000,0.000000,0.000000,0.000142,0.000000,0.895851,0.001941,-0.029432,246.991150,5.988690,0.050538,-0.985256,4.923381,0.000000
0.000000,0.000000,0.000000,0.000000,0.000000,0.000000,0.000000,0.000000,0,0,0,0,0,0,30.7693339145,34.6531471595,0.895706,-0.610092,8.885489,66.926987,-16.851759,2.736620,-0.736649,-0.000012,0.000012,-26.272661,-25.079216,12.000000,40.000000,0.000000,0.000000,-29.999857,-30.000000,0.895706,0.001589,-0.000938,246.991150,21.329641,0.068749,-1.582221,-899.376221,0.000000
0.000000,0.000000,0.000000,0.000000,0.000000,0.000000,0.000000,0.000000,0,0,0,0,0,0,30.7693339145,34.6531471594,0.895684,-0.610256,8.885440,66.926956,-9.489882,2.499533,-0.407750,-0.000000,0.007229,-52.903881,-51.710438,12.000000,40.000000,0.000000,0.000000,-49.999859,-50.000000,0.895684,0.001305,0.000000,246.991150,41.241371,0.075224,-1.939257,-1086.273560,0.000000
0.000000,0.000000,0.000000,0.000000,0.000000,0.000000,0.000000,0.000000,0,0,0,0,0,0,30.7693339145,34.6531471594,0.895684,-0.610265,8.885439,66.926956,-8.665206,2.477970,0.117221,0.000001,5.078441,-54.659550,-53.466106,12.000000,40.000000,0.000000,0.000000,-49.999859,-50.000000,0.895684,0.001279,-0.000000,246.991150,43.360622,0.075590,-1.966660,-1086.026733,0.000000
0.000000,0.000000,0.000000,0.000000,0.000000,0.000000,0.000000,0.000000,0,0,0,0,0,0,30.7693339145,34.6531471594,0.895684,-0.610279,8.885438,66.926956,-7.826175,2.456928,0.062915,0.000001,6.153086,-56.636444,-55.442997,12.000000,40.000000,0.000000,0.000000,-49.999859,-50.000000,0.895684,0.001254,0.000000,246.991150,45.479820,0.075921,-1.992725,-1099.172729,0.000000
0.000000,0.000000,0.000000,0.000000,0.000000,0.000000,0.000000,0.000000,0,0,0,0,0,0,30.7693339145,34.6531471594,0.895684,-0.610294,8.885437,66.926956,-7.044460,2.438109,-0.122058,-0.000001,7.036736,-58.689060,-57.495617,12.000000,40.000000,0.000000,0.000000,-59.999859,-60.000000,0.895684,0.001231,0.000033,246.991150,47.418781,0.076227,-2.015496,-1124.470581,0.000000
0.000000,0.000000,0.000000,0.000000,0.000000,0.000000,0.000000,0.000000,0,0,0,0,0,0,30.7693339145,34.6531471594,0.895684,-0.610312,8.885435,66.926949,-6.177909,2.418105,-0.252543,-0.000003,7.370495,-61.229389,-60.035946,12.000000,40.000000,0.000000,0.000000,-59.999859,-60.000000,0.895684,0.001207,-0.000134,246.991150,49.526215,0.076509,-2.039174,-1165.689087,0.000000
0.000000,0.000000,0.000000,0.000000,0.000000,0.000000,0.000000,0.000000,0,0,0,0,0,0,30.7693339145,34.6531471594,0.895684,-0.610329,8.885433,66.926949,-5.297067,2.398663,-0.380074,-0.000005,7.482755,-63.878689,-62.685246,12.000000,40.000000,0.000000,0.000000,-59.999859,-60.000000,0.895684,0.001183,-0.000268,246.991150,51.621613,0.076764,-2.061695,-1207.789673,0.000000
0.000000,0.000000,0.000000,0.000000,0.000000,0.000000,0.000000,0.000000,0,0,0,0,0,0,30.7693339145,34.6531471594,0.895683,-0.610346,8.885430,66.926941,-4.401988,2.379796,-0.492080,-0.000006,7.521977,-66.566368,-65.372917,12.000000,40.000000,0.000000,0.000000,-59.999859,-60.000000,0.895683,0.001159,-0.000234,246.991150,53.701057,0.076993,-2.083114,-1246.999268,0.000000
0.000000,0.000000,0.000000,0.000000,0.000000,0.000000,0.000000,0.000000,0,0,0,0,0,0,30.7693339145,34.6531471594,0.895683,-0.610363,8.885427,66.926941,-3.492817,2.361518,-0.530462,-0.000006,7.535853,-69.267563,-68.074120,12.000000,40.000000,0.000000,0.000000,-69.999855,-70.000000,0.895683,0.001136,-0.000268,246.991150,55.760746,0.077201,-2.103488,-1282.565552,0.000000
0.000000,0.000000,0.000000,0.000000,0.000000,0.000000,0.000000,0.000000,0,0,0,0,0,0,30.7693339145,34.6531471594,0.895682,-0.610380,8.885425,66.926941,-2.569653,2.343844,-0.463365,-0.000005,7.540826,-71.973541,-70.780098,12.000000,40.000000,0.000000,0.000000,-69.999855,-70.000000,0.895682,0.001114,-0.000335,246.991150,57.796986,0.077386,-2.122865,-1314.633301,0.000000
0.000000,0.000000,0.000000,0.000000,0.000000,0.000000,0.000000,0.000000,0,0,0,0,0,0,30.7693339145,34.6531471594,0.895682,-0.610397,8.885423,66.926933,-1.632679,2.326787,-0.102556,-0.000001,7.542646,-74.681213,-73.487770,12.000000,40.000000,0.000000,0.000000,-69.999855,-70.000000,0.895682,0.001092,-0.000067,246.991150,59.806213,0.077553,-2.141296,-1343.566650,0.000000
0.000000,0.000000,0.000000,0.000000,0.000000,0.000000,0.000000,0.000000,0,0,0,0,0,0,30.7693339145,34.6531471594,0.895682,-0.610415,8.885422,66.926933,-0.682112,2.310361,0.188603,0.000002,7.543330,-77.389503,-76.196060,12.000000,40.000000,0.000000,0.000000,-69.999855,-70.000000,0.895682,0.001070,0.000167,246.991150,61.784981,0.077704,-2.158826,-1369.743530,0.000000
0.000000,0.000000,0.000000,0.000000,0.000000,0.000000,0.000000,0.000000,0,0,0,0,0,0,30.7693339145,34.6531471594,0.895682,-0.610434,8.885423,66.926933,0.281848,2.294579,0.376930,0.000005,7.543589,-80.098030,-78.904579,12.000000,40.000000,0.000000,0.000000,-79.999855,-80.000000,0.895682,0.001049,0.000402,246.991150,63.729969,0.077843,-2.175499,-1393.501465,0.000000
0.000000,0.000000,0.000000,0.000000,0.000000,0.000000,0.000000,0.000000,0,0,0,0,0,0,30.7693339145,34.6531471594,0.895683,-0.610455,8.885423,66.926926,1.340971,2.278224,0.170647,0.000002,7.263323,-83.173309,-81.979866,12.000000,40.000000,0.000000,0.000000,-79.999855,-80.000000,0.895683,0.001026,0.000167,246.991150,65.795235,0.077969,-2.192643,-1422.909668,0.000000
0.000000,0.000000,0.000000,0.000000,0.000000,0.000000,0.000000,0.000000,0,0,0,0,0,0,30.7693339145,34.6531471594,0.895683,-0.610470,8.885422,66.926926,2.248821,2.265000,-0.056910,-0.000001,7.447467,-85.564102,-84.370659,12.000000,40.000000,0.000000,0.000000,-79.999855,-80.000000,0.895683,0.001008,0.000033,246.991150,67.506012,0.078078,-2.206440,-1436.323364,0.000000
0.000000,0.000000,0.000000,0.000000,0.000000,0.000000,0.000000,0.000000,0,0,0,0,0,0,30.7693339145,34.6531471594,0.895683,-0.610487,8.885419,66.926926,3.251164,2.251230,-0.219787,-0.000002,7.511564,-88.241203,-87.047752,12.000000,40.000000,0.000000,0.000000,-79.999855,-80.000000,0.895683,0.000988,-0.000167,246.991150,69.331108,0.078182,-2.220787,-1452.867310,0.000000
0.000000,0.000000,0.000000,0.000000,0.000000,0.000000,0.000000,0.000000,0,0,0,0,0,0,30.7693339146,34.6531471594,0.895683,-0.610503,8.885415,66.926918,4.265557,2.238159,-0.119696,-0.000001,7.524446,-90.989723,-89.796280,12.000000,40.000000,0.000000,0.000000,-89.999855,-90.000000,0.895683,0.000968,-0.000067,246.991150,71.110512,0.078274,-2.234432,-1471.196045,0.000000
0.000000,0.000000,0.000000,0.000000,0.000000,0.000000,0.000000,0.000000,0,0,0,0,0,0,30.7693339146,34.6531471594,0.895683,-0.610520,8.885413,66.926918,5.291586,2.225796,0.210092,0.000002,7.518184,-93.652130,-92.458687,12.000000,40.000000,0.000000,0.000000,-89.999855,-90.000000,0.895683,0.000949,0.000134,246.991150,72.841621,0.078357,-2.247410,-1484.284668,0.000000
0.000000,0.000000,0.000000,0.000000,0.000000,0.000000,0.000000,0.000000,0,0,0,0,0,0,30.7693339146,34.6531471594,0.895683,-0.610537,8.885411,66.926918,6.328741,2.214155,0.337938,0.000004,7.536182,-96.354050,-95.160606,12.000000,40.000000,0.000000,0.000000,-89.999855,-90.000000,0.895683,0.000930,0.000335,246.991150,74.521942,0.078436,-2.259754,-1498.034912,0.000000
0.000000,0.000000,0.000000,0.000000,0.000000,0.000000,0.000000,0.000000,0,0,0,0,0,0,30.7693339146,34.6531471594,0.895684,-0.610555,8.885411,66.926910,7.376576,2.203247,0.457590,0.000006,7.540488,-99.060455,-97.867004,12.000000,40.000000,0.000000,0.000000,-99.999855,-100.000000,0.895684,0.000912,0.000335,246.991150,76.149170,0.078503,-2.271495,-1510.901123,0.000000
0.000000,0.000000,0.000000,0.000000,0.000000,0.000000,0.000000,0.000000,0,0,0,0,0,0,30.7693339146,34.6531471594,0.895685,-0.610574,8.885412,66.926910,8.434523,2.193082,0.659270,0.000010,7.541801,-101.768440,-100.574997,12.000000,40.000000,0.000000,0.000000,-99.999855,-100.000000,0.895685,0.000894,0.000670,246.991150,77.721123,0.078568,-2.282662,-1522.843140,0.000000
0.000000,0.000000,0.000000,0.000000,0.000000,0.000000,0.000000,0.000000,0,0,0,0,0,0,30.7693339146,34.6531471594,0.895686,-0.610595,8.885415,66.926903,9.501994,2.183672,0.878590,0.000016,7.542049,-104.477013,-103.283569,12.000000,40.000000,0.000000,0.000000,-99.999855,-100.000000,0.895686,0.000876,0.000971,246.991150,79.235779,0.078626,-2.293283,-1533.901855,0.000000
0.000000,0.000000,0.000000,0.000000,0.000000,0.000000,0.000000,0.000000,0,0,0,0,0,0,30.7693339146,34.6531471594,0.895688,-0.610617,8.885419,66.926903,10.578364,2.175025,0.893138,0.000018,7.541894,-107.185799,-105.992355,12.000000,40.000000,0.000000,0.000000,-99.999855,-100.000000,0.895688,0.000859,0.001005,246.991150,80.691284,0.078679,-2.303385,-1544.140137,0.000000
0.000000,0.000000,0.000000,0.000000,0.000000,0.000000,0.000000,0.000000,0,0,0,0,0,0,30.7693339146,34.6531471594,0.895689,-0.610640,8.885425,66.926895,11.662990,2.167153,0.937939,0.000020,7.299325,-110.058266,-108.864822,12.000000,40.000000,0.000000,0.000000,-109.999855,-110.000000,0.895689,0.000842,0.001272,246.991150,82.085915,0.078723,-2.312994,-1560.216309,0.000000
0.000000,0.000000,0.000000,0.000000,0.000000,0.000000,0.000000,0.000000,0,0,0,0,0,0,30.7693339146,34.6531471594,0.895692,-0.610663,8.885431,66.926895,12.755163,2.160062,0.948637,0.000022,7.440880,-112.649948,-111.456505,12.000000,40.000000,0.000000,0.000000,-109.999855,-110.000000,0.895692,0.000825,0.001440,246.991150,83.418114,0.078769,-2.322133,-1563.697754,0.000000
0.000000,0.000000,0.000000,0.000000,0.000000,0.000000,0.000000,0.000000,0,0,0,0,0,0,30.7693339146,34.6531471594,0.895694,-0.610687,8.885438,66.926888,13.854168,2.153760,0.959559,0.000024,7.510203,-115.328896,-114.135445,12.000000,40.000000,0.000000,0.000000,-109.999855,-110.000000,0.895694,0.000809,0.001507,246.991150,84.686485,0.078806,-2.330825,-1570.524536,0.000000
0.000000,0.000000,0.000000,0.000000,0.000000,0.000000,0.000000,0.000000,0,0,0,0,0,0,30.7693339146,34.6531471594,0.895697,-0.610713,8.885447,66.926888,14.959286,2.148256,1.041410,0.000028,7.529508,-118.027321,-116.833878,12.000000,40.000000,0.000000,0.000000,-109.999855,-110.000000,0.895697,0.000792,0.001540,246.991150,85.889786,0.078840,-2.339093,-1577.663086,0.000000
0.000000,0.000000,0.000000,0.000000,0.000000,0.000000,0.000000,0.000000,0,0,0,0,0,0,30.7693339146,34.6531471594,0.895700,-0.610739,8.885457,66.926880,16.069656,2.143554,1.028078,0.000031,7.535889,-120.732620,-119.539177,12.000000,40.000000,0.000000,0.000000,-119.999855,-120.000000,0.895700,0.000777,0.001808,246.991150,87.026909,0.078876,-2.346956,-1584.574463,0.000000
0.000000,0.000000,0.000000,0.000000,0.000000,0.000000,0.000000,0.000000,0,0,0,0,0,0,30.7693339146,34.6531471594,0.895703,-0.610767,8.885468,66.926880,17.184566,2.139661,1.093762,0.000037,7.537736,-123.440361,-122.246918,12.000000,40.000000,0.000000,0.000000,-119.999855,-120.000000,0.895703,0.000761,0.002176,246.991150,88.096916,0.078906,-2.354436,-1591.095947,0.000000
0.000000,0.000000,0.000000,0.000000,0.000000,0.000000,0.000000,0.000000,0,0,0,0,0,0,30.7693339146,34.6531471594,0.895707,-0.610796,8.885481,66.926872,18.303125,2.136581,1.078501,0.000039,7.537964,-126.148972,-124.955528,12.000000,40.000000,0.000000,0.000000,-119.999855,-120.000000,0.895707,0.000746,0.002344,246.991150,89.099022,0.078934,-2.361549,-1597.194214,0.000000
0.000000,0.000000,0.000000,0.000000,0.000000,0.000000,0.000000,0.000000,0,0,0,0,0,0,30.7693339146,34.6531471594,0.895711,-0.610827,8.885495,66.926872,19.424536,2.134317,1.090054,0.000044,7.537595,-128.857910,-127.664467,12.000000,40.000000,0.000000,0.000000,-129.999863,-130.000000,0.895711,0.000732,0.002679,246.991150,90.032585,0.078959,-2.368315,-1602.879395,0.000000
0.000000,0.000000,0.000000,0.000000,0.000000,0.000000,0.000000,0.000000,0,0,0,0,0,0,30.7693339147,34.6531471593,0.895725,-0.611220,8.885543,66.926811,20.536552,2.132800,0.685558,0.000619,7.536992,-131.566971,-130.373535,12.000000,40.000000,0.000000,0.000000,-129.999863,-130.000000,0.895725,0.000717,0.028930,246.991150,90.897110,0.078913,-2.374751,-1608.174438,0.000000
0.000000,0.000000,0.000000,0.000000,0.000000,0.000000,0.000000,0.000000,0,0,0,0,0,0,30.7693339148,34.6531471592,0.895839,-0.612393,8.885964,66.926628,21.661354,2.132293,1.103409,0.001477,7.536206,-134.276077,-133.082626,12.000000,40.000000,0.000000,0.000000,-129.999863,-130.000000,0.895839,0.000703,0.087091,246.991150,91.692261,0.078991,-2.380872,-1613.104492,0.000000
0.000000,0.000000,0.000000,0.000000,0.000000,0.000000,0.000000,0.000000,0,0,0,0,0,0,30.7693339150,34.6531471590,0.895990,-0.613352,8.886538,66.926476,22.788517,2.132518,1.180815,0.001477,7.292853,-137.148758,-135.955307,12.000000,40.000000,0.000000,0.000000,-129.999863,-130.000000,0.895990,0.000689,0.088330,246.991150,92.417824,0.079111,-2.386693,-1624.045044,0.000000
0.000000,0.000000,0.000000,0.000000,0.000000,0.000000,0.000000,0.000000,0,0,0,0,0,0,30.7693339150,34.6531471588,0.896120,-0.614042,8.887035,66.926369,23.915512,2.133526,1.207012,0.001128,7.438634,-139.742355,-138.548920,12.000000,40.000000,0.000000,0.000000,-139.999863,-140.000000,0.896120,0.000675,0.067838,246.991150,93.073753,0.079234,-2.392231,-1623.310181,0.000000
0.000000,0.000000,0.000000,0.000000,0.000000,0.000000,0.000000,0.000000,0,0,0,0,0,0,30.7693339151,34.6531471587,0.896211,-0.614490,8.887388,66.926300,25.040718,2.135345,1.218562,0.000728,7.502000,-142.420288,-141.226837,12.000000,40.000000,0.000000,0.000000,-139.999863,-140.000000,0.896211,0.000662,0.043997,246.991150,93.660133,0.079342,-2.397497,-1625.964111,0.000000
0.000000,0.000000,0.000000,0.000000,0.000000,0.000000,0.000000,0.000000,0,0,0,0,0,0,30.7693339151,34.6531471586,0.896266,-0.614752,8.887602,66.926262,26.162909,2.137986,1.215368,0.000404,7.521679,-145.118484,-143.925034,12.000000,40.000000,0.000000,0.000000,-139.999863,-140.000000,0.896266,0.000649,0.024543,246.991150,94.177170,0.079430,-2.402507,-1629.242554,0.000000
0.000000,0.000000,0.000000,0.000000,0.000000,0.000000,0.000000,0.000000,0,0,0,0,0,0,30.7693339151,34.6531471586,0.896294,-0.614893,8.887715,66.926239,27.281290,2.141449,1.197270,0.000191,7.527974,-147.823853,-146.630402,12.000000,40.000000,0.000000,0.000000,-139.999863,-140.000000,0.896294,0.000636,0.011753,246.991150,94.625229,0.079498,-2.407271,-1632.582397,0.000000
0.000000,0.000000,0.000000,0.000000,0.000000,0.000000,0.000000,0.000000,0,0,0,0,0,0,30.7693339151,34.6531471586,0.896307,-0.614964,8.887767,66.926231,28.395140,2.145729,1.134554,0.000078,7.529547,-150.531769,-149.338318,12.000000,40.000000,0.000000,0.000000,-149.999863,-150.000000,0.896307,0.000623,0.004822,246.991150,95.004768,0.079553,-2.411803,-1635.796631,0.000000
0.000000,0.000000,0.000000,0.000000,0.000000,0.000000,0.000000,0.000000,0,0,0,0,0,0,30.7693339151,34.6531471586,0.896312,-0.615005,8.887788,66.926224,29.503792,2.150820,0.962875,0.000034,7.529426,-153.240616,-152.047165,12.000000,40.000000,0.000000,0.000000,-149.999863,-150.000000,0.896312,0.000611,0.002043,246.991150,95.316414,0.079594,-2.416113,-1638.829712,0.000000
0.000000,0.000000,0.000000,0.000000,0.000000,0.000000,0.000000,0.000000,0,0,0,0,0,0,30.7693339151,34.6531471586,0.896315,-0.615038,8.887801,66.926216,30.606632,2.156714,0.941961,0.000033,7.528677,-155.949799,-154.756348,12.000000,40.000000,0.000000,0.000000,-149.999863,-150.000000,0.896315,0.000599,0.001976,246.991150,95.560890,0.079628,-2.420213,-1641.671143,0.000000
0.000000,0.000000,0.000000,0.000000,0.000000,0.000000,0.000000,0.000000,0,0,0,0,0,0,30.7693339152,34.6531471586,0.896319,-0.615077,8.887817,66.926208,31.702993,2.163404,1.019276,0.000051,7.527678,-158.659119,-157.465683,12.000000,40.000000,0.000000,0.000000,-149.999863,-150.000000,0.896319,0.000587,0.003047,246.991150,95.739029,0.079656,-2.424112,-1644.325928,0.000000
0.000000,0.000000,0.000000,0.000000,0.000000,0.000000,0.000000,0.000000,0,0,0,0,0,0,30.7693339152,34.6531471586,0.896326,-0.615125,8.887842,66.926201,32.792252,2.170882,1.102363,0.000076,7.526565,-161.368515,-160.175064,12.000000,40.000000,0.000000,0.000000,-159.999863,-160.000000,0.896326,0.000575,0.004319,246.991150,95.851807,0.079681,-2.427820,-1646.803955,0.000000
0.000000,0.000000,0.000000,0.000000,0.000000,0.000000,0.000000,0.000000,0,0,0,0,0,0,30.7693339152,34.6531471585,0.896335,-0.615193,8.887879,66.926193,33.963402,2.179863,1.143923,0.000104,7.244116,-164.444717,-163.251266,12.000000,40.000000,0.000000,0.000000,-159.999863,-160.000000,0.896335,0.000563,0.006194,246.991150,95.901474,0.079706,-2.431634,-1654.588867,0.000000
0.000000,0.000000,0.000000,0.000000,0.000000,0.000000,0.000000,0.000000,0,0,0,0,0,0,30.7693339152,34.6531471585,0.896346,-0.615256,8.887918,66.926186,34.946568,2.188167,1.143754,0.000119,7.423441,-166.835190,-165.641739,12.000000,40.000000,0.000000,0.000000,-159.999863,-160.000000,0.896346,0.000553,0.006965,246.991150,95.885666,0.079728,-2.434703,-1652.585693,0.000000
0.000000,0.000000,0.000000,0.000000,0.000000,0.000000,0.000000,0.000000,0,0,0,0,0,0,30.7693339152,34.6531471585,0.896358,-0.615333,8.887967,66.926170,36.010353,2.197956,1.143967,0.000133,7.491366,-169.513702,-168.320267,12.000000,40.000000,0.000000,0.000000,-169.999863,-170.000000,0.896358,0.000542,0.007936,246.991150,95.809204,0.079753,-2.437894,-1653.300903,0.000000
0.000000,0.000000,0.000000,0.000000,0.000000,0.000000,0.000000,0.000000,0,0,0,0,0,0,30.7693339152,34.6531471585,0.896372,-0.615417,8.888020,66.926155,37.064400,2.208496,1.144079,0.000145,7.510511,-172.212311,-171.018875,12.000000,40.000000,0.000000,0.000000,-169.999863,-170.000000,0.896372,0.000531,0.008605,246.991150,95.672279,0.079775,-2.440929,-1654.750244,0.000000
0.000000,0.000000,0.000000,0.000000,0.000000,0.000000,0.000000,0.000000,0,0,0,0,0,0,30.7693339152,34.6531471585,0.896387,-0.615508,8.888078,66.926147,38.108150,2.219778,1.155109,0.000156,7.516319,-174.918015,-173.724564,12.000000,40.000000,0.000000,0.000000,-169.999863,-170.000000,0.896387,0.000521,0.009108,246.991150,95.476372,0.079800,-2.443816,-1656.377441,0.000000
0.000000,0.000000,0.000000,0.000000,0.000000,0.000000,0.000000,0.000000,0,0,0,0,0,0,30.7693339152,34.6531471585,0.896404,-0.615612,8.888144,66.926125,39.226578,2.232821,1.149221,0.000167,7.496332,-177.886597,-176.693146,12.000000,40.000000,0.000000,0.000000,-169.999863,-170.000000,0.896404,0.000509,0.009945,246.991150,95.199379,0.079822,-2.446784,-1659.443970,0.000000
0.000000,0.000000,0.000000,0.000000,0.000000,0.000000,0.000000,0.000000,0,0,0,0,0,0,30.7693339152,34.6531471584,0.896420,-0.615705,8.888205,66.926117,40.162567,2.244517,1.158783,0.000175,7.481551,-180.355118,-179.161667,12.000000,40.000000,0.000000,0.000000,-179.999863,-180.000000,0.896420,0.000500,0.010380,246.991150,94.913902,0.079843,-2.449173,-1660.193481,0.000000
0.000000,0.000000,0.000000,0.000000,0.000000,0.000000,0.000000,0.000000,0,0,0,0,0,0,30.7693339152,34.6531471584,0.896439,-0.615821,8.888279,66.926094,41.255901,2.259104,1.163610,0.000186,7.534656,-183.308350,-182.114914,12.000000,40.000000,0.000000,0.000000,-179.999863,-180.000000,0.896439,0.000489,0.010949,246.991150,94.518044,0.079866,-2.451859,-1662.418579,0.000000
0.000000,0.000000,0.000000,0.000000,0.000000,0.000000,0.000000,0.000000,0,0,0,0,0,0,30.7693339153,34.6531471584,0.896456,-0.615923,8.888345,66.926079,42.169800,2.272080,1.156726,0.000194,7.494461,-185.764374,-184.570923,12.000000,40.000000,0.000000,0.000000,-179.999863,-180.000000,0.896456,0.000480,0.011451,246.991150,94.135208,0.079886,-2.454020,-1662.500122,0.000000
0.000000,0.000000,0.000000,0.000000,0.000000,0.000000,0.000000,0.000000,0,0,0,0,0,0,30.7693339153,34.6531471584,0.896477,-0.616050,8.888428,66.926064,43.236229,2.288153,1.157775,0.000204,7.537569,-188.724426,-187.530991,12.000000,40.000000,0.000000,0.000000,-189.999863,-190.000000,0.896477,0.000470,0.012054,246.991150,93.628265,0.079906,-2.456449,-1664.815552,0.000000
0.000000,0.000000,0.000000,0.000000,0.000000,0.000000,0.000000,0.000000,0,0,0,0,0,0,30.7693339153,34.6531471583,0.896498,-0.616176,8.888509,66.926041,44.207119,2.303685,1.161264,0.000218,7.342580,-191.526382,-190.332947,12.000000,40.000000,0.000000,0.000000,-189.999863,-190.000000,0.896498,0.000461,0.012925,246.991150,93.109909,0.079923,-2.458577,-1669.375610,0.000000
0.000000,0.000000,0.000000,0.000000,0.000000,0.000000,0.000000,0.000000,0,0,0,0,0,0,30.7693339153,34.6531471583,0.896520,-0.616303,8.888593,66.926018,45.164783,2.319870,1.151294,0.000222,7.438308,-194.145920,-192.952469,12.000000,40.000000,0.000000,0.000000,-189.999863,-190.000000,0.896520,0.000452,0.013326,246.991150,92.545197,0.079938,-2.460602,-1666.695801,0.000000
0.000000,0.000000,0.000000,0.000000,0.000000,0.000000,0.000000,0.000000,0,0,0,0,0,0,30.7693339153,34.6531471583,0.896542,-0.616437,8.888680,66.926003,46.108986,2.336695,1.159316,0.000231,7.483547,-196.831848,-195.638397,12.000000,40.000000,0.000000,0.000000,-189.999863,-190.000000,0.896542,0.000443,0.013561,246.991150,91.936180,0.079953,-2.462527,-1666.740234,0.000000
0.000000,0.000000,0.000000,0.000000,0.000000,0.000000,0.000000,0.000000,0,0,0,0,0,0,30.7693339153,34.6531471583,0.896566,-0.616575,8.888771,66.925980,47.039429,2.354146,1.156067,0.000240,7.497529,-199.533234,-198.339783,12.000000,40.000000,0.000000,0.000000,-199.999863,-200.000000,0.896566,0.000434,0.014197,246.991150,91.284927,0.079966,-2.464358,-1667.375610,0.000000
0.000000,0.000000,0.000000,0.000000,0.000000,0.000000,0.000000,0.000000,0,0,0,0,0,0,30.7693339154,34.6531471582,0.896590,-0.616719,8.888866,66.925957,47.955971,2.372208,1.152922,0.000250,7.501281,-202.240067,-201.046631,12.000000,40.000000,0.000000,0.000000,-199.999863,-200.000000,0.896590,0.000425,0.014934,246.991150,90.593582,0.079982,-2.466100,-1668.175903,0.000000
0.000000,0.000000,0.000000,0.000000,0.000000,0.000000,0.000000,0.000000,0,0,0,0,0,0,30.7693339154,34.6531471582,0.896615,-0.616869,8.888965,66.925934,48.858494,2.390871,1.160996,0.000261,7.501417,-204.948853,-203.755402,12.000000,40.000000,0.000000,0.000000,-199.999863,-200.000000,0.896615,0.000417,0.015335,246.991150,89.864296,0.079998,-2.467757,-1668.994019,0.000000
0.000000,0.000000,0.000000,0.000000,0.000000,0.000000,0.000000,0.000000,0,0,0,0,0,0,30.7693339154,34.6531471582,0.896642,-0.617025,8.889067,66.925911,49.746819,2.410117,1.158112,0.000272,7.500254,-207.658325,-206.464874,12.000000,40.000000,0.000000,0.000000,-199.999863,-200.000000,0.896642,0.000409,0.016106,246.991150,89.099274,0.080016,-2.469332,-1669.780884,0.000000
0.000000,0.000000,0.000000,0.000000,0.000000,0.000000,0.000000,0.000000,0,0,0,0,0,0,30.7693339154,34.6531471581,0.896669,-0.617187,8.889173,66.925880,50.620899,2.429935,1.157545,0.000281,7.498607,-210.368057,-209.174606,12.000000,40.000000,0.000000,0.000000,-209.999863,-210.000000,0.896669,0.000401,0.016708,246.991150,88.300735,0.080035,-2.470831,-1670.521606,0.000000
0.000000,0.000000,0.000000,0.000000,0.000000,0.000000,0.000000,0.000000,0,0,0,0,0,0,30.7693339154,34.6531471581,0.896697,-0.617355,8.889282,66.925858,51.480652,2.450310,1.155677,0.000293,7.496764,-213.077896,-211.884460,12.000000,40.000000,0.000000,0.000000,-209.999863,-210.000000,0.896697,0.000393,0.017411,246.991150,87.470932,0.080051,-2.472257,-1671.213013,0.000000
0.000000,0.000000,0.000000,0.000000,0.000000,0.000000,0.000000,0.000000,0,0,0,0,0,0,30.7693339155,34.6531471580,0.896727,-0.617529,8.889398,66.925835,52.326096,2.471229,1.156572,0.000301,7.494825,-215.787796,-214.594345,12.000000,40.000000,0.000000,0.000000,-209.999863,-210.000000,0.896727,0.000385,0.017780,246.991150,86.612122,0.080075,-2.473613,-1671.856201,0.000000
0.000000,0.000000,0.000000,0.000000,0.000000,0.000000,0.000000,0.000000,0,0,0,0,0,0,30.7693339155,34.6531471580,0.896757,-0.617713,8.889518,66.925804,53.157154,2.492677,1.158175,0.000317,7.346510,-218.612457,-217.419022,12.000000,40.000000,0.000000,0.000000,-209.999863,-210.000000,0.896757,0.000377,0.018952,246.991150,85.726593,0.080097,-2.474902,-1676.769287,0.000000
0.000000,0.000000,0.000000,0.000000,0.000000,0.000000,0.000000,0.000000,0,0,0,0,0,0,30.7693339155,34.6531471580,0.896789,-0.617898,8.889640,66.925774,53.973957,2.514643,1.161519,0.000323,7.427571,-221.240128,-220.046692,12.000000,40.000000,0.000000,0.000000,-219.999863,-220.000000,0.896789,0.000370,0.019153,246.991150,84.816620,0.080121,-2.476129,-1673.886719,0.000000
0.000000,0.000000,0.000000,0.000000,0.000000,0.000000,0.000000,0.000000,0,0,0,0,0,0,30.7693339155,34.6531471579,0.896821,-0.618088,8.889766,66.925743,54.776432,2.537110,1.155393,0.000330,7.467247,-223.929108,-222.735657,12.000000,40.000000,0.000000,0.000000,-219.999863,-220.000000,0.896821,0.000362,0.019655,246.991150,83.884491,0.080142,-2.477295,-1673.531372,0.000000
0.000000,0.000000,0.000000,0.000000,0.000000,0.000000,0.000000,0.000000,0,0,0,0,0,0,30.7693339155,34.6531471579,0.896855,-0.618284,8.889894,66.925713,55.564713,2.560068,1.159935,0.000342,7.479020,-226.631714,-225.438278,12.000000,40.000000,0.000000,0.000000,-219.999863,-220.000000,0.896855,0.000355,0.020224,246.991150,82.932495,0.080163,-2.478405,-1673.719971,0.000000
0.000000,0.000000,0.000000,0.000000,0.000000,0.000000,0.000000,0.000000,0,0,0,0,0,0,30.7693339156,34.6531471578,0.896889,-0.618486,8.890029,66.925682,56.338833,2.583503,1.158734,0.000353,7.481730,-229.339157,-228.145706,12.000000,40.000000,0.000000,0.000000,-229.999863,-230.000000,0.896889,0.000348,0.021028,246.991150,81.962906,0.080186,-2.479460,-1674.076538,0.000000
0.000000,0.000000,0.000000,0.000000,0.000000,0.000000,0.000000,0.000000,0,0,0,0,0,0,30.7693339156,34.6531471578,0.896924,-0.618695,8.890167,66.925652,57.098934,2.607402,1.159873,0.000364,7.481235,-232.048294,-230.854858,12.000000,40.000000,0.000000,0.000000,-229.999863,-230.000000,0.896924,0.000341,0.021430,246.991150,80.978012,0.080209,-2.480464,-1674.470337,0.000000
0.000000,0.000000,0.000000,0.000000,0.000000,0.000000,0.000000,0.000000,0,0,0,0,0,0,30.7693339156,34.6531471578,0.896961,-0.618909,8.890309,66.925621,57.845123,2.631752,1.157316,0.000374,7.479584,-234.758072,-233.564621,12.000000,40.000000,0.000000,0.000000,-229.999863,-230.000000,0.896961,0.000335,0.022300,246.991150,79.980049,0.080232,-2.481419,-1674.856689,0.000000
0.000000,0.000000,0.000000,0.000000,0.000000,0.000000,0.000000,0.000000,0,0,0,0,0,0,30.7693339157,34.6531471577,0.896998,-0.619116,8.890452,66.925583,58.503445,2.633508,1.194882,0.000353,7.477859,-237.467758,-236.274307,12.000000,40.000000,0.000000,0.000000,-229.999863,-230.000000,0.896998,0.000328,0.021095,246.991150,78.971260,0.080271,-2.482327,-1675.208618,0.000000
0.000000,0.000000,0.000000,0.000000,0.000000,0.000000,0.000000,0.000000,0,0,0,0,0,0,30.7693339157,34.6531471577,0.897028,-0.619268,8.890572,66.925560,59.142231,2.629349,1.216438,0.000258,7.476758,-240.177048,-238.983612,12.000000,40.000000,0.000000,0.000000,-239.999863,-240.000000,0.897028,0.000321,0.015469,246.991150,77.953857,0.080324,-2.483190,-1675.516846,0.000000
0.000000,0.000000,0.000000,0.000000,0.000000,0.000000,0.000000,0.000000,0,0,0,0,0,0,30.7693339157,34.6531471576,0.897048,-0.619362,8.890651,66.925545,59.782963,2.625514,1.228494,0.000156,7.475923,-242.886215,-241.692780,12.000000,40.000000,0.000000,0.000000,-239.999863,-240.000000,0.897048,0.000315,0.009308,246.991150,76.930038,0.080369,-2.484012,-1675.793823,0.000000
0.000000,0.000000,0.000000,0.000000,0.000000,0.000000,0.000000,0.000000,0,0,0,0,0,0,30.7693339157,34.6531471576,0.897060,-0.619412,8.890696,66.925537,60.425385,2.622005,1.241371,0.000077,7.328567,-245.710037,-244.516586,12.000000,40.000000,0.000000,0.000000,-239.999863,-240.000000,0.897060,0.000309,0.004688,246.991150,75.901947,0.080409,-2.484793,-1680.350708,0.000000
0.000000,0.000000,0.000000,0.000000,0.000000,0.000000,0.000000,0.000000,0,0,0,0,0,0,30.7693339157,34.6531471576,0.897064,-0.619433,8.890715,66.925537,61.069328,2.618823,1.202061,0.000026,7.410949,-248.337616,-247.144165,12.000000,40.000000,0.000000,0.000000,-239.999863,-240.000000,0.897064,0.000303,0.001540,246.991150,74.871712,0.080441,-2.485536,-1677.181641,0.000000
0.000000,0.000000,0.000000,0.000000,0.000000,0.000000,0.000000,0.000000,0,0,0,0,0,0,30.7693339157,34.6531471576,0.897065,-0.619440,8.890720,66.925537,61.714680,2.615971,0.323173,0.000001,7.451811,-251.025253,-249.831802,12.000000,40.000000,0.000000,0.000000,-249.999863,-250.000000,0.897065,0.000297,0.000033,246.991150,73.841408,0.080467,-2.486243,-1676.502563,0.000000
0.000000,0.000000,0.000000,0.000000,0.000000,0.000000,0.000000,0.000000,0,0,0,0,0,0,30.7693339157,34.6531471576,0.897065,-0.619442,8.890719,66.925537,62.361305,2.613451,-1.451612,-0.000007,7.465328,-253.726807,-252.533371,12.000000,40.000000,0.000000,0.000000,-249.999863,-250.000000,0.897065,0.000291,-0.000469,246.991150,72.813087,0.080489,-2.486916,-1676.397095,0.000000
0.000000,0.000000,0.000000,0.000000,0.000000,0.000000,0.000000,0.000000,0,0,0,0,0,0,30.7693339157,34.6531471576,0.897064,-0.619442,8.890718,66.925537,63.009090,2.611264,-1.471248,-0.000008,7.558156,-256.493866,-255.300430,12.000000,40.000000,0.000000,0.000000,-249.999863,-250.000000,0.897064,0.000285,-0.000502,246.991150,71.788750,0.080507,-2.487555,-1678.866821,0.000000
0.000000,0.000000,0.000000,0.000000,0.000000,0.000000,0.000000,0.000000,0,0,0,0,0,0,30.7693339157,34.6531471576,0.897064,-0.619444,8.890718,66.925537,63.657867,2.609409,0.004543,0.000000,7.424989,-259.149414,-257.955963,12.000000,40.000000,0.000000,0.000000,-259.999847,-260.000000,0.897064,0.000279,0.000000,246.991150,70.770332,0.080524,-2.488163,-1676.818604,0.000000
0.000000,0.000000,0.000000,0.000000,0.000000,0.000000,0.000000,0.000000,0,0,0,0,0,0,30.7693339157,34.6531471576,0.897064,-0.619451,8.890719,66.925537,64.307495,2.607891,0.926204,0.000008,7.465081,-261.853058,-260.659637,12.000000,40.000000,0.000000,0.000000,-259.999847,-260.000000,0.897064,0.000274,0.000469,246.991150,69.759750,0.080538,-2.488742,-1676.753906,0.000000
0.000000,0.000000,0.000000,0.000000,0.000000,0.000000,0.000000,0.000000,0,0,0,0,0,0,30.7693339157,34.6531471576,0.897065,-0.619460,8.890723,66.925529,64.957809,2.606708,1.021028,0.000014,7.468181,-264.560272,-263.366821,12.000000,40.000000,0.000000,0.000000,-259.999847,-260.000000,0.897065,0.000268,0.000804,246.991150,68.758850,0.080550,-2.489292,-1676.823975,0.000000
0.000000,0.000000,0.000000,0.000000,0.000000,0.000000,0.000000,0.000000,0,0,0,0,0,0,30.7693339157,34.6531471576,0.897067,-0.619473,8.890731,66.925529,65.608658,2.605862,1.086252,0.000020,7.468724,-267.268738,-266.075287,12.000000,40.000000,0.000000,0.000000,-259.999847,-260.000000,0.897067,0.000263,0.001205,246.991150,67.769409,0.080562,-2.489815,-1676.931152,0.000000
0.000000,0.000000,0.000000,0.000000,0.000000,0.000000,0.000000,0.000000,0,0,0,0,0,0,30.7693339157,34.6531471576,0.897069,-0.619489,8.890740,66.925529,66.259850,2.605353,1.130006,0.000027,7.468435,-269.977631,-268.784180,12.000000,40.000000,0.000000,0.000000,-269.999847,-270.000000,0.897069,0.000258,0.001507,246.991150,66.793175,0.080575,-2.490313,-1677.041992,0.000000
0.000000,0.000000,0.000000,0.000000,0.000000,0.000000,0.000000,0.000000,0,0,0,0,0,0,30.7693339157,34.6531471576,0.897072,-0.619510,8.890753,66.925522,66.911217,2.605179,1.103997,0.000034,7.321085,-272.801392,-271.607941,12.000000,40.000000,0.000000,0.000000,-269.999847,-270.000000,0.897072,0.000253,0.002076,246.991150,65.831818,0.080585,-2.490786,-1681.447998,0.000000
0.000000,0.000000,0.000000,0.000000,0.000000,0.000000,0.000000,0.000000,0,0,0,0,0,0,30.7693339157,34.6531471576,0.897076,-0.619534,8.890767,66.925522,67.562607,2.605344,1.108349,0.000038,7.403176,-275.426727,-274.233276,12.000000,40.000000,0.000000,0.000000,-269.999847,-270.000000,0.897076,0.000248,0.002277,246.991150,64.886940,0.080595,-2.491236,-1678.050537,0.000000
0.000000,0.000000,0.000000,0.000000,0.000000,0.000000,0.000000,0.000000,0,0,0,0,0,0,30.7693339157,34.6531471576,0.897080,-0.619560,8.890783,66.925514,68.213860,2.605845,1.106175,0.000042,7.445914,-278.115814,-276.922363,12.000000,40.000000,0.000000,0.000000,-269.999847,-270.000000,0.897080,0.000243,0.002511,246.991150,63.960094,0.080602,-2.491665,-1677.306396,0.000000
0.000000,0.000000,0.000000,0.000000,0.000000,0.000000,0.000000,0.000000,0,0,0,0,0,0,30.7693339157,34.6531471576,0.897084,-0.619588,8.890800,66.925514,68.864777,2.606684,1.143819,0.000047,7.458486,-280.817902,-279.624451,12.000000,40.000000,0.000000,0.000000,-279.999847,-280.000000,0.897084,0.000238,0.002779,246.991150,63.052757,0.080612,-2.492072,-1677.103882,0.000000
0.000000,0.000000,0.000000,0.000000,0.000000,0.000000,0.000000,0.000000,0,0,0,0,0,0,30.7693339157,34.6531471576,0.897089,-0.619618,8.890821,66.925507,69.515205,2.607858,1.143184,0.000052,7.462402,-283.524567,-282.331116,12.000000,40.000000,0.000000,0.000000,-279.999847,-280.000000,0.897089,0.000233,0.003014,246.991150,62.166344,0.080622,-2.492460,-1677.083862,0.000000
0.000000,0.000000,0.000000,0.000000,0.000000,0.000000,0.000000,0.000000,0,0,0,0,0,0,30.7693339157,34.6531471576,0.897095,-0.619652,8.890841,66.925507,70.164955,2.609368,1.131382,0.000057,7.463286,-286.232849,-285.039398,12.000000,40.000000,0.000000,0.000000,-279.999847,-280.000000,0.897095,0.000229,0.003382,246.991150,61.302189,0.080629,-2.492828,-1677.120728,0.000000
0.000000,0.000000,0.000000,0.000000,0.000000,0.000000,0.000000,0.000000,0,0,0,0,0,0,30.7693339157,34.6531471576,0.897100,-0.619689,8.890863,66.925499,70.813889,2.611214,1.134444,0.000060,7.463102,-288.941681,-287.748230,12.000000,40.000000,0.000000,0.000000,-289.999847,-290.000000,0.897100,0.000224,0.003516,246.991150,60.461571,0.080636,-2.493179,-1677.170532,0.000000
0.000000,0.000000,0.000000,0.000000,0.000000,0.000000,0.000000,0.000000,0,0,0,0,0,0,30.7693339157,34.6531471576,0.897107,-0.619727,8.890887,66.925491,71.461823,2.613396,1.151051,0.000066,7.462539,-291.650726,-290.457275,12.000000,40.000000,0.000000,0.000000,-289.999847,-290.000000,0.897107,0.000220,0.003817,246.991150,59.645683,0.080645,-2.493512,-1677.218262,0.000000
0.000000,0.000000,0.000000,0.000000,0.000000,0.000000,0.000000,0.000000,0,0,0,0,0,0,30.7693339157,34.6531471576,0.897113,-0.619769,8.890913,66.925484,72.108589,2.615911,1.140302,0.000070,7.461840,-294.359833,-293.166382,12.000000,40.000000,0.000000,0.000000,-289.999847,-290.000000,0.897113,0.000215,0.004353,246.991150,58.855656,0.080650,-2.493829,-1677.259033,0.000000
0.000000,0.000000,0.000000,0.000000,0.000000,0.000000,0.000000,0.000000,0,0,0,0,0,0,30.7693339157,34.6531471575,0.897120,-0.619814,8.890941,66.925476,72.754021,2.618759,1.135393,0.000075,7.461092,-297.068970,-295.875549,12.000000,40.000000,0.000000,0.000000,-289.999847,-290.000000,0.897120,0.000211,0.004420,246.991150,58.092541,0.080655,-2.494131,-1677.291626,0.000000
0.000000,0.000000,0.000000,0.000000,0.000000,0.000000,0.000000,0.000000,0,0,0,0,0,0,30.7693339157,34.6531471575,0.897128,-0.619863,8.890970,66.925468,73.397980,2.621940,1.159880,0.000080,7.245851,-299.943176,-298.749725,12.000000,40.000000,0.000000,0.000000,-299.999847,-300.000000,0.897128,0.000207,0.004688,246.991150,57.357319,0.080666,-2.494417,-1683.515381,0.000000
0.000000,0.000000,0.000000,0.000000,0.000000,0.000000,0.000000,0.000000,0,0,0,0,0,0,30.7693339157,34.6531471575,0.897136,-0.619912,8.891002,66.925461,74.040276,2.625451,1.145192,0.000083,7.361485,-302.536591,-301.343140,12.000000,40.000000,0.000000,0.000000,-299.999847,-300.000000,0.897136,0.000203,0.004922,246.991150,56.650890,0.080675,-2.494690,-1678.696533,0.000000
0.000000,0.000000,0.000000,0.000000,0.000000,0.000000,0.000000,0.000000,0,0,0,0,0,0,30.7693339158,34.6531471575,0.897145,-0.619964,8.891033,66.925453,74.680771,2.629292,1.137530,0.000085,7.426010,-305.213806,-304.020355,12.000000,40.000000,0.000000,0.000000,-299.999847,-300.000000,0.897145,0.000199,0.005090,246.991150,55.974087,0.080682,-2.494950,-1677.386353,0.000000
0.000000,0.000000,0.000000,0.000000,0.000000,0.000000,0.000000,0.000000,0,0,0,0,0,0,30.7693339158,34.6531471575,0.897153,-0.620018,8.891067,66.925446,75.319290,2.633461,1.139584,0.000090,7.446471,-307.911713,-306.718292,12.000000,40.000000,0.000000,0.000000,-299.999847,-300.000000,0.897153,0.000195,0.005223,246.991150,55.327663,0.080688,-2.495197,-1676.950439,0.000000
0.000000,0.000000,0.000000,0.000000,0.000000,0.000000,0.000000,0.000000,0,0,0,0,0,0,30.7693339158,34.6531471575,0.897162,-0.620076,8.891102,66.925438,75.955688,2.637957,1.129436,0.000094,7.453133,-310.616943,-309.423492,12.000000,40.000000,0.000000,0.000000,-309.999847,-310.000000,0.897162,0.000191,0.005491,246.991150,54.712296,0.080697,-2.495431,-1676.816650,0.000000
0.000000,0.000000,0.000000,0.000000,0.000000,0.000000,0.000000,0.000000,0,0,0,0,0,0,30.7693339158,34.6531471575,0.897172,-0.620136,8.891138,66.925430,76.589821,2.642778,1.137970,0.000098,7.454958,-313.324707,-312.131256,12.000000,40.000000,0.000000,0.000000,-309.999847,-310.000000,0.897172,0.000187,0.005893,246.991150,54.128590,0.080700,-2.495655,-1676.783691,0.000000
0.000000,0.000000,0.000000,0.000000,0.000000,0.000000,0.000000,0.000000,0,0,0,0,0,0,30.7693339158,34.6531471575,0.897182,-0.620198,8.891175,66.925423,77.221527,2.647923,1.143393,0.000102,7.455081,-316.033386,-314.839935,12.000000,40.000000,0.000000,0.000000,-309.999847,-310.000000,0.897182,0.000184,0.006027,246.991150,53.577072,0.080710,-2.495867,-1676.781128,0.000000
0.000000,0.000000,0.000000,0.000000,0.000000,0.000000,0.000000,0.000000,0,0,0,0,0,0,30.7693339158,34.6531471575,0.897192,-0.620263,8.891213,66.925407,77.850662,2.653389,1.141395,0.000105,7.454602,-318.742401,-317.548950,12.000000,40.000000,0.000000,0.000000,-319.999847,-320.000000,0.897192,0.000180,0.006362,246.991150,53.058205,0.080720,-2.496069,-1676.784302,0.000000
0.000000,0.000000,0.000000,0.000000,0.000000,0.000000,0.000000,0.000000,0,0,0,0,0,0,30.7693339158,34.6531471574,0.897203,-0.620330,8.891253,66.925400,78.477074,2.659175,1.142653,0.000108,7.453909,-321.451508,-320.258057,12.000000,40.000000,0.000000,0.000000,-319.999847,-320.000000,0.897203,0.000176,0.006362,246.991150,52.572361,0.080726,-2.496261,-1676.784912,0.000000
0.000000,0.000000,0.000000,0.000000,0.000000,0.000000,0.000000,0.000000,0,0,0,0,0,0,30.7693339158,34.6531471574,0.897214,-0.620399,8.891294,66.925385,79.100616,2.665278,1.146279,0.000111,7.453138,-324.160645,-322.967224,12.000000,40.000000,0.000000,0.000000,-319.999847,-320.000000,0.897214,0.000173,0.006496,246.991150,52.119854,0.080735,-2.496444,-1676.780396,0.000000
0.000000,0.000000,0.000000,0.000000,0.000000,0.000000,0.000000,0.000000,0,0,0,0,0,0,30.7693339158,34.6531471574,0.897225,-0.620473,8.891335,66.925377,79.721161,2.671699,1.155105,0.000116,7.206908,-327.033417,-325.839996,12.000000,40.000000,0.000000,0.000000,-319.999847,-320.000000,0.897225,0.000169,0.006831,246.991150,51.700920,0.080748,-2.496618,-1682.910400,0.000000
0.000000,0.000000,0.000000,0.000000,0.000000,0.000000,0.000000,0.000000,0,0,0,0,0,0,30.7693339158,34.6531471574,0.897236,-0.620546,8.891376,66.925369,80.338539,2.678436,1.138626,0.000115,7.354570,-329.627136,-328.433685,12.000000,40.000000,0.000000,0.000000,-329.999847,-330.000000,0.897236,0.000166,0.006898,246.991150,51.315720,0.080759,-2.496783,-1678.069336,0.000000
0.000000,0.000000,0.000000,0.000000,0.000000,0.000000,0.000000,0.000000,0,0,0,0,0,0,30.7693339158,34.6531471574,0.897248,-0.620620,8.891418,66.925354,80.952621,2.685484,1.125084,0.000114,7.418684,-332.305115,-331.111694,12.000000,40.000000,0.000000,0.000000,-329.999847,-330.000000,0.897248,0.000163,0.006931,246.991150,50.964348,0.080766,-2.496940,-1676.760498,0.000000
0.000000,0.000000,0.000000,0.000000,0.000000,0.000000,0.000000,0.000000,0,0,0,0,0,0,30.7693339158,34.6531471574,0.897259,-0.620695,8.891459,66.925346,81.563255,2.692842,1.129840,0.000115,7.438635,-335.003326,-333.809875,12.000000,40.000000,0.000000,0.000000,-329.999847,-330.000000,0.897259,0.000160,0.006965,246.991150,50.646839,0.080775,-2.497090,-1676.307495,0.000000
0.000000,0.000000,0.000000,0.000000,0.000000,0.000000,0.000000,0.000000,0,0,0,0,0,0,30.7693339159,34.6531471574,0.897271,-0.620772,8.891498,66.925331,82.170288,2.700505,1.136186,0.000116,7.445091,-337.708649,-336.515198,12.000000,40.000000,0.000000,0.000000,-329.999847,-330.000000,0.897271,0.000156,0.006898,246.991150,50.363140,0.080785,-2.497232,-1676.151123,0.000000
0.000000,0.000000,0.000000,0.000000,0.000000,0.000000,0.000000,0.000000,0,0,0,0,0,0,30.7693339159,34.6531471573,0.897282,-0.620849,8.891536,66.925316,82.773560,2.708472,1.131418,0.000114,7.446821,-340.416473,-339.223053,12.000000,40.000000,0.000000,0.000000,-339.999847,-340.000000,0.897282,0.000153,0.006797,246.991150,50.113152,0.080793,-2.497367,-1676.094727,0.000000
0.000000,0.000000,0.000000,0.000000,0.000000,0.000000,0.000000,0.000000,0,0,0,0,0,0,30.7693339159,34.6531471573,0.897293,-0.620927,8.891572,66.925308,83.372894,2.716738,1.111605,0.000110,7.446886,-343.125183,-341.931763,12.000000,40.000000,0.000000,0.000000,-339.999847,-340.000000,0.897293,0.000150,0.006663,246.991150,49.896694,0.080803,-2.497496,-1676.069336,0.000000
0.000000,0.000000,0.000000,0.000000,0.000000,0.000000,0.000000,0.000000,0,0,0,0,0,0,30.7693339159,34.6531471573,0.897304,-0.621005,8.891604,66.925293,83.968086,2.725306,1.112843,0.000104,7.446362,-345.834229,-344.640778,12.000000,40.000000,0.000000,0.000000,-339.999847,-340.000000,0.897304,0.000147,0.006194,246.991150,49.713539,0.080815,-2.497618,-1676.051025,0.000000
0.000000,0.000000,0.000000,0.000000,0.000000,0.000000,0.000000,0.000000,0,0,0,0,0,0,30.7693339159,34.6531471573,0.897314,-0.621080,8.891633,66.925285,84.558899,2.734167,1.089132,0.000094,7.445630,-348.543365,-347.349915,12.000000,40.000000,0.000000,0.000000,-339.999847,-340.000000,0.897314,0.000144,0.005793,246.991150,49.563385,0.080825,-2.497735,-1676.031372,0.000000
0.000000,0.000000,0.000000,0.000000,0.000000,0.000000,0.000000,0.000000,0,0,0,0,0,0,30.7693339159,34.6531471573,0.897323,-0.621152,8.891654,66.925270,85.145050,2.743323,1.061053,0.000082,7.444821,-351.252533,-350.059082,12.000000,40.000000,0.000000,0.000000,-349.999847,-350.000000,0.897323,0.000141,0.004956,246.991150,49.445877,0.080838,-2.497845,-1676.007813,0.000000
0.000000,0.000000,0.000000,0.000000,0.000000,0.000000,0.000000,0.000000,0,0,0,0,0,0,30.7693339159,34.6531471573,0.897330,-0.621218,8.891665,66.925262,85.677917,2.751969,0.983056,0.000063,7.276155,-353.924255,-352.730804,12.000000,40.000000,0.000000,0.000000,-349.999847,-350.000000,0.897330,0.000139,0.004018,246.991150,49.366489,0.080857,-2.497942,-1683.146729,0.000000
0.000000,0.000000,0.000000,0.000000,0.000000,0.000000,0.000000,0.000000,0,0,0,0,0,0,30.7693339161,34.6531471571,0.897379,-0.622494,8.891782,66.925064,86.298134,2.761368,0.768148,0.001962,7.330186,-356.715454,-355.522003,12.000000,40.000000,0.000000,0.000000,-349.999847,-350.000000,0.897379,0.000136,0.119838,246.991150,49.307087,0.080674,-2.498051,-1677.108276,0.000000
0.000000,0.000000,0.000000,0.000000,0.000000,0.000000,0.000000,0.000000,0,0,0,0,0,0,30.7693339166,34.6531471566,0.897712,-0.625644,8.892963,66.924583,86.866486,2.771494,1.115893,0.004178,7.412283,-359.395660,-358.202209,12.000000,40.000000,0.000000,0.000000,-359.999847,-360.000000,0.897712,0.000133,0.247310,246.991150,49.284813,0.080791,-2.498146,-1675.877808,0.000000
0.000000,0.000000,0.000000,0.000000,0.000000,0.000000,0.000000,0.000000,0,0,0,0,0,0,30.7693339169,34.6531471561,0.898135,-0.628290,8.894523,66.924179,87.428749,2.782018,1.181104,0.004127,7.430610,-362.094421,-360.900970,12.000000,40.000000,0.000000,0.000000,-359.999847,-360.000000,0.898135,0.000131,0.246540,246.991150,49.293209,0.081054,-2.498237,-1675.434326,0.000000
0.000000,0.000000,0.000000,0.000000,0.000000,0.000000,0.000000,0.000000,0,0,0,0,0,0,30.7693339172,34.6531471557,0.898501,-0.630261,8.895885,66.923874,87.979279,2.792828,1.201723,0.003187,7.436440,-364.799713,-363.606293,12.000000,40.000000,0.000000,0.000000,-359.999847,-360.000000,0.898501,0.000128,0.191962,246.991150,49.331650,0.081340,-2.498323,-1675.264282,0.000000
0.000000,0.000000,0.000000,0.000000,0.000000,0.000000,0.000000,0.000000,0,0,0,0,0,0,30.7693339173,34.6531471554,0.898761,-0.631596,8.896863,66.923668,88.508728,2.803877,1.205848,0.002090,7.438003,-367.507385,-366.313934,12.000000,40.000000,0.000000,0.000000,-359.999847,-360.000000,0.898761,0.000125,0.126936,246.991150,49.399475,0.081604,-2.498405,-1675.189209,0.000000
0.000000,0.000000,0.000000,0.000000,0.000000,0.000000,0.000000,0.000000,0,0,0,0,0,0,30.7693339174,34.6531471552,0.898919,-0.632420,8.897452,66.923538,88.991661,2.815153,1.192968,0.001119,7.438069,-370.215912,-369.022461,12.000000,40.000000,0.000000,0.000000,-369.999847,-370.000000,0.898919,0.000123,0.068976,246.991150,49.495968,0.081829,-2.498483,-1675.146973,0.000000
0.000000,0.000000,0.000000,0.000000,0.000000,0.000000,0.000000,0.000000,0,0,0,0,0,0,30.7693339175,34.6531471551,0.898987,-0.632851,8.897689,66.923477,89.332458,2.826666,1.055248,0.000280,7.437598,-372.924835,-371.731384,12.000000,40.000000,0.000000,0.000000,-369.999847,-370.000000,0.898987,0.000121,0.019354,246.991150,49.620369,0.082019,-2.498557,-1675.115234,0.000000
0.000000,0.000000,0.000000,0.000000,0.000000,0.000000,0.000000,0.000000,0,0,0,0,0,0,30.7693339175,34.6531471551,0.898983,-0.632962,8.897562,66.923462,89.297897,2.838438,-0.551704,-0.000221,7.436923,-375.633942,-374.440491,12.000000,40.000000,0.000000,0.000000,-369.999847,-370.000000,0.898983,0.000118,-0.021496,246.991150,49.771877,0.082190,-2.498627,-1675.085815,0.000000
0.000000,0.000000,0.000000,0.000000,0.000000,0.000000,0.000000,0.000000,0,0,0,0,0,0,30.7693339175,34.6531471552,0.898998,-0.632831,8.897025,66.923477,88.941727,2.850374,1.241643,0.000698,7.436111,-378.343140,-377.149689,12.000000,40.000000,0.000000,0.000000,-369.999847,-370.000000,0.898998,0.000116,0.036598,246.991150,49.949657,0.082380,-2.498694,-1675.055176,0.000000
0.000000,0.000000,0.000000,0.000000,0.000000,0.000000,0.000000,0.000000,0,0,0,0,0,0,30.7693339175,34.6531471552,0.899143,-0.632957,8.897119,66.923462,88.479134,2.862331,1.382755,0.002030,7.189093,-381.215912,-380.022491,12.000000,40.000000,0.000000,0.000000,-379.999847,-380.000000,0.899143,0.000114,0.119101,246.991150,50.152840,0.082306,-2.498758,-1681.164795,0.000000
0.000000,0.000000,0.000000,0.000000,0.000000,0.000000,0.000000,0.000000,0,0,0,0,0,0,30.7693339176,34.6531471551,0.899355,-0.633491,8.897678,66.923378,87.974518,2.874703,1.324747,0.002077,7.320411,-383.806549,-382.613098,12.000000,40.000000,0.000000,0.000000,-379.999847,-380.000000,0.899355,0.000111,0.124358,246.991150,50.380512,0.082339,-2.498819,-1676.162354,0.000000
0.000000,0.000000,0.000000,0.000000,0.000000,0.000000,0.000000,0.000000,0,0,0,0,0,0,30.7693339176,34.6531471549,0.899533,-0.634022,8.898228,66.923294,87.456764,2.887438,1.315129,0.001449,7.402997,-386.486359,-385.292908,12.000000,40.000000,0.000000,0.000000,-379.999847,-380.000000,0.899533,0.000109,0.088330,246.991150,50.631741,0.082454,-2.498877,-1674.907837,0.000000
0.000000,0.000000,0.000000,0.000000,0.000000,0.000000,0.000000,0.000000,0,0,0,0,0,0,30.7693339177,34.6531471548,0.899637,-0.634349,8.898541,66.923248,86.936958,2.900366,1.328421,0.000679,5.678689,-388.628815,-387.435364,12.000000,40.000000,0.000000,0.000000,-389.999847,-390.000000,0.899637,0.000107,0.042390,246.991150,50.905563,0.082587,-2.498932,-1652.327026,0.000000
0.000000,0.000000,0.000000,0.000000,0.000000,0.000000,0.000000,0.000000,0,0,0,0,0,0,30.7693339177,34.6531471548,0.899670,-0.634451,8.898630,66.923233,86.419388,2.913474,1.391369,0.000013,3.217902,-389.430573,-388.237122,12.000000,40.000000,0.000000,0.000000,-389.999847,-390.000000,0.899670,0.000105,0.002344,246.991150,51.200993,0.082702,-2.498984,-1576.683960,0.000000
0.000000,0.000000,0.000000,0.000000,0.000000,0.000000,0.000000,0.000000,0,0,0,0,0,0,30.7693339177,34.6531471548,0.899653,-0.634394,8.898584,66.923241,85.905861,2.926779,-1.326191,-0.000289,1.588888,-389.713196,-388.519775,12.000000,40.000000,0.000000,0.000000,-389.999847,-390.000000,0.899653,0.000103,-0.016574,246.991150,51.517014,0.082780,-2.499033,-1480.151855,0.000000
0.000000,0.000000,0.000000,0.000000,0.000000,0.000000,0.000000,0.000000,0,0,0,0,0,0,30.7693339176,34.6531471548,0.899621,-0.634261,8.898505,66.923256,85.396515,2.940520,-0.723311,-0.000401,0.109003,-389.813110,-388.619659,12.000000,40.000000,0.000000,0.000000,-389.999847,-390.000000,0.899621,0.000101,-0.024410,246.991150,51.852589,0.083028,-2.499081,-1375.889893,0.000000
0.000000,0.000000,0.000000,0.000000,0.000000,0.000000,0.000000,0.000000,0,0,0,0,0,0,30.7693339174,34.6531471550,0.899504,-0.632923,8.898148,66.923470,84.885338,2.954819,-0.973526,-0.002100,0.000734,-389.848755,-388.655304,12.000000,40.000000,0.000000,0.000000,-389.999847,-390.000000,0.899504,0.000099,-0.120876,246.991150,52.206673,0.083750,-2.499125,-1268.707397,0.000000
0.000000,0.000000,0.000000,0.000000,0.000000,0.000000,0.000000,0.000000,0,0,0,0,0,0,30.7693339171,34.6531471554,0.899208,-0.630547,8.897152,66.923836,84.378983,2.968859,-1.143250,-0.003556,0.000005,-389.861847,-388.668396,12.000000,40.000000,0.000000,0.000000,-389.999847,-390.000000,0.899208,0.000097,-0.210679,246.991150,52.578186,0.083862,-2.499168,-1160.396606,0.000000
0.000000,0.000000,0.000000,0.000000,0.000000,0.000000,0.000000,0.000000,0,0,0,0,0,0,30.7693339168,34.6531471558,0.898861,-0.628501,8.895975,66.924149,83.883331,2.982820,-1.205842,-0.003201,0.000000,-389.867065,-388.673645,12.000000,40.000000,0.000000,0.000000,-389.999847,-390.000000,0.898861,0.000095,-0.192397,246.991150,52.966049,0.083565,-2.499209,-1051.628296,0.000000
0.000000,0.000000,0.000000,0.000000,0.000000,0.000000,0.000000,0.000000,0,0,0,0,0,0,30.7693339167,34.6531471561,0.898615,-0.627234,8.895166,66.924339,83.434830,2.995792,-1.232404,-0.002187,0.000000,-389.869385,-388.675964,12.000000,40.000000,0.000000,0.000000,-389.999847,-390.000000,0.898615,0.000093,-0.133097,246.991150,53.335018,0.083256,-2.499244,-951.735596,0.000000
0.000000,0.000000,0.000000,0.000000,0.000000,0.000000,0.000000,0.000000,0,0,0,0,0,0,30.7693339166,34.6531471563,0.898446,-0.626418,8.894654,66.924469,82.984627,3.009113,-1.259795,-0.001008,0.000000,-389.870911,-388.677460,12.000000,40.000000,0.000000,0.000000,-389.999847,-390.000000,0.898446,0.000091,-0.062447,246.991150,53.786434,0.082998,-2.499285,-833.534607,0.000000
0.000000,0.000000,0.000000,0.000000,0.000000,0.000000,0.000000,0.000000,0,0,0,0,0,0,30.7693339165,34.6531471563,0.898385,-0.626131,8.894514,66.924515,82.986740,3.008897,-1.288744,-0.000278,0.000000,-389.871582,-388.678131,12.000000,40.000000,0.000000,0.000000,-389.999847,-390.000000,0.898385,0.000089,-0.018014,246.991150,54.216743,0.082803,-2.499319,-724.285889,0.000000
0.000000,0.000000,0.000000,0.000000,0.000000,0.000000,0.000000,0.000000,0,0,0,0,0,0,30.7693339165,34.6531471563,0.898378,-0.626085,8.894547,66.924522,82.987686,3.008751,1.045310,0.000088,0.000000,-389.871857,-388.678406,12.000000,40.000000,0.000000,0.000000,-389.999847,-390.000000,0.898378,0.000088,0.004353,246.991150,54.658981,0.082671,-2.499353,-614.895264,0.000000
